     2.11           OBSERVATION DATA    M (MIXED)           RINEX VERSION / TYPE
GPP.DLL V3.2.21                         18 - MAR - 24 07:43 PGM / RUN BY / DATE 
                                                            MARKER NAME         
                                                            MARKER NUMBER       
                                                            OBSERVER / AGENCY   
6028C00128          APX-15v3 AV         5.50                REC # / TYPE / VERS 
                    E                                       ANT # / TYPE        
 -4667971.3695  2554554.5152 -3504733.1011                  APPROX POSITION XYZ 
        0.0000       -0.0000       -0.0000                  ANTENNA: DELTA H/E/N
     1     1                                                WAVELENGTH FACT L1/2
     8    L1    L2    C1    C2    D1    D2    S1    S2      # / TYPES OF OBSERV 
     0.100                                                  INTERVAL            
  2024     1    10     3    24    0.0000000     GPS         TIME OF FIRST OBS   
  2024     1    10     3    24   59.9000000     GPS         TIME OF LAST OBS    
    18                                                      LEAP SECONDS        
     7                                                      # OF SATELLITES     
   G08   600   600   600   600   600   600   600   600      PRN / # OF OBS      
   G10   600   600   600   600   600   600   600   600      PRN / # OF OBS      
   G15   600   600   600   600   600   600   600   600      PRN / # OF OBS      
   G18   600   600   600   600   600   600   600   600      PRN / # OF OBS      
   G23   600   600   600   600   600   600   600   600      PRN / # OF OBS      
   G24   600   600   600   600   600   600   600   600      PRN / # OF OBS      
   G32   600   600   600   600   600   600   600   600      PRN / # OF OBS      
                                                            END OF HEADER       
 24  1 10  3 24  0.0000000  0  7G08G18G23G24G10G15G32
 128124320.03125  99837217.284 5  24381259.387    24381280.313        2718.574  
      2119.055          30.000          35.000  
 113342276.433 7  88318720.667 7  21568319.620    21568335.327       -1914.453  
     -1491.820          43.000          43.000  
 110020641.830 7  85730427.542 7  20936232.549    20936246.968       -1889.508  
     -1472.551          42.000          42.000  
 127962468.245 5  99711107.710 6  24350448.328    24350469.254         142.770  
       111.789          35.000          38.000  
 107495100.695 7  83762484.011 7  20455639.574    20455655.714         -31.801  
       -25.145          46.000          45.000  
 127656964.583 5  99473033.622 5  24292317.758    24292334.302       -3421.012  
     -2665.031          32.000          34.000  
 114695820.612 7  89373454.878 7  21825887.568    21825906.748        2744.105  
      2137.941          45.000          43.000  
 24  1 10  3 24  0.1000000  0  7G08G18G23G24G10G15G32
 128124048.22325  99837005.408 5  24381207.663    24381228.570        2718.785  
      2118.648          30.000          35.000  
 113342467.840 7  88318869.839 7  21568356.044    21568371.756       -1913.918  
     -1491.695          43.000          44.000  
 110020830.852 7  85730574.877 7  20936268.518    20936282.949       -1890.184  
     -1472.836          42.000          43.000  
 127962453.896 5  99711096.553 6  24350445.598    24350466.529         143.039  
       111.559          35.000          38.000  
 107495104.037 7  83762486.667 7  20455640.210    20455656.363         -33.812  
       -26.078          46.000          45.000  
 127657306.664 5  99473300.222 5  24292382.854    24292399.408       -3421.199  
     -2665.941          32.000          35.000  
 114695546.120 7  89373241.021 7  21825835.334    21825854.522        2745.613  
      2138.801          46.000          43.000  
 24  1 10  3 24  0.2000000  0  7G08G18G23G24G10G15G32
 128123776.46224  99836793.677 5  24381156.175    24381177.004        2717.188  
      2117.094          29.000          34.000  
 113342659.229 7  88319018.980 7  21568392.777    21568407.943       -1913.965  
     -1491.219          44.000          44.000  
 110021019.902 7  85730722.146 7  20936305.048    20936319.999       -1890.934  
     -1472.988          43.000          43.000  
 127962439.629 5  99711085.406 6  24350442.656    24350463.776         143.492  
       111.234          35.000          38.000  
 107495107.382 7  83762489.251 7  20455639.909    20455657.229         -33.715  
       -26.074          46.000          45.000  
 127657648.850 5  99473566.921 5  24292447.657    24292464.828       -3422.555  
     -2666.766          33.000          35.000  
 114695271.561 7  89373027.037 7  21825783.369    21825802.304        2745.715  
      2140.039          46.000          43.000  
 24  1 10  3 24  0.3000000  0  7G08G18G23G24G10G15G32
 128123504.92824  99836582.060 5  24381104.504    24381125.325        2715.422  
      2116.504          29.000          34.000  
 113342850.619 7  88319168.124 7  21568429.197    21568444.366       -1913.809  
     -1491.488          44.000          44.000  
 110021209.074 7  85730869.548 7  20936341.046    20936355.996       -1892.027  
     -1474.145          43.000          43.000  
 127962425.323 5  99711074.282 6  24350439.934    24350461.059         142.148  
       111.227          35.000          38.000  
 107495110.731 7  83762491.896 7  20455640.546    20455657.875         -33.578  
       -26.379          46.000          45.000  
 127657991.223 5  99473833.617 5  24292512.809    24292529.958       -3423.527  
     -2667.289          32.000          35.000  
 114694996.891 7  89372812.958 7  21825731.101    21825750.024        2747.285  
      2140.586          46.000          43.000  
 24  1 10  3 24  0.4000000  0  7G08G18G23G24G10G15G32
 128123233.33624  99836370.475 5  24381053.041    24381073.685        2715.562  
      2115.980          29.000          34.000  
 113343041.987 7  88319317.253 7  21568465.910    21568480.574       -1913.605  
     -1491.359          44.000          43.000  
 110021398.241 7  85731016.980 7  20936377.559    20936391.673       -1891.996  
     -1474.418          43.000          43.000  
 127962411.130 6  99711063.197 6  24350437.116    24350458.063         142.672  
       111.004          36.000          39.000  
 107495114.210 7  83762494.588 7  20455640.872    20455657.594         -35.164  
       -26.680          46.000          44.000  
 127658333.614 5  99474100.500 5  24292578.050    24292595.337       -3424.004  
     -2668.391          33.000          35.000  
 114694722.066 7  89372598.862 7  21825679.311    21825697.458        2748.926  
      2141.160          46.000          43.000  
 24  1 10  3 24  0.5000000  0  7G08G18G23G24G10G15G32
 128122961.99824  99836158.970 5  24381001.407    24381022.033        2713.332  
      2115.023          29.000          33.000  
 113343233.346 7  88319466.333 7  21568502.324    21568516.981       -1913.695  
     -1490.777          44.000          43.000  
 110021587.508 7  85731164.492 7  20936413.576    20936427.697       -1892.949  
     -1474.898          42.000          43.000  
 127962396.869 6  99711052.103 6  24350434.402    24350455.354         142.047  
       110.562          36.000          39.000  
 107495117.677 7  83762497.262 7  20455641.532    20455658.247         -34.688  
       -27.219          46.000          44.000  
 127658676.160 5  99474367.378 5  24292643.234    24292660.511       -3425.480  
     -2669.004          34.000          35.000  
 114694447.146 7  89372384.658 7  21825626.995    21825645.147        2749.559  
      2142.082          46.000          43.000  
 24  1 10  3 24  0.6000000  0  7G08G18G23G24G10G15G32
 128122690.70324  99835947.683 5  24380949.742    24380969.802        2710.953  
      2113.012          29.000          33.000  
 113343424.712 7  88319615.410 7  21568538.842    21568553.309       -1913.754  
     -1490.828          44.000          43.000  
 110021776.935 7  85731312.038 7  20936448.997    20936463.065       -1894.539  
     -1475.508          42.000          42.000  
 127962382.723 5  99711041.064 6  24350431.788    24350452.885         141.234  
       110.570          35.000          39.000  
 107495121.255 7  83762500.057 7  20455642.760    20455658.555         -36.004  
       -27.586          47.000          44.000  
 127659018.808 5  99474634.341 6  24292708.523    24292725.644       -3426.805  
     -2669.559          34.000          36.000  
 114694172.175 7  89372170.392 7  21825574.576    21825593.056        2749.977  
      2142.879          46.000          43.000  
 24  1 10  3 24  0.7000000  0  7G08G18G23G24G10G15G32
 128122419.67324  99835736.415 5  24380898.167    24380918.208        2709.527  
      2112.918          29.000          33.000  
 113343616.078 7  88319764.542 7  21568575.257    21568589.728       -1913.520  
     -1491.250          44.000          43.000  
 110021966.422 7  85731459.674 7  20936485.055    20936499.119       -1895.301  
     -1476.324          43.000          43.000  
 127962368.620 5  99711030.023 6  24350429.105    24350450.188         140.969  
       110.273          35.000          39.000  
 107495124.936 7  83762502.924 7  20455643.460    20455659.255         -37.457  
       -28.621          47.000          44.000  
 127659361.554 5  99474901.364 6  24292773.746    24292790.853       -3428.551  
     -2670.129          34.000          36.000  
 114693897.103 7  89371956.057 7  21825522.232    21825540.713        2750.707  
      2142.930          46.000          43.000  
 24  1 10  3 24  0.8000000  0  7G08G18G23G24G10G15G32
 128122148.650 5  99835525.255 5  24380846.843    24380866.805        2710.824  
      2111.602          30.000          34.000  
 113343807.406 7  88319913.609 7  21568611.494    21568626.733       -1913.223  
     -1491.113          44.000          44.000  
 110022155.945 7  85731607.354 7  20936521.222    20936535.074       -1895.473  
     -1477.059          43.000          43.000  
 127962354.469 6  99711019.043 6  24350426.560    24350447.890         141.969  
       109.934          36.000          40.000  
 107495128.584 7  83762505.798 7  20455644.475    20455660.012         -36.527  
       -29.109          47.000          44.000  
 127659704.325 5  99475168.564 6  24292839.270    24292856.489       -3427.488  
     -2671.934          34.000          36.000  
 114693621.970 7  89371741.680 7  21825469.845    21825488.485        2751.438  
      2144.223          46.000          43.000  
 24  1 10  3 24  0.9000000  0  7G08G18G23G24G10G15G32
 128121877.750 4  99835314.138 5  24380795.292    24380815.248        2707.566  
      2111.184          29.000          34.000  
 113343998.754 7  88320062.775 7  21568647.906    21568663.161       -1913.484  
     -1490.945          44.000          44.000  
 110022345.550 7  85731755.161 7  20936557.303    20936571.170       -1896.582  
     -1477.984          42.000          43.000  
 127962340.287 6  99711008.056 6  24350423.862    24350445.206         141.727  
       109.832          36.000          40.000  
 107495132.365 7  83762508.754 7  20455645.194    20455660.734         -37.934  
       -28.980          47.000          44.000  
 127660047.259 5  99475435.701 5  24292904.528    24292921.727       -3429.465  
     -2671.637          32.000          35.000  
 114693346.733 7  89371527.142 7  21825417.469    21825436.092        2753.137  
      2144.984          46.000          43.000  
 24  1 10  3 24  1.0000000  0  7G08G18G23G24G10G15G32
 128121607.009 4  99835103.258 5  24380743.920    24380764.061        2707.777  
      2109.207          29.000          33.000  
 113344190.054 7  88320211.812 7  21568683.864    21568699.620       -1913.230  
     -1491.051          43.000          44.000  
 110022535.295 7  85731903.034 7  20936592.957    20936607.751       -1898.023  
     -1478.344          42.000          43.000  
 127962326.308 6  99710997.054 6  24350421.006    24350442.403         139.848  
       109.863          36.000          40.000  
 107495136.142 7  83762511.707 7  20455646.210    20455661.712         -37.828  
       -29.984          46.000          44.000  
 127660390.307 5  99475703.033 5  24292969.433    24292987.192       -3431.891  
     -2672.844          31.000          35.000  
 114693071.392 7  89371312.619 7  21825365.511    21825383.469        2753.719  
      2145.453          47.000          43.000  
 24  1 10  3 24  1.1000000  0  7G08G18G23G24G10G15G32
 128121336.399 4  99834892.374 5  24380692.425    24380712.561        2704.293  
      2108.848          29.000          33.000  
 113344381.397 7  88320360.967 7  21568720.276    21568736.045       -1913.062  
     -1490.793          43.000          44.000  
 110022725.046 7  85732050.819 7  20936629.065    20936643.842       -1897.762  
     -1478.137          42.000          43.000  
 127962312.222 6  99710986.100 6  24350418.326    24350439.727         141.117  
       109.688          36.000          39.000  
 107495140.047 7  83762514.712 7  20455646.953    20455662.446         -39.449  
       -29.902          47.000          44.000  
 127660733.443 5  99475970.348 6  24293034.730    24293052.473       -3430.465  
     -2673.066          31.000          36.000  
 114692795.923 7  89371098.006 7  21825313.091    21825331.059        2755.406  
      2146.270          46.000          43.000  
 24  1 10  3 24  1.2000000  0  7G08G18G23G24G10G15G32
 128121065.957 4  99834681.584 5  24380640.923    24380660.991        2704.012  
      2107.816          29.000          33.000  
 113344572.660 7  88320509.926 7  21568756.758    21568772.735       -1912.523  
     -1490.262          44.000          44.000  
 110022914.911 7  85732198.771 7  20936665.180    20936680.661       -1898.930  
     -1479.430          43.000          43.000  
 127962298.098 6  99710975.144 6  24350415.575    24350436.700         140.465  
       109.465          36.000          40.000  
 107495143.981 7  83762517.746 7  20455647.826    20455663.125         -39.453  
       -30.430          46.000          43.000  
 127661076.553 5  99476237.783 5  24293100.154    24293117.361       -3431.391  
     -2674.309          32.000          35.000  
 114692520.350 7  89370883.306 7  21825260.284    21825278.955        2755.969  
      2147.223          46.000          43.000  
 24  1 10  3 24  1.3000000  0  7G08G18G23G24G10G15G32
 128120795.561 4  99834470.883 5  24380589.468    24380609.535        2702.902  
      2107.105          29.000          33.000  
 113344763.916 7  88320658.990 7  21568793.152    21568809.138       -1911.926  
     -1490.176          44.000          44.000  
 110023104.806 7  85732346.751 7  20936701.316    20936716.799       -1899.137  
     -1480.094          43.000          43.000  
 127962284.082 6  99710964.216 6  24350412.908    24350434.032         140.363  
       109.258          36.000          40.000  
 107495147.904 7  83762520.839 7  20455648.573    20455663.880         -39.375  
       -30.840          46.000          44.000  
 127661419.691 5  99476505.236 6  24293165.451    24293182.676       -3431.914  
     -2674.320          31.000          36.000  
 114692244.651 7  89370668.457 7  21825207.820    21825226.487        2757.672  
      2148.344          46.000          43.000  
 24  1 10  3 24  1.4000000  0  7G08G18G23G24G10G15G32
 128120525.369 4  99834260.347 5  24380538.404    24380558.331        2702.160  
      2105.715          27.000          33.000  
 113344955.135 7  88320807.981 7  21568829.845    21568845.468       -1912.324  
     -1490.148          44.000          44.000  
 110023294.832 7  85732494.842 7  20936738.156    20936752.597       -1900.496  
     -1480.930          43.000          42.000  
 127962270.048 6  99710953.292 6  24350410.269    24350431.161         140.531  
       109.199          37.000          39.000  
 107495151.949 7  83762523.985 7  20455648.655    20455664.719         -40.645  
       -31.582          46.000          44.000  
 127661763.175 4  99476772.796 6  24293231.103    24293248.072       -3435.750  
     -2675.625          29.000          36.000  
 114691968.934 7  89370453.609 7  21825154.548    21825174.003        2757.078  
      2148.828          46.000          43.000  
 24  1 10  3 24  1.5000000  0  7G08G18G23G24G10G15G32
 128120255.170 4  99834049.820 5  24380486.986    24380506.918        2701.102  
      2105.129          29.000          34.000  
 113345146.425 7  88320957.068 7  21568866.246    21568881.877       -1912.895  
     -1490.484          44.000          44.000  
 110023484.893 7  85732642.933 7  20936774.323    20936788.762       -1900.855  
     -1480.715          43.000          43.000  
 127962256.057 6  99710942.332 6  24350407.606    24350428.484         139.215  
       109.520          37.000          39.000  
 107495156.025 7  83762527.161 7  20455649.431    20455665.494         -41.145  
       -31.332          46.000          44.000  
 127662106.681 5  99477040.497 6  24293296.470    24293313.447       -3434.535  
     -2677.062          30.000          36.000  
 114691693.111 7  89370238.606 7  21825102.061    21825121.497        2758.656  
      2149.285          46.000          43.000  
 24  1 10  3 24  1.6000000  0  7G08G18G23G24G10G15G32
 128119985.156 4  99833839.413 5  24380435.589    24380455.488        2700.539  
      2103.938          29.000          34.000  
 113345337.637 7  88321106.048 7  21568902.484    21568917.681       -1911.883  
     -1489.719          44.000          44.000  
 110023674.987 7  85732791.069 7  20936811.013    20936825.220       -1901.387  
     -1481.266          44.000          43.000  
 127962242.054 6  99710931.414 6  24350404.504    24350425.584         140.484  
       109.250          37.000          39.000  
 107495160.125 7  83762530.337 7  20455649.672    20455666.051         -41.086  
       -32.191          46.000          43.000  
 127662450.191 5  99477308.194 6  24293361.596    24293378.923       -3434.527  
     -2676.832          31.000          36.000  
 114691417.137 7  89370023.648 7  21825050.068    21825068.971        2760.051  
      2149.949          46.000          43.000  
 24  1 10  3 24  1.7000000  0  7G08G18G23G24G10G15G32
 128119715.175 4  99833629.070 5  24380384.213    24380404.120        2697.762  
      2103.363          29.000          34.000  
 113345528.825 7  88321254.982 7  21568938.866    21568954.052       -1911.578  
     -1489.789          45.000          44.000  
 110023865.178 7  85732939.244 7  20936847.205    20936861.406       -1902.301  
     -1482.023          44.000          43.000  
 127962228.011 6  99710920.492 6  24350401.832    24350422.916         139.547  
       109.105          36.000          39.000  
 107495164.338 7  83762533.679 7  20455650.474    20455666.867         -42.707  
       -32.680          46.000          43.000  
 127662793.733 5  99477575.870 6  24293426.970    24293444.292       -3436.856  
     -2677.188          30.000          36.000  
 114691141.170 7  89369808.572 7  21824997.553    21825016.447        2759.918  
      2150.965          46.000          43.000  
 24  1 10  3 24  1.8000000  0  7G08G18G23G24G10G15G32
 128119445.463 4  99833418.855 5  24380332.967    24380353.104        2697.328  
      2102.285          29.000          34.000  
 113345720.054 7  88321404.047 7  21568975.513    21568990.956       -1912.621  
     -1490.012          45.000          44.000  
 110024055.467 7  85733087.509 7  20936883.845    20936897.895       -1903.488  
     -1482.551          44.000          43.000  
 127962214.041 6  99710909.636 6  24350398.666    24350420.023         138.918  
       108.793          36.000          39.000  
 107495168.598 7  83762536.940 7  20455651.777    20455667.484         -43.027  
       -33.328          46.000          44.000  
 127663137.523 5  99477843.683 6  24293491.914    24293509.460       -3438.808  
     -2677.637          31.000          36.000  
 114690865.178 7  89369593.461 7  21824944.823    21824963.977        2759.945  
      2150.801          46.000          43.000  
 24  1 10  3 24  1.9000000  0  7G08G18G23G24G10G15G32
 128119175.738 4  99833208.725 5  24380281.640    24380301.788        2697.523  
      2100.965          28.000          34.000  
 113345911.297 7  88321553.048 7  21569011.906    21569027.343       -1912.836  
     -1490.348          45.000          44.000  
 110024245.831 7  85733235.873 7  20936920.070    20936934.127       -1903.660  
     -1483.859          43.000          43.000  
 127962200.153 6  99710898.774 6  24350396.023    24350417.370         140.035  
       108.641          36.000          39.000  
 107495172.953 7  83762540.343 7  20455652.605    20455668.315         -43.887  
       -33.625          46.000          44.000  
 127663481.272 5  99478111.551 5  24293557.327    24293574.876       -3437.254  
     -2678.242          31.000          35.000  
 114690589.031 7  89369378.314 7  21824892.274    21824911.436        2761.820  
      2151.379          46.000          43.000  
 24  1 10  3 24  2.0000000  0  7G08G18G23G24G10G15G32
 128118906.132 4  99832998.729 5  24380230.164    24380250.661        2695.641  
      2100.668          28.000          34.000  
 113346102.527 7  88321702.033 7  21569048.108    21569063.735       -1912.086  
     -1489.871          45.000          44.000  
 110024436.272 7  85733384.292 7  20936955.474    20936970.357       -1905.023  
     -1483.914          43.000          43.000  
 127962186.131 6  99710887.875 6  24350393.253    24350414.927         139.387  
       108.691          36.000          39.000  
 107495177.359 7  83762543.791 7  20455653.358    20455669.642         -44.125  
       -34.738          46.000          44.000  
 127663825.068 5  99478379.428 5  24293622.312    24293640.381       -3437.930  
     -2678.805          32.000          35.000  
 114690312.882 7  89369163.199 7  21824840.373    21824858.559        2761.766  
      2151.555          47.000          43.000  
 24  1 10  3 24  2.1000000  0  7G08G18G23G24G10G15G32
 128118636.686 4  99832788.676 5  24380178.890    24380199.364        2693.590  
      2100.012          28.000          34.000  
 113346293.738 7  88321851.068 7  21569084.494    21569100.131       -1911.789  
     -1490.164          45.000          44.000  
 110024626.769 7  85733532.670 7  20936991.725    20937006.592       -1905.430  
     -1484.102          43.000          44.000  
 127962172.245 6  99710877.090 6  24350390.611    24350412.294         139.020  
       107.910          36.000          38.000  
 107495181.883 7  83762547.315 7  20455654.219    20455670.502         -45.691  
       -34.707          46.000          44.000  
 127664168.954 5  99478647.519 5  24293687.751    24293705.851       -3439.641  
     -2680.492          32.000          34.000  
 114690036.724 7  89368947.954 7  21824787.822    21824805.994        2761.469  
      2152.500          47.000          43.000  
 24  1 10  3 24  2.2000000  0  7G08G18G23G24G10G15G32
 128118367.345 4  99832578.758 5  24380127.612    24380148.201        2694.184  
      2099.434          29.000          34.000  
 113346484.968 7  88322000.047 7  21569121.314    21569136.950       -1912.121  
     -1489.949          45.000          44.000  
 110024817.334 7  85733681.179 7  20937027.675    20937043.344       -1905.793  
     -1485.047          43.000          43.000  
 127962158.321 6  99710866.241 6  24350388.063    24350409.441         139.152  
       108.652          36.000          38.000  
 107495186.377 7  83762550.791 7  20455655.332    20455671.288         -45.051  
       -35.102          46.000          43.000  
 127664512.922 5  99478915.526 5  24293753.230    24293770.848       -3440.164  
     -2680.426          32.000          34.000  
 114689760.363 7  89368732.617 7  21824735.490    21824753.289        2763.996  
      2153.344          46.000          43.000  
 24  1 10  3 24  2.3000000  0  7G08G18G23G24G10G15G32
 128118098.146 4  99832369.015 5  24380076.386    24380096.980        2691.391  
      2097.406          28.000          34.000  
 113346676.182 7  88322149.028 7  21569157.701    21569173.333       -1912.527  
     -1490.125          45.000          44.000  
 110025008.001 7  85733829.775 7  20937063.958    20937079.633       -1907.379  
     -1485.930          43.000          43.000  
 127962144.463 6  99710855.442 6  24350385.426    24350406.804         138.492  
       107.805          36.000          38.000  
 107495190.941 7  83762554.380 7  20455656.200    20455672.165         -45.809  
       -35.918          46.000          43.000  
 127664857.108 5  99479183.626 5  24293818.726    24293836.321       -3442.648  
     -2681.004          33.000          34.000  
 114689484.023 7  89368517.278 7  21824682.904    21824700.701        2763.309  
      2152.809          46.000          43.000  
 24  1 10  3 24  2.4000000  0  7G08G18G23G24G10G15G32
 128117828.958 4  99832159.262 5  24380024.997    24380045.240        2691.707  
      2097.590          29.000          34.000  
 113346867.337 7  88322297.995 7  21569193.975    21569209.423       -1911.516  
     -1489.887          45.000          44.000  
 110025198.704 7  85733978.365 7  20937100.349    20937115.303       -1906.949  
     -1485.789          43.000          43.000  
 127962130.611 6  99710844.647 6  24350383.126    24350403.761         138.602  
       108.207          36.000          38.000  
 107495195.571 7  83762558.001 7  20455656.886    20455673.237         -46.047  
       -35.891          46.000          43.000  
 127665201.328 5  99479451.764 5  24293884.409    24293901.506       -3441.371  
     -2681.547          31.000          35.000  
 114689207.556 7  89368301.880 7  21824629.536    21824647.982        2765.223  
      2154.277          46.000          42.000  
 24  1 10  3 24  2.5000000  0  7G08G18G23G24G10G15G32
 128117559.911 4  99831949.628 5  24379973.799    24379994.046        2689.852  
      2096.387          29.000          33.000  
 113347058.521 7  88322447.004 7  21569230.356    21569245.813       -1911.867  
     -1489.461          45.000          44.000  
 110025389.445 7  85734126.987 7  20937136.646    20937151.598       -1907.613  
     -1486.574          43.000          43.000  
 127962116.714 6  99710833.824 6  24350380.481    24350401.118         139.152  
       108.344          36.000          38.000  
 107495200.211 7  83762561.597 7  20455657.769    20455674.115         -46.887  
       -36.125          46.000          43.000  
 127665545.454 5  99479720.000 5  24293949.894    24293967.012       -3442.672  
     -2682.453          31.000          35.000  
 114688931.001 7  89368086.380 7  21824576.910    21824595.355        2766.180  
      2155.230          46.000          43.000  
 24  1 10  3 24  2.6000000  0  7G08G18G23G24G10G15G32
 128117290.844 4  99831740.013 5  24379922.753    24379942.902        2688.281  
      2096.125          29.000          33.000  
 113347249.638 7  88322595.867 7  21569267.131    21569282.292       -1910.953  
     -1489.215          45.000          44.000  
 110025580.211 7  85734275.640 7  20937172.877    20937187.814       -1907.875  
     -1486.527          43.000          43.000  
 127962102.855 6  99710823.036 6  24350377.688    24350398.656         138.410  
       107.836          36.000          38.000  
 107495204.892 7  83762565.219 7  20455658.910    20455675.429         -46.723  
       -36.199          46.000          44.000  
 127665889.753 5  99479988.350 5  24294015.380    24294032.999       -3442.664  
     -2682.938          32.000          35.000  
 114688654.355 7  89367870.773 7  21824523.664    21824543.139        2767.160  
      2155.777          47.000          43.000  
 24  1 10  3 24  2.7000000  0  7G08G18G23G24G10G15G32
 128117022.027 4  99831530.519 5  24379871.599    24379891.742        2688.703  
      2094.918          29.000          33.000  
 113347440.745 7  88322744.822 7  21569303.497    21569318.668       -1910.781  
     -1489.324          45.000          44.000  
 110025771.027 7  85734424.302 7  20937209.188    20937224.119       -1908.270  
     -1486.484          43.000          43.000  
 127962089.062 6  99710812.270 6  24350375.063    24350396.026         137.977  
       107.812          36.000          39.000  
 107495209.540 7  83762568.857 7  20455659.794    20455676.318         -46.488  
       -36.656          46.000          44.000  
 127666234.215 5  99480256.647 5  24294080.929    24294098.520       -3445.234  
     -2683.242          32.000          34.000  
 114688377.595 7  89367655.125 7  21824470.998    21824490.475        2768.160  
      2156.184          47.000          43.000  
 24  1 10  3 24  2.8000000  0  7G08G18G23G24G10G15G32
 128116753.16434  99831321.075 5  24379820.249    24379840.851        2686.480  
      2094.496          29.000          33.000  
 113347631.853 7  88322893.759 7  21569340.137    21569354.688       -1911.012  
     -1488.988          46.000          44.000  
 110025961.917 7  85734573.045 7  20937245.662    20937260.655       -1908.664  
     -1487.770          43.000          43.000  
 127962075.279 6  99710801.514 6  24350372.213    24350393.751         137.809  
       107.398          36.000          39.000  
 107495214.306 7  83762572.593 7  20455660.623    20455676.667         -47.617  
       -36.695          46.000          44.000  
 127666578.655 5  99480525.046 5  24294146.583    24294164.448       -3444.430  
     -2683.688          32.000          34.000  
 114688100.777 8  89367439.458 7  21824419.697    21824438.088        2768.715  
      2157.754          48.000          43.000  
 24  1 10  3 24  2.9000000  0  7G08G18G23G24G10G15G32
 128116484.57124  99831111.700 5  24379769.137    24379789.720        2686.234  
      2093.992          29.000          34.000  
 113347822.959 7  88323042.660 7  21569376.503    21569391.051       -1911.234  
     -1489.125          46.000          44.000  
 110026152.875 7  85734721.858 7  20937282.000    20937296.996       -1910.078  
     -1487.949          43.000          43.000  
 127962061.507 6  99710790.796 6  24350369.593    24350391.134         137.777  
       107.219          36.000          39.000  
 107495219.021 7  83762576.256 7  20455661.520    20455677.562         -47.820  
       -37.094          46.000          44.000  
 127666923.104 5  99480793.533 5  24294212.130    24294230.016       -3446.531  
     -2684.891          32.000          35.000  
 114687823.877 7  89367223.656 7  21824367.004    21824385.387        2769.293  
      2157.508          47.000          43.000  
 24  1 10  3 24  3.0000000  0  7G08G18G23G24G10G15G32
 128116215.94724  99830902.365 5  24379717.942    24379738.535        2685.508  
      2092.707          29.000          34.000  
 113348014.013 7  88323191.501 7  21569413.094    21569427.095       -1909.996  
     -1488.648          46.000          44.000  
 110026343.836 7  85734870.691 7  20937318.354    20937333.226       -1909.645  
     -1488.106          42.000          43.000  
 127962047.767 6  99710780.047 6  24350366.767    24350388.884         137.488  
       107.516          36.000          39.000  
 107495223.811 7  83762579.997 7  20455662.283    20455678.405         -48.062  
       -37.508          46.000          44.000  
 127667267.823 5  99481062.090 5  24294277.673    24294295.795       -3446.250  
     -2685.164          31.000          35.000  
 114687546.873 7  89367007.802 7  21824314.480    21824332.478        2770.707  
      2158.387          47.000          43.000  
 24  1 10  3 24  3.1000000  0  7G08G18G23G24G10G15G32
 128115947.34924  99830693.146 5  24379666.829    24379687.442        2684.855  
      2092.660          29.000          34.000  
 113348205.062 7  88323340.385 7  21569449.450    21569463.454       -1910.473  
     -1488.715          45.000          44.000  
 110026534.913 7  85735019.518 7  20937354.715    20937369.571       -1910.988  
     -1488.711          43.000          43.000  
 127962034.008 6  99710769.314 6  24350364.149    24350386.263         137.109  
       107.066          36.000          39.000  
 107495228.588 7  83762583.694 7  20455663.192    20455679.308         -47.508  
       -36.898          46.000          44.000  
 127667612.431 5  99481330.697 5  24294343.250    24294361.392       -3447.266  
     -2686.055          32.000          35.000  
 114687269.755 7  89366791.898 7  21824261.746    21824279.752        2771.406  
      2159.344          46.000          42.000  
 24  1 10  3 24  3.2000000  0  7G08G18G23G24G10G15G32
 128115679.04424  99830483.962 5  24379616.046    24379636.373        2683.586  
      2091.809          29.000          33.000  
 113348395.990 7  88323489.176 7  21569485.446    21569500.415       -1909.043  
     -1487.934          45.000          44.000  
 110026725.896 7  85735168.364 7  20937391.222    20937406.155       -1909.785  
     -1488.594          43.000          43.000  
 127962020.271 6  99710758.663 6  24350361.636    24350383.912         138.293  
       106.715          36.000          39.000  
 107495233.326 7  83762587.389 7  20455664.461    20455680.320         -47.262  
       -37.164          46.000          44.000  
 127667957.218 5  99481599.331 5  24294408.978    24294427.183       -3447.438  
     -2686.059          33.000          35.000  
 114686992.485 7  89366575.821 7  21824207.741    21824226.726        2773.184  
      2160.523          46.000          42.000  
 24  1 10  3 24  3.3000000  0  7G08G18G23G24G10G15G32
 128115410.43925  99830274.779 5  24379564.932    24379585.288        2686.773  
      2092.207          30.000          34.000  
 113348586.728 7  88323637.795 7  21569521.742    21569536.710       -1906.062  
     -1485.891          45.000          44.000  
 110026916.557 7  85735316.935 7  20937427.504    20937442.437       -1904.961  
     -1485.535          43.000          43.000  
 127962006.279 6  99710747.779 6  24350358.974    24350381.254         140.180  
       108.879          36.000          39.000  
 107495237.862 7  83762590.917 7  20455665.324    20455681.182         -44.539  
       -35.340          47.000          43.000  
 127668301.665 5  99481867.715 6  24294474.524    24294492.725       -3442.820  
     -2684.117          35.000          36.000  
 114686715.167 7  89366359.721 7  21824154.969    21824173.952        2773.730  
      2161.484          46.000          42.000  
 24  1 10  3 24  3.4000000  0  7G08G18G23G24G10G15G32
 128115141.72925  99830065.351 6  24379513.931    24379534.425        2687.859  
      2094.281          33.000          36.000  
 113348777.429 7  88323786.416 7  21569557.539    21569573.317       -1907.430  
     -1485.941          45.000          44.000  
 110027107.235 7  85735465.522 7  20937463.828    20937478.943       -1905.926  
     -1485.043          44.000          44.000  
 127961992.294 6  99710736.799 6  24350356.617    24350379.072         139.578  
       109.195          36.000          40.000  
 107495242.301 7  83762594.446 7  20455666.216    20455681.746         -43.402  
       -34.812          46.000          44.000  
 127668645.958 6  99482136.046 6  24294540.291    24294558.777       -3443.524  
     -2683.488          36.000          38.000  
 114686437.951 7  89366143.637 6  21824102.381    21824121.214        2771.230  
      2160.734          47.000          41.000  
 24  1 10  3 24  3.5000000  0  7G08G18G23G24G10G15G32
 128114873.04726  99829855.950 6  24379462.802    24379483.287        2686.539  
      2093.809          37.000          37.000  
 113348968.301 7  88323935.157 7  21569593.861    21569609.641       -1908.711  
     -1487.148          44.000          44.000  
 110027297.929 7  85735614.105 7  20937500.115    20937515.228       -1907.391  
     -1486.148          44.000          45.000  
 127961978.399 6  99710725.961 6  24350353.973    24350376.425         138.641  
       108.582          36.000          40.000  
 107495246.859 7  83762598.047 7  20455667.083    20455682.626         -45.996  
       -35.590          45.000          45.000  
 127668990.343 6  99482404.402 6  24294605.825    24294624.313       -3444.055  
     -2683.523          38.000          39.000  
 114686160.861 7  89365927.773 6  21824049.652    21824068.497        2770.152  
      2158.500          46.000          41.000  
 24  1 10  3 24  3.6000000  0  7G08G18G23G24G10G15G32
 128114604.32226  99829646.569 6  24379411.182    24379432.248        2687.402  
      2093.973          38.000          38.000  
 113349159.252 7  88324083.908 7  21569629.721    21569645.600       -1910.609  
     -1488.141          43.000          43.000  
 110027488.694 7  85735762.737 7  20937536.112    20937550.986       -1907.895  
     -1486.797          44.000          45.000  
 127961964.439 5  99710715.162 6  24350351.442    24350373.109         138.750  
       108.121          35.000          40.000  
 107495251.516 7  83762601.657 7  20455667.891    20455683.281         -47.414  
       -36.746          45.000          45.000  
 127669334.691 6  99482672.766 6  24294670.805    24294689.733       -3442.906  
     -2683.414          39.000          40.000  
 114685883.997 7  89365712.043 6  21823996.865    21824015.728        2767.188  
      2157.480          45.000          40.000  
 24  1 10  3 24  3.7000000  0  7G08G18G23G24G10G15G32
 128114335.47826  99829437.082 6  24379360.022    24379381.089        2688.988  
      2094.805          38.000          39.000  
 113349350.245 7  88324232.746 7  21569666.066    21569681.948       -1909.789  
     -1488.488          42.000          43.000  
 110027679.386 7  85735911.349 7  20937572.400    20937587.279       -1906.523  
     -1485.902          44.000          45.000  
 127961950.492 5  99710704.283 6  24350348.788    24350370.452         139.379  
       108.547          34.000          40.000  
 107495256.169 7  83762605.257 7  20455668.777    20455684.160         -46.664  
       -36.590          45.000          45.000  
 127669678.964 6  99482940.976 6  24294736.318    24294755.232       -3441.945  
     -2682.250          40.000          41.000  
 114685607.358 7  89365496.401 6  21823944.222    21823963.066        2765.383  
      2155.188          44.000          39.000  
 24  1 10  3 24  3.8000000  0  7G08G18G23G24G10G15G32
 128114066.44026  99829227.433 6  24379308.584    24379329.687        2691.223  
      2096.250          38.000          40.000  
 113349541.223 7  88324381.540 7  21569702.259    21569717.418       -1910.387  
     -1488.570          42.000          43.000  
 110027869.996 7  85736059.841 7  20937608.664    20937623.612       -1905.934  
     -1484.977          44.000          46.000  
 127961936.520 5  99710693.394 6  24350346.105    24350366.980         140.410  
       109.211          34.000          40.000  
 107495260.809 7  83762608.898 7  20455669.597    20455685.291         -45.984  
       -36.031          44.000          45.000  
 127670022.921 6  99483208.992 6  24294802.005    24294821.028       -3439.344  
     -2680.422          41.000          41.000  
 114685330.927 7  89365281.056 6  21823891.916    21823910.305        2763.004  
      2153.770          44.000          39.000  
 24  1 10  3 24  3.9000000  0  7G08G18G23G24G10G15G32
 128113797.24426  99829017.675 6  24379257.357    24379278.462        2692.539  
      2097.535          38.000          40.000  
 113349732.283 7  88324530.458 7  21569738.617    21569753.785       -1910.500  
     -1488.547          42.000          43.000  
 110028060.406 7  85736208.187 7  20937644.897    20937659.840       -1903.324  
     -1483.871          44.000          46.000  
 127961922.436 5  99710682.394 6  24350343.425    24350364.294         141.352  
       109.691          34.000          40.000  
 107495265.386 7  83762612.450 7  20455670.468    20455686.159         -45.375  
       -35.578          44.000          45.000  
 127670366.724 6  99483476.861 6  24294867.429    24294886.444       -3437.000  
     -2678.703          41.000          41.000  
 114685054.678 7  89365065.842 6  21823839.348    21823857.747        2761.785  
      2152.215          44.000          38.000  
 24  1 10  3 24  4.0000000  0  7G08G18G23G24G10G15G32
 128113527.84126  99828807.757 6  24379206.115    24379227.292        2694.527  
      2099.199          39.000          41.000  
 113349923.329 7  88324679.313 7  21569775.112    21569789.997       -1910.102  
     -1488.609          42.000          42.000  
 110028250.712 7  85736356.520 7  20937681.213    20937696.229       -1902.184  
     -1482.859          45.000          46.000  
 127961908.239 5  99710671.343 6  24350341.060    24350361.751         141.902  
       110.523          34.000          40.000  
 107495269.922 7  83762616.027 7  20455671.089    20455687.251         -44.863  
       -35.234          44.000          45.000  
 127670710.335 6  99483744.599 6  24294933.066    24294951.954       -3435.430  
     -2677.609          41.000          41.000  
 114684778.611 7  89364850.685 6  21823787.017    21823805.196        2759.730  
      2151.273          43.000          38.000  
 24  1 10  3 24  4.1000000  0  7G08G18G23G24G10G15G32
 128113258.28026  99828597.696 6  24379154.820    24379175.993        2696.309  
      2100.570          38.000          40.000  
 113350114.386 6  88324828.222 7  21569811.469    21569826.362       -1910.984  
     -1488.875          41.000          42.000  
 110028440.932 7  85736504.745 7  20937717.411    20937732.427       -1901.555  
     -1482.066          44.000          46.000  
 127961894.093 5  99710660.283 6  24350338.368    24350359.050         141.680  
       110.559          33.000          40.000  
 107495274.372 7  83762619.455 7  20455671.936    20455688.088         -44.293  
       -34.637          44.000          45.000  
 127671053.799 6  99484012.250 6  24294998.425    24295017.317       -3433.871  
     -2676.426          41.000          41.000  
 114684502.760 7  89364635.703 6  21823734.524    21823752.695        2757.348  
      2149.750          43.000          38.000  
 24  1 10  3 24  4.2000000  0  7G08G18G23G24G10G15G32
 128112988.50926  99828387.500 6  24379103.343    24379125.013        2698.383  
      2101.750          38.000          41.000  
 113350305.427 7  88324977.044 7  21569848.081    21569862.526       -1910.129  
     -1488.312          42.000          42.000  
 110028630.959 7  85736652.795 7  20937753.759    20937768.707       -1899.496  
     -1480.668          44.000          46.000  
 127961879.846 5  99710649.138 6  24350335.961    24350356.836         142.699  
       111.367          33.000          40.000  
 107495278.717 7  83762622.858 7  20455673.138    20455688.708         -43.082  
       -34.156          44.000          45.000  
 127671397.082 6  99484279.708 6  24295063.406    24295081.789       -3432.266  
     -2674.695          40.000          41.000  
 114684227.067 7  89364420.883 6  21823682.038    21823700.625        2756.133  
      2147.949          43.000          39.000  
 24  1 10  3 24  4.3000000  0  7G08G18G23G24G10G15G32
 128112718.56526  99828177.132 6  24379051.975    24379073.638        2700.395  
      2103.691          39.000          41.000  
 113350496.492 7  88325125.938 7  21569884.439    21569898.887       -1910.586  
     -1488.934          42.000          42.000  
 110028820.851 7  85736800.787 7  20937789.894    20937804.848       -1898.367  
     -1479.680          44.000          46.000  
 127961865.457 5  99710637.985 6  24350333.223    24350354.113         143.699  
       111.320          33.000          40.000  
 107495282.991 7  83762626.209 7  20455673.951    20455689.527         -42.008  
       -33.125          44.000          45.000  
 127671740.131 6  99484547.075 6  24295128.686    24295147.083       -3430.199  
     -2673.676          40.000          40.000  
 114683951.568 7  89364206.289 6  21823629.613    21823648.218        2754.344  
      2146.438          44.000          39.000  
 24  1 10  3 24  4.4000000  0  7G08G18G23G24G10G15G32
 128112448.36826  99827966.607 6  24379000.644    24379022.648        2702.637  
      2105.047          39.000          41.000  
 113350687.609 7  88325274.880 7  21569920.808    21569935.784       -1911.180  
     -1489.508          42.000          42.000  
 110029010.666 7  85736948.674 7  20937825.929    20937840.776       -1897.516  
     -1478.793          45.000          46.000  
 127961851.062 5  99710626.788 6  24350330.414    24350351.027         144.184  
       112.051          33.000          40.000  
 107495287.199 7  83762629.443 7  20455674.525    20455690.566         -42.125  
       -32.578          44.000          45.000  
 127672083.029 6  99484814.251 6  24295193.922    24295211.939       -3428.836  
     -2671.953          39.000          40.000  
 114683676.277 7  89363991.681 6  21823577.211    21823596.332        2752.141  
      2145.723          43.000          39.000  
 24  1 10  3 24  4.5000000  0  7G08G18G23G24G10G15G32
 128112178.17126  99827756.053 6  24378949.227    24378971.229        2702.406  
      2105.578          39.000          41.000  
 113350878.791 6  88325423.843 7  21569957.188    21569972.162       -1912.227  
     -1489.496          41.000          42.000  
 110029200.379 7  85737096.498 7  20937862.030    20937876.876       -1897.273  
     -1478.594          45.000          46.000  
 127961836.787 5  99710615.667 6  24350327.697    24350348.311         142.113  
       111.270          32.000          40.000  
 107495291.436 7  83762632.730 7  20455675.332    20455691.369         -42.293  
       -32.641          44.000          46.000  
 127672425.909 6  99485081.425 6  24295259.169    24295277.186       -3428.785  
     -2671.871          39.000          40.000  
 114683401.064 7  89363777.283 6  21823524.840    21823543.974        2751.297  
      2143.723          44.000          39.000  
 24  1 10  3 24  4.6000000  0  7G08G18G23G24G10G15G32
 128111907.76926  99827545.363 6  24378897.990    24378919.448        2704.410  
      2106.945          38.000          40.000  
 113351069.978 7  88325572.773 7  21569993.523    21570008.189       -1911.930  
     -1489.336          42.000          43.000  
 110029389.978 7  85737244.283 7  20937898.149    20937913.037       -1895.445  
     -1477.520          44.000          46.000  
 127961822.426 5  99710604.467 6  24350324.878    24350345.591         144.176  
       112.180          34.000          40.000  
 107495295.561 7  83762635.920 7  20455675.710    20455692.297         -40.996  
       -32.074          44.000          46.000  
 127672768.646 6  99485348.461 6  24295324.226    24295342.368       -3426.812  
     -2670.402          38.000          40.000  
 114683126.074 7  89363562.996 6  21823472.011    21823490.878        2749.684  
      2143.070          45.000          40.000  
 24  1 10  3 24  4.7000000  0  7G08G18G23G24G10G15G32
 128111637.19326  99827334.547 6  24378846.501    24378867.964        2705.973  
      2108.125          38.000          40.000  
 113351261.096 7  88325721.700 7  21570029.892    21570044.558       -1910.898  
     -1489.535          42.000          43.000  
 110029579.508 7  85737391.969 7  20937934.215    20937949.104       -1895.207  
     -1476.898          44.000          46.000  
 127961808.001 5  99710593.214 6  24350322.133    24350342.843         144.730  
       112.383          33.000          40.000  
 107495299.581 7  83762639.029 7  20455676.475    20455693.056         -39.645  
       -31.234          44.000          46.000  
 127673111.266 6  99485615.437 6  24295389.424    24295407.566       -3425.606  
     -2669.859          37.000          39.000  
 114682851.079 7  89363348.713 6  21823419.681    21823438.547        2749.996  
      2142.555          46.000          41.000  
 24  1 10  3 24  4.8000000  0  7G08G18G23G24G10G15G32
 128111366.53826  99827123.629 6  24378794.833    24378816.479        2707.441  
      2108.797          37.000          39.000  
 113351452.254 7  88325870.703 7  21570066.010    21570081.845       -1911.625  
     -1489.723          43.000          43.000  
 110029768.948 7  85737539.545 7  20937970.092    20937984.901       -1894.066  
     -1476.117          45.000          46.000  
 127961793.550 5  99710582.021 6  24350319.063    24350340.352         144.285  
       111.988          33.000          40.000  
 107495303.548 7  83762642.116 7  20455677.402    20455693.974         -39.191  
       -30.945          45.000          46.000  
 127673453.746 6  99485882.347 6  24295454.128    24295472.482       -3424.469  
     -2669.113          37.000          39.000  
 114682576.207 7  89363134.547 6  21823367.945    21823387.152        2748.082  
      2142.008          46.000          41.000  
 24  1 10  3 24  4.9000000  0  7G08G18G23G24G10G15G32
 128111095.78526  99826912.714 6  24378743.310    24378764.972        2707.539  
      2109.359          37.000          39.000  
 113351643.473 7  88326019.666 7  21570102.398    21570118.223       -1912.355  
     -1489.781          43.000          44.000  
 110029958.338 7  85737687.175 7  20938006.132    20938020.954       -1893.699  
     -1475.941          45.000          46.000  
 127961779.160 5  99710570.784 6  24350316.325    24350337.608         143.125  
       112.410          33.000          40.000  
 107495307.497 7  83762645.166 7  20455678.153    20455694.719         -39.281  
       -30.516          45.000          46.000  
 127673796.231 6  99486149.157 6  24295519.300    24295537.640       -3424.770  
     -2668.504          37.000          39.000  
 114682301.386 7  89362920.401 6  21823315.648    21823334.855        2748.121  
      2141.348          46.000          41.000  
 24  1 10  3 24  5.0000000  0  7G08G18G23G24G10G15G32
 128110825.03726  99826701.703 6  24378691.812    24378713.355        2707.910  
      2109.797          36.000          39.000  
 113351834.669 7  88326168.686 7  21570139.203    21570155.154       -1912.141  
     -1490.113          44.000          44.000  
 110030147.731 7  85737834.730 7  20938042.266    20938056.754       -1893.977  
     -1475.445          44.000          46.000  
 127961764.848 5  99710559.584 6  24350313.859    24350334.818         143.719  
       111.980          33.000          39.000  
 107495311.409 7  83762648.226 7  20455678.484    20455695.138         -39.184  
       -30.453          46.000          46.000  
 127674138.710 6  99486416.039 6  24295584.495    24295602.925       -3424.414  
     -2668.781          37.000          38.000  
 114682026.619 7  89362706.297 6  21823263.002    21823282.116        2747.551  
      2141.172          46.000          41.000  
 24  1 10  3 24  5.1000000  0  7G08G18G23G24G10G15G32
 128110554.17525  99826490.641 6  24378640.269    24378661.811        2708.641  
      2110.629          35.000          38.000  
 113352025.877 7  88326317.660 7  21570175.589    21570191.535       -1912.039  
     -1489.664          44.000          44.000  
 110030337.045 7  85737982.234 7  20938078.291    20938092.776       -1892.859  
     -1475.422          45.000          46.000  
 127961750.494 5  99710548.385 6  24350311.128    24350332.083         144.117  
       112.098          33.000          39.000  
 107495315.226 7  83762651.196 7  20455679.210    20455695.863         -37.797  
       -29.699          46.000          47.000  
 127674481.106 6  99486682.833 6  24295649.651    24295668.079       -3424.109  
     -2667.684          37.000          38.000  
 114681751.868 7  89362492.187 6  21823210.719    21823229.828        2747.500  
      2141.031          47.000          41.000  
 24  1 10  3 24  5.2000000  0  7G08G18G23G24G10G15G32
 128110283.22625  99826279.496 6  24378588.084    24378609.857        2709.227  
      2111.172          35.000          38.000  
 113352217.129 7  88326466.640 7  21570212.155    21570228.058       -1912.648  
     -1490.074          44.000          43.000  
 110030526.336 7  85738129.768 7  20938114.789    20938129.149       -1892.801  
     -1475.141          44.000          46.000  
 127961736.039 5  99710537.210 6  24350308.572    24350329.440         143.230  
       111.750          32.000          39.000  
 107495319.027 7  83762654.182 7  20455680.285    20455696.678         -37.520  
       -29.648          46.000          46.000  
 127674823.485 6  99486949.580 6  24295714.890    24295732.612       -3423.723  
     -2667.863          38.000          38.000  
 114681477.156 7  89362278.150 7  21823158.373    21823177.543        2746.973  
      2140.473          47.000          42.000  
 24  1 10  3 24  5.3000000  0  7G08G18G23G24G10G15G32
 128110012.26925  99826068.372 6  24378536.522    24378558.298        2709.777  
      2111.574          35.000          38.000  
 113352408.390 7  88326615.736 7  21570248.550    21570264.469       -1912.457  
     -1490.754          43.000          44.000  
 110030715.587 7  85738277.231 7  20938150.802    20938165.161       -1892.441  
     -1474.867          44.000          46.000  
 127961721.804 5  99710526.043 6  24350305.863    24350326.713         142.863  
       111.613          33.000          39.000  
 107495322.812 7  83762657.110 7  20455681.005    20455697.393         -37.957  
       -29.395          46.000          46.000  
 127675165.900 6  99487216.427 6  24295780.049    24295797.778       -3423.969  
     -2668.109          38.000          38.000  
 114681202.498 7  89362064.146 7  21823106.107    21823125.281        2746.652  
      2140.223          47.000          42.000  
 24  1 10  3 24  5.4000000  0  7G08G18G23G24G10G15G32
 128109741.23725  99825857.159 6  24378485.119    24378506.632        2711.203  
      2111.820          35.000          38.000  
 113352599.706 7  88326764.771 7  21570284.574    21570300.693       -1913.527  
     -1490.285          43.000          44.000  
 110030904.894 7  85738424.781 7  20938186.670    20938201.241       -1893.156  
     -1474.973          44.000          45.000  
 127961707.521 5  99710514.887 6  24350303.192    24350324.098         143.676  
       111.453          33.000          39.000  
 107495326.594 7  83762660.064 7  20455681.366    20455697.959         -37.836  
       -29.410          47.000          46.000  
 127675508.236 6  99487483.185 6  24295845.561    24295863.064       -3423.832  
     -2667.711          38.000          37.000  
 114680927.845 7  89361850.117 7  21823054.006    21823072.559        2746.492  
      2140.328          47.000          42.000  
 24  1 10  3 24  5.5000000  0  7G08G18G23G24G10G15G32
 128109470.12625  99825645.927 6  24378433.528    24378455.047        2710.941  
      2112.348          34.000          38.000  
 113352791.021 7  88326913.857 7  21570320.980    21570337.101       -1913.277  
     -1490.859          44.000          44.000  
 110031094.184 7  85738572.245 7  20938222.690    20938237.253       -1893.113  
     -1475.031          43.000          45.000  
 127961693.225 5  99710503.806 6  24350300.472    24350321.392         143.234  
       110.973          33.000          39.000  
 107495330.343 7  83762662.985 7  20455682.079    20455698.672         -37.609  
       -29.332          47.000          46.000  
 127675850.607 6  99487750.003 6  24295910.712    24295928.224       -3423.754  
     -2668.129          38.000          37.000  
 114680653.220 7  89361636.134 7  21823001.747    21823020.303        2745.922  
      2139.594          46.000          42.000  
 24  1 10  3 24  5.6000000  0  7G08G18G23G24G10G15G32
 128109199.09025  99825434.728 6  24378382.373    24378403.392        2710.738  
      2112.164          34.000          37.000  
 113352982.360 7  88327062.966 7  21570357.234    21570373.070       -1913.461  
     -1491.137          44.000          44.000  
 110031283.501 7  85738719.729 7  20938258.248    20938272.895       -1893.254  
     -1475.020          44.000          45.000  
 127961678.965 5  99710492.741 6  24350297.477    24350318.705         142.277  
       110.797          32.000          39.000  
 107495334.077 7  83762665.877 7  20455683.579    20455699.245         -37.199  
       -28.961          47.000          47.000  
 127676193.020 6  99488016.766 6  24295976.066    24295993.284       -3423.910  
     -2667.781          38.000          36.000  
 114680378.600 7  89361422.166 7  21822949.059    21822967.971        2746.562  
      2140.141          46.000          42.000  
 24  1 10  3 24  5.7000000  0  7G08G18G23G24G10G15G32
 128108927.96325  99825223.507 6  24378330.780    24378351.810        2711.652  
      2112.387          34.000          37.000  
 113353173.776 7  88327212.144 7  21570393.660    21570409.501       -1914.375  
     -1491.473          44.000          44.000  
 110031472.816 7  85738867.248 7  20938294.273    20938308.921       -1893.348  
     -1475.258          44.000          45.000  
 127961664.789 5  99710481.633 6  24350294.779    24350315.992         141.520  
       110.820          33.000          39.000  
 107495337.857 7  83762668.832 7  20455684.298    20455699.967         -37.957  
       -29.406          47.000          47.000  
 127676535.384 6  99488283.611 6  24296041.216    24296058.451       -3424.219  
     -2668.508          37.000          36.000  
 114680103.989 7  89361208.180 7  21822896.802    21822915.714        2745.980  
      2139.660          47.000          42.000  
 24  1 10  3 24  5.8000000  0  7G08G18G23G24G10G15G32
 128108656.88625  99825012.240 6  24378279.234    24378300.451        2709.965  
      2112.559          33.000          37.000  
 113353365.155 7  88327361.230 7  21570430.140    21570445.964       -1913.875  
     -1491.445          44.000          44.000  
 110031662.136 7  85739014.743 7  20938330.424    20938344.839       -1893.320  
     -1475.203          44.000          45.000  
 127961650.652 5  99710470.639 6  24350291.769    24350313.308         141.098  
       110.004          33.000          39.000  
 107495341.606 8  83762671.757 7  20455684.886    20455701.298         -37.461  
       -29.430          48.000          47.000  
 127676877.871 6  99488550.481 5  24296106.139    24296123.232       -3425.051  
     -2668.344          36.000          35.000  
 114679829.357 7  89360994.185 7  21822844.854    21822863.524        2746.422  
      2139.906          46.000          43.000  
 24  1 10  3 24  5.9000000  0  7G08G18G23G24G10G15G32
 128108385.91625  99824801.036 6  24378227.671    24378248.872        2710.305  
      2112.195          32.000          37.000  
 113353556.585 7  88327510.426 7  21570466.568    21570482.399       -1914.281  
     -1491.598          44.000          44.000  
 110031851.523 7  85739162.366 7  20938366.464    20938380.890       -1893.664  
     -1475.820          43.000          44.000  
 127961636.479 5  99710459.646 6  24350289.072    24350310.623         141.230  
       110.078          33.000          39.000  
 107495345.377 8  83762674.671 7  20455685.604    20455702.010         -37.871  
       -29.184          48.000          46.000  
 127677220.407 5  99488817.355 5  24296171.321    24296188.406       -3425.016  
     -2669.039          35.000          35.000  
 114679554.690 7  89360780.142 7  21822792.587    21822811.253        2747.039  
      2140.453          46.000          43.000  
 24  1 10  3 24  6.0000000  0  7G08G18G23G24G10G15G32
 128108114.87325  99824589.880 6  24378175.546    24378196.853        2710.766  
      2111.684          32.000          37.000  
