     2.11           OBSERVATION DATA    M (MIXED)           RINEX VERSION / TYPE
GPP.DLL V3.2.21                         18 - MAR - 24 07:42 PGM / RUN BY / DATE 
                                                            MARKER NAME         
                                                            MARKER NUMBER       
                                                            OBSERVER / AGENCY   
6028C00128          APX-15v3 AV         5.50                REC # / TYPE / VERS 
                    E                                       ANT # / TYPE        
 -4668069.5663  2554510.5281 -3504581.9619                  APPROX POSITION XYZ 
        0.0000       -0.0000       -0.0000                  ANTENNA: DELTA H/E/N
     1     1                                                WAVELENGTH FACT L1/2
     9    L1    L2    C1    P2    C2    D1    D2    S1    S2# / TYPES OF OBSERV 
     0.100                                                  INTERVAL            
  2024     1    10     3    16    0.0000000     GPS         TIME OF FIRST OBS   
  2024     1    10     3    16   59.9000000     GPS         TIME OF LAST OBS    
    18                                                      LEAP SECONDS        
     7                                                      # OF SATELLITES     
   G10   600   600   600     0   600   600   600   600   600PRN / # OF OBS      
   G15   600   600   600     0   600   600   600   600   600PRN / # OF OBS      
   G16   580   512   580   512     0   580   512   580   512PRN / # OF OBS      
   G18   600   600   600     0   600   600   600   600   600PRN / # OF OBS      
   G23   600   600   600     0   600   600   600   600   600PRN / # OF OBS      
   G24   594   594   594     0   594   594   594   594   594PRN / # OF OBS      
   G32   600   600   600     0   600   600   600   600   600PRN / # OF OBS      
                                                            END OF HEADER       
 24  1 10  3 16  0.0000000  0  7G24G16G18G23G10G32G15
 129670671.892 6 101042173.159 6  24675507.916                    24675529.211  
       470.992         367.102          36.000          38.000  
 128830456.921 6 100387538.687 3  24515641.660    24515663.951                  
     -2108.262       -1642.879          37.000          19.000  
 114050617.180 7  88870675.641 7  21703111.680                    21703127.642  
     -1632.930       -1272.496          45.000          46.000  
 110727627.571 7  86281326.369 7  21070767.775                    21070782.666  
     -1668.262       -1299.844          43.000          46.000  
 109109098.044 7  85020144.511 7  20762772.237                    20762788.574  
       256.844         200.137          46.000          45.000  
 117642229.967 7  91669356.167 7  22386572.220                    22386592.417  
      3039.840        2368.641          43.000          44.000  
 127625735.026 7  99448701.563 6  24286371.580                    24286390.219  
     -3213.766       -2504.480          42.000          40.000  
 24  1 10  3 16  0.1000000  0  7G24G16G18G23G10G32G15
 129670624.804 6 101042136.442 6  24675498.956                    24675520.245  
       470.910         367.004          36.000          38.000  
 128830667.732 6 100387702.954 3  24515681.776    24515704.067                  
     -2108.195       -1642.805          37.000          19.000  
 114050780.455 7  88870802.866 7  21703142.750                    21703158.712  
     -1632.879       -1272.473          45.000          45.000  
 110727794.359 7  86281456.351 7  21070799.513                    21070814.409  
     -1667.922       -1299.816          43.000          46.000  
 109109072.387 7  85020124.508 7  20762767.354                    20762783.689  
       256.738         200.078          46.000          45.000  
 117641926.015 7  91669119.340 7  22386514.380                    22386534.581  
      3039.781        2368.465          43.000          44.000  
 127626056.444 6  99448951.996 6  24286432.744                    24286451.378  
     -3213.918       -2504.340          41.000          40.000  
 24  1 10  3 16  0.2000000  0  7G24G16G18G23G10G32G15
 129670577.784 6 101042099.801 6  24675490.133                    24675510.788  
       470.605         366.480          37.000          38.000  
 128830878.601 6 100387867.276 3  24515721.512    24515744.290                  
     -2108.559       -1643.301          37.000          19.000  
 114050943.759 7  88870930.126 7  21703174.638                    21703189.360  
     -1632.852       -1272.461          45.000          45.000  
 110727961.223 7  86281586.327 7  21070831.454                    21070845.791  
     -1668.469       -1299.941          43.000          46.000  
 109109046.737 7  85020104.538 7  20762762.192                    20762778.609  
       256.602         199.852          46.000          44.000  
 117641622.025 7  91668882.473 7  22386456.235                    22386477.064  
      3039.488        2368.336          42.000          43.000  
 127626377.900 6  99449202.443 6  24286493.876                    24286512.555  
     -3214.379       -2504.539          41.000          39.000  
 24  1 10  3 16  0.3000000  0  7G24G16G18G23G10G32G15
 129670530.740 6 101042063.123 6  24675481.181                    24675501.831  
       470.477         366.637          37.000          38.000  
 128831089.437 6 100388031.568 3  24515761.633    24515784.411                  
     -2108.277       -1642.703          37.000          19.000  
 114051107.046 7  88871057.388 7  21703205.710                    21703220.439  
     -1632.852       -1272.488          45.000          46.000  
 110728127.994 7  86281716.324 7  21070863.189                    21070877.538  
     -1667.996       -1300.164          43.000          46.000  
 109109021.080 7  85020084.530 7  20762757.310                    20762773.723  
       256.566         199.875          46.000          44.000  
 117641318.076 7  91668645.631 7  22386398.396                    22386419.225  
      3039.688        2368.648          42.000          43.000  
 127626699.360 6  99449452.970 6  24286555.048                    24286573.736  
     -3214.398       -2504.992          41.000          39.000  
 24  1 10  3 16  0.4000000  0  7G24G16G18G23G10G32G15
 129670483.646 6 101042026.466 6  24675472.266                    24675493.356  
       470.656         366.688          37.000          38.000  
 128831300.315 6 100388195.894 3  24515801.879    24515824.619                  
     -2108.648       -1643.293          37.000          18.000  
 114051270.382 7  88871184.642 7  21703236.449                    21703251.625  
     -1633.133       -1272.738          45.000          46.000  
 110728294.848 7  86281846.408 7  21070894.784                    21070909.063  
     -1668.117       -1300.133          43.000          45.000  
 109108995.467 7  85020064.590 7  20762752.100                    20762768.447  
       256.418         199.660          46.000          44.000  
 117641014.125 7  91668408.779 7  22386340.673                    22386360.493  
      3039.602        2368.473          42.000          43.000  
 127627020.819 6  99449703.410 6  24286615.970                    24286634.592  
     -3214.609       -2504.621          40.000          39.000  
 24  1 10  3 16  0.5000000  0  7G24G16G18G23G10G32G15
 129670436.659 6 101041989.846 6  24675463.325                    24675484.413  
       470.203         366.188          37.000          38.000  
 128831511.248 6 100388360.250 3  24515842.018    24515864.757                  
     -2109.016       -1643.555          37.000          18.000  
 114051433.742 7  88871311.936 7  21703267.535                    21703282.711  
     -1633.387       -1272.707          44.000          45.000  
 110728461.796 7  86281976.411 7  21070926.553                    21070940.811  
     -1668.988       -1300.305          43.000          45.000  
 109108969.871 7  85020044.662 7  20762747.229                    20762763.580  
       256.090         199.176          46.000          44.000  
 117640710.212 7  91668171.985 7  22386282.840                    22386302.665  
      3039.418        2367.945          42.000          43.000  
 127627342.316 6  99449953.968 6  24286677.149                    24286695.780  
     -3214.703       -2505.504          40.000          39.000  
 24  1 10  3 16  0.6000000  0  7G24G16G18G23G10G32G15
 129670389.697 6 101041953.258 6  24675454.326                    24675475.595  
       469.980         365.863          36.000          38.000  
 128831722.173 6 100388524.595 3  24515882.202    24515904.954                  
     -2109.121       -1643.523          37.000          18.000  
 114051597.091 7  88871439.208 7  21703298.260                    21703314.144  
     -1633.516       -1272.996          44.000          45.000  
 110728628.658 7  86282106.423 7  21070959.080                    21070972.351  
     -1668.934       -1300.387          43.000          45.000  
 109108944.309 7  85020024.741 7  20762742.849                    20762759.403  
       255.812         199.191          47.000          44.000  
 117640406.303 7  91667935.182 7  22386225.251                    22386244.241  
      3039.199        2368.141          42.000          43.000  
 127627663.785 6  99450204.514 6  24286738.189                    24286756.505  
     -3214.648       -2505.242          39.000          39.000  
 24  1 10  3 16  0.7000000  0  7G24G16G18G23G10G32G15
 129670342.688 5 101041916.605 6  24675445.380                    24675466.644  
       470.031         366.496          35.000          39.000  
 128831933.069 6 100388688.932 3  24515922.335    24515945.087                  
     -2108.938       -1643.215          37.000          18.000  
 114051760.415 7  88871566.501 7  21703329.339                    21703345.230  
     -1633.375       -1272.727          44.000          46.000  
 110728795.570 7  86282236.483 7  21070990.842                    21071004.113  
     -1668.856       -1300.270          44.000          45.000  
 109108918.732 7  85020004.782 7  20762737.982                    20762754.529  
       255.801         199.543          47.000          44.000  
 117640102.355 7  91667698.321 7  22386167.411                    22386186.398  
      3039.414        2368.488          42.000          43.000  
 127627985.286 6  99450455.055 6  24286799.369                    24286817.690  
     -3214.949       -2505.504          39.000          39.000  
 24  1 10  3 16  0.8000000  0  7G24G16G18G23G10G32G15
 129670295.634 5 101041879.988 6  24675436.168                    24675457.874  
       470.254         366.012          34.000          39.000  
 128832144.008 6 100388853.302 3  24515962.295    24515985.259                  
     -2109.258       -1643.742          37.000          18.000  
 114051923.807 7  88871693.795 7  21703360.205                    21703376.231  
     -1633.625       -1273.043          45.000          45.000  
 110728962.426 7  86282366.507 7  21071022.703                    21071036.022  
     -1668.883       -1300.773          43.000          45.000  
 109108893.178 7  85019984.853 7  20762733.440                    20762749.357  
       255.691         199.199          47.000          44.000  
 117639798.421 7  91667461.499 7  22386109.731                    22386129.009  
      3039.359        2368.152          42.000          43.000  
 127628306.864 6  99450705.611 6  24286860.290                    24286878.917  
     -3215.340       -2505.516          41.000          39.000  
 24  1 10  3 16  0.9000000  0  7G24G16G18G23G10G32G15
 129670248.708 5 101041843.396 6  24675427.239                    24675448.937  
       469.695         365.793          34.000          39.000  
 128832354.969 6 100389017.688 3  24516002.440    24516025.404                  
     -2109.414       -1643.785          37.000          18.000  
 114052087.188 7  88871821.100 7  21703391.296                    21703407.320  
     -1633.754       -1273.141          45.000          45.000  
 110729129.439 7  86282496.694 7  21071054.484                    21071067.815  
     -1669.312       -1301.164          42.000          46.000  
 109108867.664 7  85019964.985 7  20762728.585                    20762744.505  
       255.414         198.820          47.000          44.000  
 117639494.544 7  91667224.684 7  22386051.905                    22386071.176  
      3038.918        2368.145          42.000          43.000  
 127628628.438 7  99450956.146 6  24286921.483                    24286940.101  
     -3215.594       -2505.473          43.000          39.000  
 24  1 10  3 16  1.0000000  0  7G24G16G18G23G10G32G15
 129670201.749 5 101041806.788 6  24675418.287                    24675440.302  
       469.812         366.078          33.000          40.000  
 128832565.877 6 100389182.027 3  24516042.941    24516065.529                  
     -2109.258       -1643.523          37.000          18.000  
 114052250.531 7  88871948.414 7  21703422.566                    21703437.583  
     -1633.676       -1273.234          44.000          45.000  
 110729296.375 7  86282626.695 7  21071085.658                    21071100.649  
     -1669.606       -1300.820          43.000          46.000  
 109108842.129 7  85019945.111 7  20762723.757                    20762739.472  
       255.336         198.727          47.000          44.000  
 117639190.639 7  91666987.876 7  22385994.246                    22386013.923  
      3039.188        2368.090          43.000          43.000  
 127628949.980 7  99451206.649 6  24286983.366                    24287001.635  
     -3215.445       -2505.016          43.000          39.000  
 24  1 10  3 16  1.1000000  0  7G24G16G18G23G10G32G15
 129670154.747 5 101041770.228 6  24675409.343                    24675431.374  
       469.664         365.586          32.000          40.000  
 128832776.837 6 100389346.409 3  24516083.086    24516105.673                  
     -2109.469       -1643.820          38.000          18.000  
 114052414.011 7  88872075.773 7  21703453.676                    21703468.686  
     -1634.203       -1273.535          44.000          45.000  
 110729463.326 7  86282756.841 7  21071117.427                    21071132.432  
     -1669.379       -1301.141          42.000          46.000  
 109108816.640 7  85019925.239 7  20762718.906                    20762734.619  
       255.188         198.824          47.000          44.000  
 117638886.759 7  91666751.114 7  22385936.419                    22385956.104  
      3038.918        2367.629          43.000          44.000  
 127629271.569 7  99451457.211 6  24287044.562                    24287062.825  
     -3215.594       -2505.773          43.000          38.000  
 24  1 10  3 16  1.2000000  0  7G24G16G18G23G10G32G15
 129670107.850 5 101041733.678 6  24675400.442                    24675422.909  
       469.512         365.406          31.000          40.000  
 128832987.834 6 100389510.821 2  24516123.425    24516145.809                  
     -2109.715       -1644.043          37.000          17.000  
 114052577.397 7  88872203.111 7  21703484.759                    21703499.916  
     -1634.109       -1273.535          44.000          45.000  
 110729630.401 7  86282886.978 7  21071148.955                    21071163.712  
     -1670.277       -1301.258          42.000          46.000  
 109108791.158 7  85019905.350 7  20762714.010                    20762729.911  
       254.836         198.453          47.000          44.000  
 117638582.896 7  91666514.334 7  22385878.908                    22385898.350  
      3038.652        2367.660          43.000          44.000  
 127629593.115 7  99451707.817 6  24287106.157                    24287123.869  
     -3215.594       -2505.977          42.000          39.000  
 24  1 10  3 16  1.3000000  0  7G24G16G18G23G10G32G15
 129670060.885 5 101041697.119 6  24675391.505                    24675413.981  
       469.551         365.562          31.000          40.000  
 128833198.785 6 100389675.205 2  24516163.567    24516185.953                  
     -2109.602       -1643.883          38.000          17.000  
 114052740.885 7  88872330.504 7  21703515.870                    21703531.026  
     -1634.422       -1273.570          44.000          45.000  
 110729797.325 7  86283017.067 7  21071180.720                    21071195.482  
     -1669.731       -1301.621          42.000          46.000  
 109108765.708 7  85019885.531 7  20762709.167                    20762725.070  
       254.684         198.504          47.000          44.000  
 117638279.046 7  91666277.547 7  22385821.088                    22385840.524  
      3038.562        2367.730          43.000          43.000  
 127629914.724 7  99451958.451 6  24287167.357                    24287185.077  
     -3215.754       -2506.371          42.000          40.000  
 24  1 10  3 16  1.4000000  0  7G24G16G18G23G10G32G15
 129670014.037 5 101041660.566 6  24675382.567                    24675405.414  
       468.965         365.523          32.000          40.000  
 128833409.770 6 100389839.614 2  24516203.615    24516226.158                  
     -2109.746       -1644.113          38.000          17.000  
 114052904.324 7  88872457.830 7  21703547.096                    21703562.051  
     -1634.555       -1273.820          44.000          46.000  
 110729964.327 7  86283147.275 7  21071212.280                    21071227.022  
     -1669.652       -1301.125          43.000          46.000  
 109108740.221 7  85019865.723 7  20762704.130                    20762720.046  
       254.926         198.402          47.000          44.000  
 117637975.212 7  91666040.799 7  22385763.395                    22385782.497  
      3038.496        2367.547          43.000          43.000  
 127630236.347 7  99452209.111 6  24287228.325                    24287246.916  
     -3216.000       -2506.445          43.000          40.000  
 24  1 10  3 16  1.5000000  0  7G24G16G18G23G10G32G15
 129669967.154 5 101041624.054 6  24675373.645                    24675396.497  
       468.922         365.301          33.000          39.000  
 128833620.799 6 100390004.059 2  24516243.772    24516266.317                  
     -2109.988       -1644.293          37.000          17.000  
 114053067.817 7  88872585.271 7  21703578.208                    21703593.173  
     -1634.586       -1273.918          43.000          45.000  
 110730131.384 7  86283277.361 7  21071244.070                    21071258.790  
     -1670.352       -1301.145          43.000          46.000  
 109108714.728 7  85019845.816 7  20762699.279                    20762715.184  
       254.746         198.590          46.000          44.000  
 117637671.399 7  91665804.092 7  22385705.581                    22385724.691  
      3038.371        2367.258          42.000          43.000  
 127630557.950 7  99452459.677 6  24287289.524                    24287308.106  
     -3216.121       -2505.984          43.000          41.000  
 24  1 10  3 16  1.6000000  0  7G24G16G18G23G10G32G15
 129669920.244 5 101041587.471 6  24675364.976                    24675387.375  
       468.977         365.496          34.000          39.000  
 128833831.758 6 100390168.444 2  24516283.627    24516306.462                  
     -2109.715       -1643.856          37.000          17.000  
 114053231.292 7  88872712.623 7  21703609.332                    21703624.399  
     -1634.688       -1273.555          43.000          45.000  
 110730298.382 7  86283407.434 7  21071276.489                    21071290.798  
     -1669.996       -1300.941          42.000          46.000  
 109108689.246 7  85019825.997 7  20762694.336                    20762710.594  
       254.996         198.844          47.000          44.000  
 117637367.597 7  91665567.312 7  22385647.434                    22385666.601  
      3038.199        2367.875          43.000          43.000  
 127630879.518 7  99452710.247 6  24287351.318                    24287370.392  
     -3215.879       -2505.867          43.000          41.000  
 24  1 10  3 16  1.7000000  0  7G24G16G18G23G10G32G15
 129669873.356 5 101041550.984 6  24675356.054                    24675378.465  
       468.859         365.027          35.000          39.000  
 128834042.763 6 100390332.852 2  24516323.780    24516346.611                  
     -2109.848       -1643.941          37.000          17.000  
 114053394.759 7  88872839.967 7  21703640.438                    21703655.497  
     -1634.609       -1273.606          43.000          45.000  
 110730465.265 7  86283537.506 7  21071308.246                    21071322.562  
     -1669.504       -1300.965          42.000          46.000  
 109108663.745 7  85019806.086 7  20762689.483                    20762705.732  
       254.910         198.777          47.000          44.000  
 117637063.749 7  91665330.540 7  22385589.613                    22385608.779  
      3038.262        2367.461          43.000          43.000  
 127631201.127 7  99452960.837 6  24287412.518                    24287431.589  
     -3215.934       -2505.629          43.000          41.000  
 24  1 10  3 16  1.8000000  0  7G24G16G18G23G10G32G15
 129669826.523 6 101041514.451 6  24675347.689                    24675369.129  
       468.676         365.184          36.000          39.000  
 128834253.718 6 100390497.226 2  24516363.846    24516386.777                  
     -2109.797       -1643.891          37.000          17.000  
 114053558.239 7  88872967.361 7  21703671.462                    21703686.702  
     -1634.699       -1273.766          44.000          45.000  
 110730632.249 6  86283667.733 7  21071339.897                    21071354.217  
     -1669.305       -1301.356          41.000          46.000  
 109108638.236 7  85019786.221 7  20762684.692                    20762701.013  
       255.047         198.531          46.000          44.000  
 117636759.939 7  91665093.836 7  22385531.855                    22385551.207  
      3038.262        2367.395          42.000          44.000  
 127631522.706 7  99453211.393 6  24287473.518                    24287492.628  
     -3215.848       -2505.605          43.000          40.000  
 24  1 10  3 16  1.9000000  0  7G24G16G18G23G10G32G15
 129669779.697 6 101041477.924 6  24675338.778                    24675360.209  
       468.395         365.484          37.000          38.000  
 128834464.719 6 100390661.647 3  24516403.998    24516426.930                  
     -2109.875       -1644.148          37.000          18.000  
 114053721.681 7  88873094.737 7  21703702.564                    21703717.808  
     -1634.555       -1274.066          44.000          45.000  
 110730799.347 6  86283797.837 7  21071371.695                    21071385.990  
     -1670.410       -1301.285          41.000          46.000  
 109108612.780 7  85019766.388 7  20762679.847                    20762696.170  
       254.816         198.488          47.000          44.000  
 117636456.116 7  91664857.116 7  22385474.039                    22385493.398  
      3038.234        2366.906          42.000          44.000  
 127631844.332 7  99453462.016 6  24287534.721                    24287553.833  
     -3216.004       -2506.074          43.000          40.000  
 24  1 10  3 16  2.0000000  0  7G24G16G18G23G10G32G15
 129669732.848 6 101041441.413 6  24675330.222                    24675350.949  
       468.434         364.891          37.000          38.000  
 128834675.761 6 100390826.102 3  24516444.408    24516467.013                  
     -2110.160       -1644.516          37.000          18.000  
 114053885.237 7  88873222.220 7  21703733.914                    21703748.738  
     -1635.191       -1274.344          44.000          45.000  
 110730966.357 7  86283927.952 7  21071402.781                    21071417.359  
     -1670.398       -1301.594          43.000          46.000  
 109108587.328 7  85019746.541 7  20762674.973                    20762690.987  
       254.512         198.180          47.000          44.000  
 117636152.382 7  91664620.442 7  22385416.319                    22385435.920  
      3037.684        2366.836          42.000          43.000  
 127632165.972 7  99453712.631 6  24287595.935                    24287614.372  
     -3216.211       -2506.176          43.000          40.000  
 24  1 10  3 16  2.1000000  0  7G24G16G18G23G10G32G15
 129669686.021 6 101041404.954 6  24675321.311                    24675342.045  
       468.215         364.727          37.000          38.000  
 128834886.772 6 100390990.535 3  24516484.562    24516507.170                  
     -2110.090       -1644.277          37.000          18.000  
 114054048.766 7  88873349.606 7  21703765.032                    21703779.847  
     -1635.238       -1274.125          44.000          45.000  
 110731133.283 7  86284058.078 7  21071434.545                    21071449.137  
     -1669.676       -1301.309          43.000          46.000  
 109108561.873 7  85019726.722 7  20762670.129                    20762686.147  
       254.617         198.438          47.000          44.000  
 117635848.608 7  91664383.713 7  22385358.513                    22385378.108  
      3037.812        2367.238          42.000          43.000  
 127632487.644 7  99453963.270 6  24287657.147                    24287675.581  
     -3216.445       -2506.293          43.000          40.000  
 24  1 10  3 16  2.2000000  0  7G24G16G18G23G10G32G15
 129669639.246 6 101041368.458 6  24675312.395                    24675332.984  
       468.164         364.844          37.000          38.000  
 128835097.829 6 100391155.002 3  24516524.998    24516547.295                  
     -2110.438       -1644.738          37.000          18.000  
 114054212.311 7  88873477.031 7  21703796.412                    21703811.106  
     -1635.406       -1274.352          44.000          45.000  
 110731300.307 7  86284188.305 7  21071466.946                    21071480.768  
     -1669.719       -1301.578          43.000          46.000  
 109108536.421 7  85019706.875 7  20762665.567                    20762681.378  
       254.527         198.164          47.000          44.000  
 117635544.858 7  91664147.056 7  22385300.773                    22385320.002  
      3037.590        2366.641          42.000          43.000  
 127632809.233 7  99454213.876 6  24287718.429                    24287736.297  
     -3216.379       -2506.535          42.000          40.000  
 24  1 10  3 16  2.3000000  0  7G24G16G18G23G10G32G15
 129669592.460 6 101041332.020 6  24675303.492                    24675324.085  
       467.938         364.570          37.000          39.000  
 128835308.940 6 100391319.503 3  24516565.171    24516587.468                  
     -2110.715       -1644.883          37.000          18.000  
 114054375.754 7  88873604.432 7  21703827.514                    21703842.219  
     -1634.859       -1274.270          44.000          45.000  
 110731467.367 7  86284318.397 7  21071498.737                    21071512.537  
     -1670.625       -1301.305          43.000          46.000  
 109108510.992 7  85019687.109 7  20762660.728                    20762676.551  
       254.383         197.992          47.000          44.000  
 117635241.121 7  91663910.346 7  22385242.974                    22385262.195  
      3037.273        2366.879          42.000          43.000  
 127633130.887 7  99454464.535 6  24287779.638                    24287797.510  
     -3216.258       -2506.090          42.000          39.000  
 24  1 10  3 16  2.4000000  0  7G24G16G18G23G10G32G15
 129669545.651 6 101041295.544 6  24675294.272                    24675315.935  
       467.992         364.738          37.000          40.000  
 128835519.994 6 100391483.962 3  24516605.193    24516627.599                  
     -2110.668       -1644.742          37.000          18.000  
 114054539.267 7  88873731.854 7  21703858.364                    21703873.493  
     -1634.938       -1273.637          44.000          45.000  
 110731634.450 7  86284448.462 7  21071530.938                    21071544.441  
     -1670.512       -1300.770          43.000          45.000  
 109108485.511 7  85019667.202 7  20762655.808                    20762671.229  
       254.602         198.793          47.000          44.000  
 117634937.366 7  91663673.662 7  22385185.007                    22385204.339  
      3037.512        2366.953          42.000          43.000  
 127633452.533 7  99454715.122 6  24287840.548                    24287858.292  
     -3216.340       -2506.074          43.000          40.000  
 24  1 10  3 16  2.5000000  0  7G24G16G18G23G10G32G15
 129669498.771 6 101041259.051 6  24675285.351                    24675307.023  
       468.367         364.930          36.000          40.000  
 128835731.073 6 100391648.431 3  24516645.360    24516667.764                  
     -2110.754       -1644.773          37.000          18.000  
 114054702.639 7  88873859.078 7  21703889.453                    21703904.562  
     -1634.523       -1273.188          44.000          45.000  
 110731801.113 7  86284578.565 7  21071562.653                    21071576.214  
     -1668.074       -1300.895          42.000          46.000  
 109108459.958 7  85019647.307 7  20762650.946                    20762666.370  
       255.227         199.117          47.000          44.000  
 117634633.584 7  91663436.918 7  22385127.200                    22385146.524  
      3037.562        2367.312          42.000          43.000  
 127633774.090 7  99454965.708 6  24287901.738                    24287919.488  
     -3216.074       -2506.207          43.000          40.000  
 24  1 10  3 16  2.6000000  0  7G24G16G18G23G10G32G15
 129669451.921 5 101041222.529 6  24675275.779                    24675298.644  
       468.629         365.156          35.000          40.000  
 128835942.184 6 100391812.929 3  24516685.533    24516707.960                  
     -2111.020       -1644.887          37.000          18.000  
 114054866.027 7  88873986.489 7  21703920.701                    21703935.396  
     -1633.383       -1272.844          43.000          45.000  
 110731968.004 7  86284708.562 7  21071594.020                    21071608.812  
     -1669.309       -1299.559          42.000          46.000  
 109108434.332 7  85019627.320 7  20762645.976                    20762661.724  
       256.434         199.488          47.000          44.000  
 117634329.791 7  91663200.209 7  22385069.335                    22385088.342  
      3038.520        2367.387          42.000          43.000  
 127634095.642 7  99455216.334 6  24287963.108                    24287981.279  
     -3215.043       -2505.699          43.000          41.000  
 24  1 10  3 16  2.7000000  0  7G24G16G18G23G10G32G15
 129669404.842 5 101041186.021 6  24675266.820                    24675289.728  
       469.906         365.172          34.000          40.000  
 128836153.280 6 100391977.415 3  24516725.703    24516748.129                  
     -2111.348       -1645.020          38.000          18.000  
 114055029.234 7  88874113.615 7  21703951.758                    21703966.441  
     -1631.543       -1272.188          44.000          45.000  
 110732134.762 7  86284838.465 7  21071625.754                    21071640.536  
     -1667.477       -1299.117          43.000          46.000  
 109108408.671 7  85019607.358 7  20762641.093                    20762656.849  
       256.887         200.234          47.000          44.000  
 117634025.931 6  91662963.453 7  22385011.512                    22385030.524  
      3038.719        2367.629          41.000          43.000  
 127634417.204 7  99455466.849 6  24288024.299                    24288042.457  
     -3216.121       -2505.781          44.000          41.000  
 24  1 10  3 16  2.8000000  0  7G24G16G18G23G10G32G15
 129669358.139 6 101041149.453 6  24675257.261                    24675281.165  
       466.793         365.676          36.000          40.000  
 128836364.438 6 100392141.950 3  24516765.994    24516788.318                  
     -2111.020       -1645.086          38.000          18.000  
 114055192.526 7  88874240.875 7  21703982.714                    21703997.738  
     -1632.879       -1271.508          44.000          45.000  
 110732301.343 7  86284968.241 7  21071657.406                    21071672.291  
     -1664.523       -1299.078          42.000          46.000  
 109108382.909 7  85019587.255 7  20762636.339                    20762652.205  
       257.746         200.758          47.000          44.000  
 117633722.008 6  91662726.639 7  22384953.256                    22384972.747  
      3039.656        2368.199          41.000          43.000  
 127634738.604 7  99455717.381 6  24288085.357                    24288104.194  
     -3213.074       -2504.621          42.000          40.000  
 24  1 10  3 16  2.8000000  5  0
 24  1 10  3 16  2.8000000  5  0
 24  1 10  3 16  2.9000000  0  7G24G16G18G23G10G32G15
 129669311.76336 101041112.831 6  24675248.303                    24675272.221  
       470.766         366.012          36.000          39.000  
 128836575.484 6 100392306.399 3  24516806.155    24516828.478                  
     -2110.539       -1644.648          38.000          18.000  
 114055355.635 7  88874367.933 7  21704013.753                    21704028.767  
     -1630.863       -1271.188          44.000          45.000  
 110732468.004 7  86285098.121 7  21071689.121                    21071704.009  
     -1666.606       -1297.816          43.000          46.000  
 109108357.083 7  85019567.161 7  20762631.424                    20762647.298  
       258.766         201.090          47.000          44.000  
 117633418.079 7  91662489.797 7  22384895.420                    22384914.907  
      3038.590        2367.945          42.000          43.000  
 127635060.136 7  99455967.783 6  24288146.543                    24288165.345  
     -3215.973       -2504.684          42.000          40.000  
 24  1 10  3 16  3.0000000  0  7G24G16G18G23G10G32G15
 129669264.57725 101041076.264 6  24675239.402                    24675262.377  
       468.949         365.562          35.000          39.000  
 128836786.591 6 100392470.891 3  24516846.710    24516868.672                  
     -2110.641       -1644.742          37.000          18.000  
 114055518.727 7  88874495.068 7  21704044.897                    21704059.502  
     -1630.793       -1270.785          44.000          45.000  
 110732634.506 7  86285227.910 7  21071720.516                    21071735.470  
     -1665.004       -1297.684          43.000          46.000  
 109108331.171 7  85019546.930 7  20762626.556                    20762642.803  
       259.219         201.648          47.000          44.000  
 117633114.089 7  91662252.902 7  22384837.744                    22384856.938  
      3039.969        2368.922          42.000          43.000  
 127635381.526 7  99456218.259 6  24288207.061                    24288225.873  
     -3213.652       -2505.078          42.000          40.000  
 24  1 10  3 16  3.1000000  0  7G24G16G18G23G10G32G15
 129669217.79625 101041039.742 6  24675230.500                    24675253.458  
       470.285         365.484          35.000          39.000  
 128836997.634 6 100392635.331 2  24516886.870    24516908.830                  
     -2110.344       -1644.445          37.000          17.000  
 114055681.746 7  88874622.071 7  21704075.919                    21704090.518  
     -1630.027       -1270.356          44.000          45.000  
 110732800.962 7  86285357.567 7  21071752.191                    21071767.134  
     -1664.145       -1297.270          42.000          45.000  
 109108305.243 7  85019526.753 7  20762621.622                    20762637.875  
       259.734         202.484          47.000          44.000  
 117632810.073 7  91662016.046 7  22384779.892                    22384799.095  
      3040.656        2369.070          42.000          43.000  
 127635703.025 7  99456468.819 6  24288268.240                    24288287.063  
     -3215.023       -2504.988          43.000          40.000  
 24  1 10  3 16  3.2000000  0  7G24G16G18G23G10G32G15
 129669170.75525 101041003.078 6  24675221.767                    24675244.176  
       468.203         366.391          35.000          39.000  
 128837208.748 6 100392799.825 3  24516926.732    24516949.017                  
     -2111.445       -1644.992          37.000          18.000  
 114055844.742 7  88874749.066 7  21704107.116                    21704121.633  
     -1630.109       -1270.047          44.000          45.000  
 110732967.361 7  86285487.232 7  21071784.036                    21071798.252  
     -1664.062       -1296.926          42.000          45.000  
 109108279.261 7  85019506.495 7  20762616.607                    20762632.670  
       260.195         202.547          46.000          44.000  
 117632506.002 7  91661779.099 7  22384722.209                    22384741.629  
      3040.621        2369.148          42.000          43.000  
 127636024.513 7  99456719.302 6  24288329.558                    24288347.983  
     -3215.234       -2504.617          42.000          40.000  
 24  1 10  3 16  3.3000000  0  7G24G16G18G23G10G32G15
 129669123.95636 101040966.540 6  24675212.791                    24675235.253  
       471.727         365.492          36.000          39.000  
 128837419.889 6 100392964.352 2  24516966.910    24516989.196                  
     -2111.129       -1645.125          38.000          17.000  
 114056007.687 7  88874876.039 7  21704138.123                    21704152.641  
     -1629.055       -1269.637          44.000          45.000  
 110733133.786 7  86285616.912 7  21071815.705                    21071829.922  
     -1663.656       -1296.332          43.000          45.000  
 109108253.203 7  85019486.197 7  20762611.649                    20762627.713  
       260.418         202.961          46.000          44.000  
 117632201.911 7  91661542.121 7  22384664.343                    22384683.756  
      3041.531        2369.625          43.000          43.000  
 127636345.857 7  99456969.699 6  24288390.708                    24288409.133  
     -3213.246       -2504.418          42.000          40.000  
 24  1 10  3 16  3.4000000  0  7G24G16G18G23G10G32G15
 129669076.77325 101040929.846 6  24675203.727                    24675226.144  
       468.781         366.785          35.000          39.000  
 128837630.930 6 100393128.805 3  24517007.055    24517029.381                  
     -2110.270       -1644.602          38.000          18.000  
 114056170.571 7  88875002.955 7  21704168.814                    21704183.846  
     -1628.504       -1269.254          44.000          45.000  
 110733300.046 7  86285746.451 7  21071847.398                    21071861.931  
     -1662.629       -1296.207          43.000          45.000  
 109108227.112 7  85019465.861 7  20762606.317                    20762622.528  
       261.270         203.371          46.000          44.000  
 117631897.735 7  91661305.111 7  22384606.358                    22384626.079  
      3041.859        2370.191          42.000          43.000  
 127636667.255 7  99457220.204 6  24288452.149                    24288470.629  
     -3213.543       -2505.074          42.000          40.000  
 24  1 10  3 16  3.5000000  0  7G24G16G18G23G10G32G15
 129669029.90025 101040893.330 6  24675194.807                    24675217.226  
       470.164         365.449          35.000          39.000  
 128837842.012 6 100393293.281 3  24517047.222    24517069.547                  
     -2110.555       -1644.668          37.000          18.000  
 114056333.389 7  88875129.830 7  21704199.797                    21704214.830  
     -1628.109       -1268.648          44.000          45.000  
 110733466.383 7  86285876.095 7  21071879.051                    21071893.592  
     -1662.188       -1295.660          43.000          45.000  
 109108200.972 7  85019445.489 7  20762601.342                    20762617.553  
       261.777         203.922          47.000          44.000  
 117631593.529 7  91661068.092 7  22384548.470                    22384568.197  
      3042.594        2370.438          43.000          43.000  
 127636988.664 7  99457470.550 6  24288513.311                    24288531.766  
     -3213.879       -2504.039          42.000          39.000  
 24  1 10  3 16  3.6000000  0  7G24G16G18G23G10G32G15
 129668982.79725 101040856.598 6  24675185.570                    24675207.920  
       470.207         367.195          34.000          39.000  
 128838053.103 6 100393457.765 3  24517087.501    24517109.747                  
     -2110.863       -1644.816          38.000          18.000  
 114056496.157 7  88875256.686 7  21704230.638                    21704246.052  
     -1627.574       -1268.387          44.000          45.000  
 110733632.594 7  86286005.603 7  21071910.696                    21071925.063  
     -1662.410       -1295.270          43.000          45.000  
 109108174.761 7  85019425.066 7  20762596.425                    20762612.456  
       262.047         204.164          47.000          44.000  
 117631289.280 7  91660831.005 7  22384490.456                    22384510.360  
      3042.598        2370.930          43.000          43.000  
 127637310.051 7  99457721.038 6  24288574.602                    24288592.609  
     -3214.301       -2505.012          42.000          40.000  
 24  1 10  3 16  3.7000000  0  7G24G16G18G23G10G32G15
 129668935.85925 101040820.045 6  24675176.638                    24675198.993  
       469.930         365.523          35.000          39.000  
 128838264.137 6 100393622.203 3  24517127.659    24517149.905                  
     -2110.262       -1644.356          37.000          19.000  
 114056658.876 7  88875383.467 7  21704261.603                    21704277.013  
     -1626.938       -1267.922          44.000          45.000  
 110733798.754 7  86286135.087 7  21071942.315                    21071956.684  
     -1661.688       -1294.793          43.000          44.000  
 109108148.481 7  85019404.602 7  20762591.424                    20762607.459  
       262.844         204.996          47.000          44.000  
 117630984.936 7  91660593.845 7  22384432.541                    22384452.443  
      3043.133        2371.469          43.000          43.000  
 127637631.416 7  99457971.357 6  24288635.755                    24288653.740  
     -3214.164       -2503.242          42.000          39.000  
 24  1 10  3 16  3.8000000  0  7G24G16G18G23G10G32G15
 129668888.75825 101040783.328 6  24675167.675                    24675190.206  
       470.348         367.047          34.000          39.000  
 128838475.156 6 100393786.638 3  24517167.799    24517190.132                  
     -2110.469       -1644.520          37.000          18.000  
 114056821.526 7  88875510.199 7  21704292.679                    21704307.955  
     -1626.734       -1267.371          44.000          44.000  
 110733964.859 7  86286264.515 7  21071973.986                    21071988.174  
     -1661.094       -1294.344          43.000          44.000  
 109108122.169 7  85019384.092 7  20762586.440                    20762602.762  
       263.191         205.199          47.000          43.000  
 117630680.616 7  91660356.727 7  22384374.319                    22384394.568  
      3043.441        2371.523          42.000          43.000  
 127637952.837 7  99458221.939 6  24288696.967                    24288714.763  
     -3213.961       -2504.738          42.000          39.000  
 24  1 10  3 16  3.9000000  0  7G24G16G18G23G10G32G15
 129668841.83625 101040746.723 6  24675158.746                    24675181.267  
       470.121         366.266          35.000          39.000  
 128838686.262 6 100393951.134 3  24517207.971    24517230.303                  
     -2110.891       -1644.848          37.000          19.000  
 114056984.135 7  88875636.911 7  21704323.622                    21704338.899  
     -1626.125       -1267.250          44.000          44.000  
 110734130.955 7  86286393.938 7  21072005.593                    21072019.781  
     -1660.617       -1294.000          42.000          44.000  
 109108095.787 7  85019363.547 7  20762581.420                    20762597.745  
       263.672         205.516          46.000          43.000  
 117630376.182 7  91660119.478 7  22384316.387                    22384336.629  
      3044.035        2371.977          42.000          43.000  
 127638274.210 7  99458472.310 6  24288758.122                    24288775.906  
     -3213.922       -2503.836          42.000          39.000  
 24  1 10  3 16  4.0000000  0  7G24G16G18G23G10G32G15
 129668794.79736 101040710.065 6  24675149.834                    24675172.135  
       468.840         366.051          36.000          39.000  
 128838897.275 6 100394115.557 3  24517247.985    24517270.473                  
     -2110.188       -1644.305          37.000          18.000  
 114057146.763 7  88875763.638 7  21704354.554                    21704370.003  
     -1626.246       -1267.090          44.000          44.000  
 110734296.963 7  86286523.279 7  21072037.035                    21072051.563  
     -1660.481       -1294.059          43.000          44.000  
 109108069.401 7  85019342.972 7  20762576.672                    20762592.666  
       263.746         205.570          46.000          44.000  
 117630071.812 7  91659882.325 7  22384258.295                    22384278.074  
      3044.070        2371.766          42.000          43.000  
 127638595.563 7  99458722.719 6  24288819.203                    24288836.566  
     -3213.488       -2504.801          42.000          40.000  
 24  1 10  3 16  4.1000000  0  7G24G16G18G23G10G32G15
 129668747.71325 101040673.394 6  24675140.874                    24675163.180  
       469.992         367.027          35.000          38.000  
 128839108.364 6 100394280.050 3  24517288.154    24517310.644                  
     -2110.523       -1644.574          37.000          18.000  
 114057309.401 7  88875890.364 7  21704385.503                    21704400.951  
     -1626.094       -1267.379          44.000          44.000  
 110734463.062 7  86286652.718 7  21072068.642                    21072083.173  
     -1660.668       -1294.121          42.000          44.000  
 109108043.030 7  85019322.422 7  20762571.654                    20762587.647  
       263.695         205.535          46.000          43.000  
 117629767.419 7  91659645.137 7  22384200.371                    22384220.150  
      3043.930        2371.914          42.000          43.000  
 127638916.919 7  99458973.127 6  24288880.355                    24288897.718  
     -3213.566       -2504.516          42.000          39.000  
 24  1 10  3 16  4.2000000  0  7G24G16G18G23G10G32G15
 129668700.70825 101040636.823 6  24675132.164                    24675154.257  
       470.203         366.043          35.000          38.000  
 128839319.420 6 100394444.503 3  24517328.129    24517350.781                  
     -2110.746       -1644.914          37.000          18.000  
 114057472.012 7  88876017.083 7  21704416.205                    21704431.577  
     -1626.324       -1267.312          44.000          44.000  
 110734629.170 7  86286782.153 7  21072100.119                    21072115.056  
     -1660.781       -1294.242          42.000          44.000  
 109108016.686 7  85019301.887 7  20762566.438                    20762582.711  
       263.629         205.270          47.000          43.000  
 117629463.046 7  91659407.951 7  22384142.693                    22384162.320  
      3043.797        2371.559          42.000          43.000  
 127639238.361 7  99459223.564 6  24288941.516                    24288959.096  
     -3214.035       -2503.996          43.000          39.000  
 24  1 10  3 16  4.3000000  0  7G24G16G18G23G10G32G15
 129668653.80125 101040600.223 6  24675123.238                    24675145.318  
       469.566         365.922          34.000          38.000  
 128839530.558 6 100394609.023 3  24517368.307    24517390.959                  
     -2111.023       -1645.094          37.000          19.000  
 114057634.706 7  88876143.852 7  21704447.164                    21704462.535  
     -1626.539       -1267.465          44.000          44.000  
 110734795.147 7  86286911.511 7  21072131.703                    21072146.646  
     -1660.996       -1294.262          43.000          44.000  
 109107990.312 7  85019281.341 7  20762561.419                    20762577.693  
       263.512         205.297          47.000          43.000  
 117629158.705 6  91659170.811 7  22384084.779                    22384104.408  
      3043.512        2371.605          41.000          43.000  
 127639559.764 7  99459474.059 6  24289002.677                    24289020.270  
     -3214.203       -2504.445          43.000          39.000  
 24  1 10  3 16  4.4000000  0  7G24G16G18G23G10G32G15
 129668606.72425 101040563.610 6  24675114.404                    24675136.182  
       470.574         366.406          34.000          38.000  
 128839741.676 6 100394773.528 3  24517408.287    24517431.117                  
     -2110.988       -1644.852          37.000          19.000  
 114057797.269 7  88876270.530 7  21704478.146                    21704493.385  
     -1626.250       -1267.199          44.000          44.000  
 110734961.242 7  86287040.899 7  21072163.709                    21072177.783  
     -1660.594       -1293.805          43.000          44.000  
 109107963.948 7  85019260.796 7  20762556.574                    20762572.816  
       263.637         205.656          47.000          43.000  
 117628854.322 6  91658933.624 7  22384026.622                    22384046.555  
      3043.684        2371.605          41.000          43.000  
 127639881.186 7  99459724.479 6  24289063.466                    24289081.089  
     -3214.043       -2504.449          42.000          39.000  
 24  1 10  3 16  4.5000000  0  7G24G16G18G23G10G32G15
 129668559.76225 101040526.993 6  24675105.468                    24675127.240  
       470.074         366.117          35.000          38.000  
 128839952.769 6 100394938.018 3  24517448.456    24517471.287                  
     -2110.918       -1644.805          37.000          19.000  
 114057959.905 7  88876397.273 7  21704509.094                    21704524.337  
     -1626.297       -1267.375          44.000          44.000  
 110735127.340 7  86287170.343 7  21072195.316                    21072209.395  
     -1660.547       -1293.992          42.000          44.000  
 109107937.593 7  85019240.258 7  20762551.559                    20762567.801  
       263.551         205.211          46.000          43.000  
 117628550.023 6  91658696.521 7  22383968.716                    22383988.652  
      3043.445        2371.520          41.000          43.000  
 127640202.567 7  99459974.968 6  24289124.623                    24289142.261  
     -3213.828       -2504.293          43.000          39.000  
 24  1 10  3 16  4.6000000  0  7G24G16G18G23G10G32G15
 129668512.85625 101040490.346 6  24675096.362                    24675118.071  
       469.574         365.969          35.000          38.000  
 128840163.946 6 100395102.571 3  24517488.290    24517511.465                  
     -2111.535       -1645.688          37.000          18.000  
 114058122.559 7  88876524.004 7  21704540.140                    21704555.067  
     -1626.398       -1267.453          44.000          44.000  
 110735293.327 7  86287299.702 7  21072226.871                    21072241.188  
     -1660.656       -1294.137          42.000          44.000  
 109107911.244 7  85019219.751 7  20762546.287                    20762562.683  
       263.512         205.234          47.000          43.000  
 117628245.723 6  91658459.391 7  22383911.138                    22383930.789  
      3043.305        2371.379          41.000          42.000  
 127640523.958 7  99460225.341 6  24289185.813                    24289203.717  
     -3213.746       -2503.758          42.000          39.000  
 24  1 10  3 16  4.7000000  0  7G24G16G18G23G10G32G15
 129668465.82325 101040453.758 6  24675087.412                    24675109.136  
       469.707         366.805          35.000          38.000  
 128840375.078 6 100395267.081 3  24517528.467    24517551.640                  
     -2111.246       -1644.945          37.000          19.000  
 114058285.187 7  88876650.715 7  21704571.087                    21704586.012  
     -1626.301       -1267.137          44.000          44.000  
 110735459.425 7  86287429.117 7  21072258.478                    21072272.793  
     -1660.504       -1293.648          42.000          44.000  
 109107884.878 7  85019199.190 7  20762541.270                    20762557.662  
       263.656         205.547          47.000          43.000  
 117627941.366 6  91658222.228 7  22383853.221                    22383872.872  
      3043.258        2371.184          41.000          42.000  
 127640845.319 7  99460475.843 6  24289246.966                    24289264.892  
     -3213.766       -2504.434          43.000          39.000  
 24  1 10  3 16  4.8000000  0  7G24G16G18G23G10G32G15
 129668418.82125 101040417.181 6  24675078.710                    24675100.375  
       469.508         365.805          35.000          38.000  
 128840586.217 6 100395431.593 3  24517568.818    24517591.870                  
     -2111.438       -1645.273          37.000          19.000  
 114058447.808 7  88876777.436 7  21704602.174                    21704616.817  
     -1626.168       -1267.289          44.000          44.000  
 110735625.453 7  86287558.466 7  21072289.830                    21072304.421  
     -1660.387       -1293.617          42.000          44.000  
 109107858.521 7  85019178.656 7  20762536.113                    20762552.249  
       263.621         205.543          47.000          43.000  
 117627637.052 6  91657985.113 7  22383795.585                    22383815.224  
      3043.223        2371.238          41.000          43.000  
 127641166.688 7  99460726.165 6  24289308.097                    24289325.945  
     -3213.852       -2504.602          42.000          39.000  
 24  1 10  3 16  4.9000000  0  7G24G16G18G23G10G32G15
 129668371.82125 101040380.570 6  24675069.767                    24675091.435  
       470.203         365.863          35.000          38.000  
 128840797.378 6 100395596.131 3  24517609.000    24517632.052                  
     -2111.551       -1645.441          37.000          19.000  
 114058610.476 7  88876904.190 7  21704633.128                    21704647.772  
     -1626.457       -1267.418          44.000          44.000  
 110735791.485 7  86287687.860 7  21072321.425                    21072336.020  
     -1660.352       -1293.867          42.000          44.000  
 109107832.154 7  85019158.099 7  20762531.096                    20762547.229  
       263.617         205.418          47.000          42.000  
 117627332.791 6  91657748.024 7  22383737.686                    22383757.324  
      3042.961        2371.023          41.000          43.000  
 127641488.018 7  99460976.551 6  24289369.244                    24289387.092  
     -3213.707       -2503.891          42.000          38.000  
 24  1 10  3 16  5.0000000  0  7G24G16G18G23G10G32G15
 129668324.93425 101040343.965 6  24675061.180                    24675082.558  
       469.797         366.379          35.000          38.000  
 128841008.570 6 100395760.693 3  24517649.447    24517672.177                  
     -2111.574       -1645.324          38.000          19.000  
 114058773.097 7  88877030.921 7  21704664.332                    21704678.830  
     -1626.426       -1267.324          44.000          44.000  
 110735957.539 7  86287817.224 7  21072352.821                    21072367.549  
     -1660.430       -1293.863          42.000          44.000  
 109107805.819 7  85019137.573 7  20762526.092                    20762542.115  
       263.531         205.414          47.000          42.000  
 117627028.500 7  91657510.914 7  22383679.820                    22383699.420  
      3042.832        2370.926          42.000          43.000  
 127641809.442 7  99461227.007 6  24289430.323                    24289448.116  
     -3213.816       -2503.891          42.000          39.000  
 24  1 10  3 16  5.1000000  0  7G24G16G18G23G10G32G15
 129668277.98425 101040307.427 6  24675052.246                    24675073.635  
       469.434         364.992          34.000          38.000  
 128841219.734 6 100395925.228 3  24517689.630    24517712.358                  
     -2111.797       -1645.613          37.000          18.000  
 114058935.795 7  88877157.676 7  21704695.292                    21704709.785  
     -1626.680       -1267.762          44.000          44.000  
 110736123.582 7  86287946.627 7  21072384.418                    21072399.151  
     -1660.559       -1294.098          42.000          44.000  
 109107779.473 7  85019117.072 7  20762521.079                    20762537.108  
       263.375         204.984          46.000          42.000  
 117626724.257 7  91657273.835 7  22383621.925                    22383641.522  
      3042.625        2370.824          42.000          43.000  
 127642130.852 7  99461477.504 6  24289491.485                    24289509.289  
     -3213.977       -2504.719          42.000          38.000  
 24  1 10  3 16  5.2000000  0  7G24G16G18G23G10G32G15
 129668231.10225 101040270.792 6  24675043.473                    24675064.806  
       469.195         366.164          34.000          38.000  
 128841430.922 6 100396089.771 3  24517729.888    24517752.572                  
     -2111.707       -1645.312          37.000          19.000  
 114059098.491 7  88877284.460 7  21704726.151                    21704740.857  
     -1626.727       -1267.543          44.000          44.000  
 110736289.658 7  86288076.050 7  21072416.146                    21072430.468  
     -1660.625       -1293.910          42.000          44.000  
 109107753.143 7  85019096.544 7  20762516.381                    20762532.329  
       263.410         205.320          47.000          42.000  
 117626419.990 7  91657036.748 7  22383564.009                    22383583.295  
      3042.641        2370.914          42.000          42.000  
 127642452.210 7  99461727.873 6  24289552.716                    24289570.315  
     -3213.836       -2504.508          42.000          38.000  
 24  1 10  3 16  5.3000000  0  7G24G16G18G23G10G32G15
 129668184.17925 101040234.307 6  24675034.544                    24675055.895  
       468.684         365.461          35.000          37.000  
 128841642.125 6 100396254.347 3  24517770.078    24517792.764                  
     -2111.957       -1645.770          38.000          19.000  
 114059261.172 7  88877411.223 7  21704757.108                    21704771.813  
     -1626.867       -1267.691          44.000          44.000  
 110736455.731 7  86288205.448 7  21072447.749                    21072462.069  
     -1660.672       -1294.094          42.000          44.000  
 109107726.812 7  85019076.021 7  20762511.370                    20762527.317  
       263.289         205.277          46.000          42.000  
 117626115.747 7  91656799.681 7  22383506.114                    22383525.401  
      3042.566        2370.781          42.000          42.000  
