     2.11           OBSERVATION DATA    M (MIXED)           RINEX VERSION / TYPE
GPP.DLL V3.2.21                         18 - MAR - 24 07:42 PGM / RUN BY / DATE 
                                                            MARKER NAME         
                                                            MARKER NUMBER       
                                                            OBSERVER / AGENCY   
6028C00128          APX-15v3 AV         5.50                REC # / TYPE / VERS 
                    E                                       ANT # / TYPE        
 -4667996.3587  2554563.2053 -3504599.3826                  APPROX POSITION XYZ 
        0.0000       -0.0000       -0.0000                  ANTENNA: DELTA H/E/N
     1     1                                                WAVELENGTH FACT L1/2
     8    L1    L2    C1    C2    D1    D2    S1    S2      # / TYPES OF OBSERV 
     0.100                                                  INTERVAL            
  2024     1    10     3    13    0.0000000     GPS         TIME OF FIRST OBS   
  2024     1    10     3    13   59.9000000     GPS         TIME OF LAST OBS    
    18                                                      LEAP SECONDS        
     6                                                      # OF SATELLITES     
   G10   600   600   600   600   600   600   600   600      PRN / # OF OBS      
   G15   530   530   530   530   530   530   530   530      PRN / # OF OBS      
   G18   600   600   600   600   600   600   600   600      PRN / # OF OBS      
   G23   600   600   600   600   600   600   600   600      PRN / # OF OBS      
   G24   470   470   470   470   470   470   470   470      PRN / # OF OBS      
   G32   600   600   600   600   600   600   600   600      PRN / # OF OBS      
                                                            END OF HEADER       
 24  1 10  3 13  0.0000000  0  4G10G32G18G23
 109178670.012 6  85074356.387 6  20776010.834    20776027.332         514.906  
       401.480          41.000          39.000  
 118212845.663 7  92113990.836 7  22495158.026    22495178.510        3295.426  
      2567.754          45.000          43.000  
 113780055.896 7  88659848.945 7  21651625.798    21651641.125       -1380.348  
     -1075.754          47.000          47.000  
 110448629.390 7  86063925.377 7  21017675.866    21017690.467       -1435.633  
     -1118.828          44.000          45.000  
 24  1 10  3 13  0.1000000  0  4G10G32G18G23
 109178618.509 7  85074316.227 6  20776001.034    20776017.524         515.082  
       401.273          42.000          39.000  
 118212516.153 7  92113734.041 7  22495095.323    22495115.798        3295.105  
      2567.707          45.000          43.000  
 113780193.959 7  88659956.513 7  21651652.071    21651667.394       -1380.520  
     -1075.883          47.000          47.000  
 110448772.942 7  86064037.277 7  21017703.183    21017717.794       -1435.594  
     -1118.738          44.000          45.000  
 24  1 10  3 13  0.2000000  0  4G10G32G18G23
 109178567.034 7  85074276.154 6  20775991.473    20776008.043         514.969  
       401.211          43.000          39.000  
 118212186.567 7  92113477.252 7  22495032.542    22495052.892        3295.602  
      2567.625          44.000          43.000  
 113780331.998 7  88660064.092 7  21651678.385    21651693.721       -1380.520  
     -1075.652          47.000          47.000  
 110448916.549 7  86064149.165 7  21017730.479    21017745.376       -1435.777  
     -1118.656          44.000          45.000  
 24  1 10  3 13  0.3000000  0  4G10G32G18G23
 109178515.573 7  85074235.999 6  20775981.680    20775998.237         514.758  
       401.301          45.000          40.000  
 118211857.127 7  92113220.581 7  22494969.852    22494990.210        3295.016  
      2567.445          44.000          44.000  
 113780470.070 7  88660171.644 7  21651704.660    21651719.986       -1380.578  
     -1075.586          47.000          47.000  
 110449060.143 7  86064260.995 7  21017757.804    21017772.686       -1435.914  
     -1118.688          44.000          45.000  
 24  1 10  3 13  0.4000000  0  4G10G32G18G23
 109178464.125 7  85074195.919 6  20775972.069    20775988.409         514.484  
       400.766          46.000          41.000  
 118211527.609 7  92112963.773 7  22494906.857    22494927.191        3294.926  
      2567.691          44.000          44.000  
 113780608.155 7  88660279.265 7  21651730.647    21651746.425       -1380.731  
     -1076.320          47.000          47.000  
 110449203.741 7  86064372.902 7  21017785.403    21017799.968       -1436.035  
     -1119.125          44.000          45.000  
 24  1 10  3 13  0.5000000  0  4G10G32G18G23
 109178412.702 7  85074155.849 7  20775962.284    20775978.624         514.418  
       400.785          46.000          42.000  
 118211198.098 7  92112707.012 7  22494844.154    22494864.487        3295.199  
      2567.715          44.000          43.000  
 113780746.260 7  88660386.917 7  21651756.928    21651772.714       -1380.824  
     -1076.078          47.000          47.000  
 110449347.382 7  86064484.877 7  21017812.737    21017827.314       -1436.074  
     -1119.352          44.000          45.000  
 24  1 10  3 13  0.6000000  0  4G10G32G18G23
 109178361.308 7  85074115.796 7  20775952.731    20775969.108         514.125  
       400.457          47.000          42.000  
 118210868.695 7  92112450.344 7  22494781.283    22494801.720        3294.477  
      2566.676          44.000          44.000  
 113780884.388 7  88660494.478 7  21651783.252    21651798.724       -1381.141  
     -1076.066          47.000          47.000  
 110449490.986 7  86064596.807 7  21017840.127    21017854.422       -1436.191  
     -1119.512          43.000          45.000  
 24  1 10  3 13  0.7000000  0  4G10G32G18G23
 109178309.890 7  85074075.745 7  20775942.946    20775959.327         514.125  
       400.543          47.000          43.000  
 118210539.211 7  92112193.609 7  22494718.584    22494739.023        3294.605  
      2567.086          45.000          44.000  
 113781022.501 7  88660602.122 7  21651809.534    21651825.012       -1381.227  
     -1076.469          47.000          47.000  
 110449634.621 7  86064708.731 7  21017867.459    21017881.755       -1436.258  
     -1119.285          44.000          46.000  
 24  1 10  3 13  0.8000000  0  4G10G32G18G23
 109178258.498 7  85074035.695 7  20775933.401    20775949.883         514.168  
       400.730          47.000          43.000  
 118210209.743 7  92111936.892 7  22494656.162    22494676.158        3294.727  
      2567.430          45.000          44.000  
 113781160.630 7  88660709.765 8  21651836.069    21651851.127       -1381.211  
     -1076.340          47.000          48.000  
 110449778.278 7  86064820.638 7  21017894.835    21017909.029       -1436.445  
     -1119.086          44.000          45.000  
 24  1 10  3 13  0.9000000  0  4G10G32G18G23
 109178207.075 7  85073995.629 7  20775923.615    20775940.098         514.102  
       400.473          47.000          44.000  
 118209880.292 7  92111680.165 7  22494593.469    22494613.463        3294.602  
      2567.227          44.000          44.000  
 113781298.733 7  88660817.395 8  21651862.349    21651877.412       -1381.133  
     -1076.250          47.000          48.000  
 110449921.912 7  86064932.527 7  21017922.168    21017936.353       -1436.531  
     -1119.059          45.000          45.000  
 24  1 10  3 13  1.0000000  0  4G10G32G18G23
 109178155.679 7  85073955.615 7  20775913.632    20775930.279         514.082  
       400.387          47.000          44.000  
 118209550.851 7  92111423.436 7  22494530.849    22494550.790        3294.484  
      2567.262          45.000          44.000  
 113781436.873 7  88660925.037 7  21651888.816    21651903.863       -1381.246  
     -1076.309          47.000          47.000  
 110450065.555 7  86065044.456 7  21017949.557    21017963.398       -1436.391  
     -1119.320          44.000          45.000  
 24  1 10  3 13  1.1000000  0  4G10G32G18G23
 109178104.267 7  85073915.542 7  20775903.848    20775920.493         513.984  
       400.465          47.000          44.000  
 118209221.392 7  92111166.713 7  22494468.155    22494488.096        3294.535  
      2567.172          45.000          44.000  
 113781575.018 7  88661032.646 7  21651915.104    21651930.142       -1381.352  
     -1076.160          47.000          47.000  
 110450209.204 7  86065156.415 7  21017976.893    21017990.740       -1436.316  
     -1119.383          44.000          45.000  
 24  1 10  3 13  1.2000000  0  4G10G32G18G23
 109178052.900 7  85073875.494 7  20775893.871    20775910.526         513.941  
       400.629          47.000          44.000  
 118208891.952 7  92110910.044 7  22494405.301    22494425.422        3294.535  
      2566.957          45.000          44.000  
 113781713.150 7  88661140.286 7  21651941.335    21651956.742       -1381.309  
     -1076.426          47.000          47.000  
 110450352.887 7  86065268.393 7  21018003.789    21018018.305       -1436.523  
     -1119.578          44.000          45.000  
 24  1 10  3 13  1.3000000  0  4G10G32G18G23
 109178001.547 8  85073835.476 7  20775884.098    20775900.753         513.652  
       400.230          48.000          44.000  
 118208562.527 7  92110653.315 7  22494342.613    22494362.727        3294.324  
      2566.945          45.000          44.000  
 113781851.299 7  88661247.960 7  21651967.624    21651983.037       -1381.523  
     -1076.645          47.000          47.000  
 110450496.565 7  86065380.355 7  21018031.130    21018045.647       -1436.676  
     -1119.531          44.000          45.000  
 24  1 10  3 13  1.4000000  0  4G10G32G18G23
 109177950.199 8  85073795.442 7  20775874.179    20775890.836         513.535  
       400.098          48.000          44.000  
 118208233.125 7  92110396.652 7  22494280.079    22494299.875        3294.180  
      2566.781          45.000          44.000  
 113781989.464 8  88661355.595 7  21651993.861    21652008.955       -1381.566  
     -1076.461          48.000          47.000  
 110450640.223 7  86065492.277 7  21018058.624    21018073.019       -1436.664  
     -1119.547          44.000          45.000  
 24  1 10  3 13  1.5000000  0  4G10G32G18G23
 109177898.839 8  85073755.437 7  20775864.405    20775881.066         513.621  
       400.320          48.000          44.000  
 118207903.701 7  92110139.963 7  22494217.391    22494237.189        3294.145  
      2566.887          45.000          44.000  
 113782127.627 8  88661463.260 7  21652020.153    21652035.248       -1381.602  
     -1076.660          48.000          47.000  
 110450783.876 7  86065604.242 7  21018085.960    21018100.362       -1436.594  
     -1119.484          44.000          45.000  
 24  1 10  3 13  1.6000000  0  4G10G32G18G23
 109177847.487 8  85073715.428 7  20775854.571    20775870.967         513.629  
       399.992          48.000          45.000  
 118207574.296 7  92109883.265 7  22494154.770    22494174.337        3294.090  
      2566.910          45.000          44.000  
 113782265.803 8  88661570.930 7  21652046.228    21652061.394       -1381.668  
     -1076.684          48.000          47.000  
 110450927.577 7  86065716.184 7  21018113.266    21018127.434       -1436.848  
     -1119.586          44.000          44.000  
 24  1 10  3 13  1.7000000  0  4G10G32G18G23
 109177796.140 7  85073675.413 7  20775844.800    20775861.195         513.457  
       400.059          47.000          44.000  
 118207244.922 7  92109626.619 7  22494092.092    22494111.661        3293.898  
      2566.727          45.000          44.000  
 113782404.004 8  88661678.636 8  21652072.526    21652087.697       -1381.723  
     -1076.871          48.000          48.000  
 110451071.262 7  86065828.173 7  21018140.609    21018154.782       -1436.832  
     -1119.762          44.000          44.000  
 24  1 10  3 13  1.8000000  0  4G10G32G18G23
 109177744.803 8  85073635.413 7  20775835.179    20775851.348         513.461  
       400.148          48.000          45.000  
 118206915.525 7  92109369.947 7  22494029.637    22494049.393        3293.922  
      2566.727          44.000          44.000  
 113782542.189 8  88661786.302 7  21652098.908    21652114.162       -1381.863  
     -1076.598          48.000          47.000  
 110451214.950 7  86065940.090 7  21018168.053    21018182.239       -1436.863  
     -1119.484          45.000          44.000  
 24  1 10  3 13  1.9000000  0  4G10G32G18G23
 109177693.465 8  85073595.406 7  20775825.410    20775841.579         513.402  
       399.977          48.000          45.000  
 118206586.156 7  92109113.289 7  22493966.960    22493986.715        3293.820  
      2566.434          44.000          44.000  
 113782680.385 8  88661893.986 8  21652125.206    21652140.459       -1381.945  
     -1077.043          48.000          48.000  
 110451358.682 7  86066052.151 7  21018195.404    21018209.605       -1436.938  
     -1119.957          44.000          44.000  
 24  1 10  3 13  2.0000000  0  4G10G32G18G23
 109177642.143 8  85073555.414 7  20775815.323    20775831.898         513.289  
       399.945          48.000          45.000  
 118206256.771 7  92108856.632 7  22493904.053    22493924.240        3293.809  
      2566.461          44.000          44.000  
 113782818.576 8  88662001.681 8  21652151.550    21652166.556       -1381.961  
     -1076.871          48.000          48.000  
 110451502.373 7  86066164.073 7  21018222.623    21018236.969       -1437.074  
     -1119.824          44.000          44.000  
 24  1 10  3 13  2.1000000  0  4G10G32G18G23
 109177590.826 8  85073515.451 7  20775805.558    20775822.138         513.258  
       399.707          48.000          45.000  
 118205927.405 7  92108599.993 7  22493841.377    22493861.566        3293.742  
      2566.508          44.000          44.000  
 113782956.777 8  88662109.348 8  21652177.848    21652192.850       -1382.016  
     -1076.879          48.000          48.000  
 110451646.095 7  86066276.076 7  21018249.972    21018264.321       -1437.133  
     -1119.953          44.000          44.000  
 24  1 10  3 13  2.2000000  0  4G10G32G18G23
 109177539.518 8  85073475.473 7  20775795.724    20775812.055         513.168  
       399.832          48.000          45.000  
 118205598.047 7  92108343.325 7  22493778.601    22493798.697        3293.664  
      2566.457          45.000          44.000  
 113783094.989 8  88662217.045 8  21652203.860    21652219.744       -1382.106  
     -1077.106          48.000          48.000  
 110451789.822 7  86066388.069 7  21018277.104    21018292.140       -1437.215  
     -1119.703          44.000          44.000  
 24  1 10  3 13  2.3000000  0  4G10G32G18G23
 109177488.216 8  85073435.479 7  20775785.962    20775802.288         513.016  
       399.660          48.000          45.000  
 118205268.680 7  92108086.718 7  22493715.924    22493736.031        3293.656  
      2566.336          45.000          44.000  
 113783233.235 8  88662324.780 8  21652230.168    21652246.054       -1382.231  
     -1077.117          48.000          48.000  
 110451933.544 7  86066500.041 7  21018304.453    21018319.484       -1437.223  
     -1119.945          45.000          44.000  
 24  1 10  3 13  2.4000000  0  4G10G32G18G23
 109177436.934 8  85073395.521 7  20775776.234    20775792.913         512.945  
       399.641          48.000          45.000  
 118204939.331 7  92107830.072 7  22493653.361    22493673.410        3293.559  
      2566.395          45.000          44.000  
 113783371.461 8  88662432.489 8  21652256.409    21652272.483       -1382.227  
     -1077.094          48.000          48.000  
 110452077.266 7  86066612.054 7  21018331.764    21018346.597       -1437.277  
     -1120.148          45.000          44.000  
 24  1 10  3 13  2.5000000  0  4G10G32G18G23
 109177385.639 7  85073355.562 7  20775766.473    20775783.155         512.891  
       399.555          47.000          45.000  
 118204609.981 7  92107573.446 7  22493590.687    22493610.740        3293.523  
      2566.191          45.000          44.000  
 113783509.688 8  88662540.205 8  21652282.712    21652298.788       -1382.293  
     -1077.047          48.000          48.000  
 110452220.998 7  86066724.051 7  21018359.115    21018373.948       -1437.340  
     -1119.934          45.000          44.000  
 24  1 10  3 13  2.6000000  0  4G10G32G18G23
 109177334.364 7  85073315.616 7  20775756.583    20775773.993         512.957  
       399.578          47.000          45.000  
 118204280.629 7  92107316.795 7  22493527.842    22493547.821        3293.484  
      2566.480          45.000          44.000  
 113783647.934 8  88662647.919 7  21652308.871    21652324.991       -1382.352  
     -1077.117          48.000          47.000  
 110452364.751 7  86066836.067 7  21018386.337    21018400.858       -1437.309  
     -1120.113          45.000          44.000  
 24  1 10  3 13  2.7000000  0  4G10G32G18G23
 109177283.096 7  85073275.680 7  20775746.827    20775764.240         512.754  
       399.328          47.000          45.000  
 118203951.323 7  92107060.209 7  22493465.177    22493485.160        3293.293  
      2566.016          45.000          44.000  
 113783786.197 8  88662755.644 7  21652335.182    21652351.299       -1382.523  
     -1077.441          48.000          47.000  
 110452508.520 7  86066948.095 7  21018413.696    21018428.216       -1437.520  
     -1120.148          45.000          44.000  
 24  1 10  3 13  2.8000000  0  4G10G32G18G23
 109177231.852 7  85073235.743 7  20775737.255    20775754.229         512.500  
       399.160          47.000          45.000  
 118203622.038 7  92106803.591 7  22493402.446    22493422.593        3293.027  
      2565.977          45.000          44.000  
 113783924.474 8  88662863.404 7  21652361.808    21652377.365       -1382.703  
     -1077.570          48.000          47.000  
 110452652.291 7  86067060.122 7  21018441.226    21018455.356       -1437.762  
     -1120.285          45.000          44.000  
 24  1 10  3 13  2.9000000  0  4G10G32G18G23
 109177180.600 7  85073195.825 7  20775727.502    20775744.481         512.500  
       399.180          46.000          44.000  
 118203292.732 7  92106547.007 7  22493339.781    22493359.932        3293.004  
      2566.008          45.000          44.000  
 113784062.752 8  88662971.168 7  21652388.121    21652403.682       -1382.727  
     -1077.539          48.000          47.000  
 110452796.087 7  86067172.160 7  21018468.590    21018482.716       -1437.805  
     -1120.383          45.000          44.000  
 24  1 10  3 13  3.0000000  0  4G10G32G18G23
 109177129.378 7  85073155.899 7  20775717.857    20775734.278         512.508  
       399.297          47.000          44.000  
 118202963.456 7  92106290.417 7  22493277.020    22493297.333        3292.988  
      2566.020          45.000          44.000  
 113784201.033 8  88663078.906 7  21652414.412    21652430.024       -1382.773  
     -1077.500          48.000          47.000  
 110452939.870 7  86067284.204 7  21018495.873    21018510.501       -1437.676  
     -1120.375          45.000          44.000  
 24  1 10  3 13  3.1000000  0  4G10G32G18G23
 109177078.156 7  85073115.985 7  20775708.110    20775724.530         512.262  
       399.125          47.000          44.000  
 118202634.181 7  92106033.834 7  22493214.361    22493234.672        3292.770  
      2565.504          45.000          44.000  
 113784339.337 8  88663186.676 7  21652440.730    21652456.343       -1382.945  
     -1077.680          48.000          47.000  
 110453083.651 7  86067396.240 7  21018523.233    21018537.861       -1437.930  
     -1120.387          45.000          44.000  
 24  1 10  3 13  3.2000000  0  4G10G32G18G23
 109177026.956 7  85073076.080 7  20775698.366    20775714.668         512.117  
       399.105          47.000          44.000  
 118202304.925 7  92105777.284 7  22493151.816    22493171.747        3292.730  
      2566.004          45.000          44.000  
 113784477.657 8  88663294.476 8  21652467.153    21652482.543       -1383.098  
     -1077.922          48.000          48.000  
 110453227.468 7  86067508.294 7  21018550.640    21018565.437       -1438.031  
     -1120.742          45.000          45.000  
 24  1 10  3 13  3.3000000  0  4G10G32G18G23
 109176975.761 7  85073036.181 7  20775688.624    20775704.924         512.031  
       398.941          47.000          43.000  
 118201975.669 7  92105520.704 7  22493089.160    22493109.087        3292.598  
      2565.633          45.000          43.000  
 113784615.992 8  88663402.250 8  21652493.477    21652508.863       -1383.160  
     -1077.789          48.000          48.000  
 110453371.283 7  86067620.363 7  21018578.007    21018592.805       -1438.113  
     -1120.754          45.000          44.000  
 24  1 10  3 13  3.4000000  0  4G10G32G18G23
 109176924.548 7  85072996.265 7  20775678.957    20775695.481         512.121  
       399.086          47.000          43.000  
 118201646.393 7  92105264.134 7  22493026.634    22493046.532        3292.695  
      2565.590          45.000          43.000  
 113784754.299 8  88663510.020 8  21652519.726    21652535.166       -1383.188  
     -1077.777          48.000          48.000  
 110453515.077 7  86067732.429 7  21018605.620    21018620.009       -1437.984  
     -1120.523          44.000          45.000  
 24  1 10  3 13  3.5000000  0  4G10G32G18G23
 109176873.354 7  85072956.394 7  20775669.215    20775685.744         512.020  
       398.988          47.000          43.000  
 118201317.145 7  92105007.589 7  22492963.980    22492983.881        3292.605  
      2565.547          45.000          43.000  
 113784892.616 8  88663617.817 8  21652546.047    21652561.491       -1383.098  
     -1077.918          48.000          48.000  
 110453658.882 7  86067844.469 7  21018632.985    21018647.370       -1438.012  
     -1120.508          44.000          45.000  
 24  1 10  3 13  3.6000000  0  4G10G32G18G23
 109176822.178 7  85072916.500 7  20775659.360    20775676.369         511.844  
       398.730          47.000          43.000  
 118200987.909 7  92104751.023 7  22492901.407    22492921.295        3292.422  
      2565.527          45.000          43.000  
 113785030.968 8  88663725.627 8  21652572.382    21652588.187       -1383.348  
     -1077.988          48.000          48.000  
 110453802.707 7  86067956.545 7  21018660.557    21018674.849       -1438.195  
     -1120.898          44.000          45.000  
 24  1 10  3 13  3.7000000  0  4G10G32G18G23
 109176771.015 7  85072876.640 7  20775649.623    20775666.634         511.750  
       398.770          47.000          43.000  
 118200658.680 7  92104494.493 7  22492838.757    22492858.648        3292.402  
      2565.410          46.000          43.000  
 113785169.310 8  88663833.416 8  21652598.708    21652614.510       -1383.352  
     -1078.004          48.000          48.000  
 110453946.565 7  86068068.656 7  21018687.933    21018702.228       -1438.250  
     -1120.988          44.000          45.000  
 24  1 10  3 13  3.8000000  0  4G10G32G18G23
 109176719.833 7  85072836.741 7  20775640.056    20775656.906         511.742  
       398.703          47.000          44.000  
 118200329.475 7  92104237.965 7  22492776.189    22492796.251        3292.180  
      2565.230          46.000          43.000  
 113785307.664 8  88663941.219 8  21652624.965    21652640.469       -1383.520  
     -1078.109          48.000          48.000  
 110454090.405 7  86068180.718 7  21018714.953    21018729.548       -1438.406  
     -1120.688          44.000          45.000  
 24  1 10  3 13  3.9000000  0  4G10G32G18G23
 109176668.677 7  85072796.908 7  20775630.321    20775647.179         511.754  
       398.559          47.000          44.000  
 118200000.244 7  92103981.415 7  22492713.538    22492733.599        3292.262  
      2565.539          46.000          43.000  
 113785446.012 8  88664049.027 8  21652651.292    21652666.797       -1383.477  
     -1078.094          48.000          48.000  
 110454234.243 7  86068292.808 7  21018742.324    21018756.921       -1438.277  
     -1120.871          44.000          45.000  
 24  1 10  3 13  4.0000000  0  4G10G32G18G23
 109176617.549 7  85072757.054 7  20775620.686    20775637.446         511.465  
       398.488          47.000          44.000  
 118199671.050 7  92103724.878 7  22492651.176    22492670.442        3292.070  
      2565.008          46.000          43.000  
 113785584.390 8  88664156.858 8  21652677.460    21652693.123       -1383.660  
     -1078.258          48.000          48.000  
 110454378.112 7  86068404.925 7  21018769.788    21018783.942       -1438.523  
     -1121.062          44.000          45.000  
 24  1 10  3 13  4.1000000  0  4G10G32G18G23
 109176566.430 7  85072717.220 7  20775610.958    20775627.718         511.195  
       398.180          47.000          44.000  
 118199341.882 7  92103468.424 7  22492588.537    22492607.814        3291.820  
      2564.945          46.000          43.000  
 113785722.808 8  88664264.708 8  21652703.801    21652719.461       -1383.973  
     -1078.582          48.000          48.000  
 110454521.993 7  86068517.033 7  21018797.167    21018811.320       -1438.828  
     -1121.266          44.000          45.000  
 24  1 10  3 13  4.2000000  0  4G10G32G18G23
 109176515.333 7  85072677.416 7  20775600.953    20775617.943         511.160  
       398.125          47.000          44.000  
 118199012.722 7  92103211.911 7  22492526.018    22492545.311        3291.684  
      2564.750          46.000          43.000  
 113785861.215 8  88664372.557 7  21652730.193    21652746.025       -1384.086  
     -1078.574          48.000          47.000  
 110454665.898 7  86068629.165 7  21018824.606    21018838.860       -1438.852  
     -1121.234          44.000          45.000  
 24  1 10  3 13  4.3000000  0  4G10G32G18G23
 109176464.241 7  85072637.593 7  20775591.231    20775608.218         510.973  
       398.160          47.000          44.000  
 118198683.578 7  92102955.441 7  22492463.384    22492482.679        3291.551  
      2564.707          45.000          43.000  
 113785999.660 7  88664480.437 7  21652756.538    21652772.370       -1384.168  
     -1078.703          47.000          47.000  
 110454809.814 7  86068741.299 7  21018851.993    21018866.244       -1439.031  
     -1121.402          44.000          45.000  
 24  1 10  3 13  4.4000000  0  4G10G32G18G23
 109176413.173 7  85072597.790 7  20775581.669    20775598.349         510.770  
       398.066          47.000          44.000  
 118198354.458 7  92102698.978 7  22492400.481    22492420.056        3291.246  
      2564.676          45.000          43.000  
 113786138.089 8  88664588.307 7  21652783.013    21652798.893       -1384.461  
     -1078.723          48.000          47.000  
 110454953.731 7  86068853.464 7  21018879.160    21018893.918       -1439.078  
     -1121.356          44.000          45.000  
 24  1 10  3 13  4.5000000  0  4G10G32G18G23
 109176362.081 7  85072557.989 7  20775571.947    20775588.629         510.871  
       397.914          47.000          44.000  
 118198025.300 7  92102442.513 7  22492337.844    22492357.424        3291.430  
      2564.812          45.000          43.000  
 113786276.518 7  88664696.175 7  21652809.355    21652825.236       -1384.383  
     -1078.863          47.000          47.000  
 110455097.653 7  86068965.603 7  21018906.548    21018921.303       -1439.309  
     -1121.516          44.000          45.000  
 24  1 10  3 13  4.6000000  0  4G10G32G18G23
 109176311.030 7  85072518.213 7  20775562.380    20775579.142         510.750  
       397.949          47.000          44.000  
 118197696.184 7  92102186.060 7  22492274.903    22492294.897        3291.371  
      2564.520          45.000          43.000  
 113786414.989 8  88664804.080 8  21652835.846    21652851.509       -1384.387  
     -1078.766          48.000          48.000  
 110455241.576 7  86069077.739 7  21018933.959    21018949.000       -1439.231  
     -1121.535          44.000          45.000  
 24  1 10  3 13  4.7000000  0  4G10G32G18G23
 109176259.987 7  85072478.430 7  20775552.667    20775569.426         510.574  
       397.859          47.000          44.000  
 118197367.082 7  92101929.610 7  22492212.277    22492232.270        3291.121  
      2564.609          45.000          43.000  
 113786553.459 8  88664911.970 7  21652862.196    21652877.857       -1384.656  
     -1079.020          48.000          47.000  
 110455385.534 7  86069189.917 7  21018961.353    21018976.395       -1439.363  
     -1121.625          44.000          45.000  
 24  1 10  3 13  4.8000000  0  4G10G32G18G23
 109176208.961 7  85072438.665 7  20775543.098    20775559.481         510.375  
       397.336          47.000          44.000  
 118197037.977 7  92101673.170 7  22492149.517    22492169.715        3291.074  
      2564.289          45.000          43.000  
 113786691.955 8  88665019.899 7  21652888.325    21652903.769       -1384.750  
     -1079.129          48.000          47.000  
 110455529.501 7  86069302.091 7  21018988.913    21019003.477       -1439.562  
     -1121.723          44.000          45.000  
 24  1 10  3 13  4.9000000  0  4G10G32G18G23
 109176157.939 7  85072398.923 7  20775533.389    20775549.776         510.312  
       397.652          47.000          44.000  
 118196708.918 7  92101416.757 7  22492086.900    22492107.096        3290.805  
      2564.152          45.000          43.000  
 113786830.444 8  88665127.793 7  21652914.678    21652930.118       -1384.832  
     -1079.066          48.000          47.000  
 110455673.472 7  86069414.277 7  21019016.310    21019030.874       -1439.562  
     -1121.930          44.000          45.000  
 24  1 10  3 13  5.0000000  0  4G10G32G18G23
 109176106.923 7  85072359.159 7  20775523.501    20775540.315         510.215  
       397.629          47.000          44.000  
 118196379.842 7  92101160.337 7  22492024.521    22492044.476        3290.777  
      2564.277          45.000          43.000  
 113786968.943 8  88665235.717 7  21652940.838    21652956.372       -1384.953  
     -1079.289          48.000          47.000  
 110455817.454 7  86069526.465 7  21019043.545    21019058.240       -1439.758  
     -1121.820          44.000          45.000  
 24  1 10  3 13  5.1000000  0  4G10G32G18G23
 109176055.914 7  85072319.415 7  20775513.794    20775530.609         510.199  
       397.570          47.000          44.000  
 118196050.755 7  92100903.912 7  22491961.897    22491981.854        3290.867  
      2564.156          45.000          44.000  
 113787107.442 8  88665343.647 7  21652967.194    21652982.730       -1384.914  
     -1079.242          48.000          47.000  
 110455961.419 7  86069638.641 7  21019070.940    21019085.634       -1439.777  
     -1122.000          44.000          45.000  
 24  1 10  3 13  5.2000000  0  4G10G32G18G23
 109176004.920 7  85072279.692 7  20775503.794    20775520.861         510.070  
       397.207          47.000          44.000  
 118195721.714 7  92100647.521 7  22491899.346    22491919.116        3290.613  
      2564.051          44.000          44.000  
 113787245.961 7  88665451.587 7  21652993.639    21653009.184       -1385.125  
     -1079.461          47.000          47.000  
 110456105.416 7  86069750.889 7  21019098.240    21019113.117       -1439.738  
     -1121.922          44.000          45.000  
 24  1 10  3 13  5.3000000  0  4G10G32G18G23
 109175953.943 7  85072239.939 7  20775494.093    20775511.153         509.844  
       397.371          47.000          44.000  
 118195392.675 7  92100391.110 7  22491836.732    22491856.498        3290.508  
      2564.012          45.000          44.000  
 113787384.500 8  88665559.546 7  21653020.002    21653035.548       -1385.172  
     -1079.414          48.000          47.000  
 110456249.414 7  86069863.080 7  21019125.642    21019140.515       -1439.910  
     -1122.121          44.000          45.000  
 24  1 10  3 13  5.4000000  0  4G10G32G18G23
 109175902.964 7  85072200.227 7  20775484.290    20775501.346         509.805  
       397.293          47.000          44.000  
 118195063.651 7  92100134.739 7  22491773.909    22491793.663        3290.383  
      2563.723          45.000          44.000  
 113787523.028 8  88665667.469 7  21653046.769    21653062.154       -1385.371  
     -1079.629          48.000          47.000  
 110456393.424 7  86069975.285 7  21019153.086    21019167.823       -1440.027  
     -1122.121          44.000          45.000  
 24  1 10  3 13  5.5000000  0  4G10G32G18G23
 109175852.008 7  85072160.513 7  20775474.594    20775491.647         509.656  
       396.879          47.000          44.000  
 118194734.632 7  92099878.360 7  22491711.299    22491731.052        3290.266  
      2563.781          45.000          44.000  
 113787661.601 8  88665775.466 7  21653073.139    21653088.528       -1385.473  
     -1079.676          48.000          47.000  
 110456537.462 7  86070087.515 7  21019180.495    21019195.231       -1440.207  
     -1122.414          44.000          45.000  
 24  1 10  3 13  5.6000000  0  4G10G32G18G23
 109175801.073 7  85072120.842 7  20775464.972    20775481.826         509.594  
       396.941          47.000          44.000  
 118194405.641 7  92099621.986 7  22491648.718    22491668.584        3290.039  
      2563.707          45.000          44.000  
 113787800.169 8  88665883.414 7  21653099.320    21653115.179       -1385.668  
     -1079.734          48.000          47.000  
 110456681.512 7  86070199.784 7  21019207.899    21019222.828       -1440.254  
     -1122.539          44.000          45.000  
 24  1 10  3 13  5.7000000  0  4G10G32G18G23
 109175750.152 7  85072081.137 7  20775455.282    20775472.130         509.301  
       396.926          47.000          44.000  
 118194076.639 7  92099365.616 7  22491586.111    22491605.976        3290.016  
      2563.367          45.000          44.000  
 113787938.766 7  88665991.420 7  21653125.694    21653141.555       -1385.762  
     -1079.922          47.000          47.000  
 110456825.576 7  86070312.021 7  21019235.314    21019250.237       -1440.500  
     -1122.438          44.000          45.000  
 24  1 10  3 13  5.8000000  0  4G10G32G18G23
 109175699.236 7  85072041.454 7  20775445.538    20775462.447         509.215  
       396.727          47.000          44.000  
 118193747.681 7  92099109.297 7  22491523.489    22491543.864        3289.832  
      2563.500          45.000          44.000  
 113788077.362 8  88666099.423 7  21653152.006    21653167.743       -1385.914  
     -1080.012          48.000          47.000  
 110456969.627 7  86070424.267 7  21019262.679    21019277.899       -1440.656  
     -1122.543          44.000          45.000  
 24  1 10  3 13  5.9000000  0  4G10G32G18G23
 109175648.327 7  85072001.787 7  20775435.850    20775452.760         509.195  
       396.910          47.000          44.000  
 118193418.692 7  92098852.952 7  22491460.884    22491481.262        3289.820  
      2563.336          45.000          43.000  
 113788215.950 8  88666207.411 7  21653178.378    21653194.115       -1385.938  
     -1079.945          48.000          47.000  
 110457113.687 7  86070536.502 7  21019290.092    21019305.307       -1440.578  
     -1122.555          44.000          45.000  
 24  1 10  3 13  6.0000000  0  4G10G32G18G23
 109175597.436 7  85071962.137 7  20775426.103    20775443.241         509.031  
       396.523          47.000          44.000  
 118193089.753 7  92098596.631 7  22491398.109    22491418.455        3289.668  
      2563.297          45.000          43.000  
 113788354.578 8  88666315.431 7  21653204.805    21653220.120       -1386.106  
     -1080.242          48.000          47.000  
 110457257.779 7  86070648.796 7  21019317.770    21019332.754       -1440.703  
     -1122.785          44.000          45.000  
 24  1 10  3 13  6.1000000  0  4G10G32G18G23
 109175546.548 7  85071922.491 7  20775416.420    20775433.559         508.949  
       396.516          47.000          44.000  
 118192760.788 7  92098340.304 7  22491335.509    22491355.857        3289.543  
      2563.141          45.000          43.000  
 113788493.214 8  88666423.465 8  21653231.187    21653246.503       -1386.090  
     -1080.106          48.000          48.000  
 110457401.892 7  86070761.100 7  21019345.194    21019360.180       -1440.832  
     -1122.801          44.000          45.000  
 24  1 10  3 13  6.2000000  0  4G10G32G18G23
 109175495.667 7  85071882.834 7  20775407.081    20775423.804         508.855  
       396.410          47.000          44.000  
 118192431.861 7  92098083.999 7  22491273.034    22491293.038        3289.445  
      2563.219          45.000          43.000  
 113788631.839 8  88666531.491 8  21653257.480    21653272.978       -1386.258  
     -1080.332          48.000          48.000  
 110457545.956 7  86070873.355 7  21019372.671    21019387.273       -1440.863  
     -1122.734          44.000          45.000  
 24  1 10  3 13  6.3000000  0  4G10G32G18G23
 109175444.839 7  85071843.222 7  20775397.409    20775414.130         508.539  
       396.145          47.000          44.000  
 118192102.934 7  92097827.695 7  22491210.441    22491230.447        3289.324  
      2562.770          45.000          43.000  
 113788770.518 8  88666639.534 8  21653283.870    21653299.363       -1386.539  
     -1080.477          48.000          48.000  
 110457690.097 7  86070985.653 7  21019400.100    21019414.698       -1441.168  
     -1123.145          44.000          45.000  
 24  1 10  3 13  6.4000000  0  4G10G32G18G23
 109175394.026 7  85071803.635 7  20775387.513    20775404.471         508.043  
       395.844          47.000          44.000  
 118191774.081 7  92097571.431 7  22491148.238    22491167.770        3288.562  
      2562.672          45.000          43.000  
 113788909.212 8  88666747.612 8  21653310.661    21653325.725       -1387.141  
     -1080.770          48.000          48.000  
 110457834.257 7  86071098.013 7  21019427.376    21019442.090       -1441.688  
     -1123.395          44.000          45.000  
 24  1 10  3 13  6.5000000  0  4G10G32G18G23
 109175343.209 7  85071764.036 7  20775377.843    20775394.800         508.062  
       395.938          47.000          44.000  
 118191445.195 7  92097315.163 7  22491085.653    22491105.187        3288.688  
      2562.613          45.000          43.000  
 113789047.903 8  88666855.671 8  21653337.053    21653352.114       -1387.004  
     -1080.797          48.000          48.000  
 110457978.406 7  86071210.331 7  21019454.807    21019469.520       -1441.594  
     -1123.266          44.000          45.000  
 24  1 10  3 13  6.6000000  0  4G10G32G18G23
 109175292.374 7  85071724.436 7  20775368.224    20775385.090         508.316  
       396.180          47.000          44.000  
 118191116.289 7  92097058.878 7  22491023.158    22491042.568        3289.012  
      2562.781          45.000          43.000  
 113789186.585 8  88666963.752 8  21653363.334    21653378.892       -1386.793  
     -1080.602          48.000          48.000  
 110458122.543 7  86071322.664 7  21019482.313    21019497.210       -1441.254  
     -1123.098          44.000          45.000  
 24  1 10  3 13  6.7000000  0  4G10G32G18G23
 109175241.567 7  85071684.831 7  20775358.556    20775375.418         508.219  
       395.930          47.000          44.000  
 118190787.425 7  92096802.621 7  22490960.577    22490979.988        3288.852  
      2562.641          45.000          43.000  
 113789325.288 7  88667071.810 8  21653389.728    21653405.281       -1386.910  
     -1080.797          47.000          48.000  
 110458266.700 7  86071434.955 7  21019509.746    21019524.633       -1441.617  
     -1123.320          44.000          45.000  
 24  1 10  3 13  6.8000000  0  4G10G32G18G23
 109175190.750 7  85071645.239 7  20775348.925    20775365.671         508.184  
       395.887          47.000          44.000  
 118190458.528 7  92096546.331 7  22490897.951    22490917.321        3288.875  
      2562.715          45.000          43.000  
 113789463.968 7  88667179.889 8  21653415.845    21653431.628       -1386.801  
     -1080.684          47.000          48.000  
 110458410.842 7  86071547.309 7  21019537.120    21019551.649       -1441.363  
     -1123.078          44.000          45.000  
 24  1 10  3 13  6.9000000  0  4G10G32G18G23
 109175139.965 7  85071605.685 7  20775339.261    20775356.012         507.992  
       395.758          47.000          44.000  
 118190129.687 7  92096290.085 7  22490835.374    22490854.743        3288.633  
      2562.566          45.000          43.000  
 113789602.700 7  88667288.000 8  21653442.244    21653458.029       -1387.062  
     -1080.977          47.000          48.000  
 110458555.021 7  86071659.635 7  21019564.557    21019579.080       -1441.676  
     -1123.414          44.000          45.000  
 24  1 10  3 13  7.0000000  0  5G10G32G18G23G15
 109175089.175 7  85071566.099 7  20775329.752    20775346.485         507.926  
       395.633          47.000          44.000  
 118189800.841 7  92096033.844 7  22490772.641    22490792.276        3288.539  
      2562.375          45.000          43.000  
 113789741.430 8  88667396.094 8  21653468.613    21653484.630       -1387.180  
     -1080.914          48.000          48.000  
 110458699.215 7  86071771.987 7  21019591.808    21019606.643       -1441.734  
     -1123.434          44.000          45.000  
 127089082.21716  99030532.20817  24184249.610    24184267.781       -2991.938  
     -2331.488          38.000          44.000  
 24  1 10  3 13  7.1000000  0  5G10G32G18G23G15
 109175038.416 7  85071526.538 7  20775320.093    20775336.824         507.762  
       395.609          47.000          44.000  
 118189471.998 7  92095777.602 7  22490710.064    22490729.699        3288.473  
      2562.328          45.000          43.000  
 113789880.162 8  88667504.191 8  21653495.012    21653511.029       -1387.309  
     -1081.023          48.000          48.000  
 110458843.400 7  86071884.343 7  21019619.246    21019634.081       -1441.836  
     -1123.496          44.000          45.000  
 127089381.441 6  99030765.351 7  24184306.551    24184324.717       -2992.094  
     -2331.422          38.000          44.000  
 24  1 10  3 13  7.2000000  0  5G10G32G18G23G15
 109174987.654 7  85071487.004 7  20775310.363    20775326.810         507.660  
       395.453          47.000          44.000  
 118189143.200 7  92095521.402 7  22490647.551    22490667.265        3288.211  
      2562.191          45.000          43.000  
 113790018.903 8  88667612.296 8  21653521.539    21653537.085       -1387.418  
     -1081.211          48.000          48.000  
 110458987.609 7  86071996.724 7  21019646.719    21019661.362       -1442.020  
     -1123.805          44.000          45.000  
 127089680.662 6  99030998.529 7  24184363.694    24184381.896       -2992.121  
     -2331.766          38.000          44.000  
 24  1 10  3 13  7.3000000  0  5G10G32G18G23G15
 109174936.929 7  85071447.456 7  20775300.710    20775317.152         507.434  
       395.250          47.000          44.000  
 118188814.400 7  92095265.197 7  22490584.982    22490604.697        3288.137  
      2562.043          45.000          43.000  
 113790157.701 7  88667720.456 8  21653547.951    21653563.499       -1387.574  
     -1081.383          47.000          48.000  
 110459131.837 7  86072109.102 7  21019674.165    21019688.806       -1442.031  
     -1123.848          44.000          45.000  
 127089979.907 6  99031231.705 7  24184420.638    24184438.840       -2992.328  
     -2331.789          38.000          44.000  
 24  1 10  3 13  7.4000000  0  5G10G32G18G23G15
 109174886.196 7  85071407.947 7  20775291.001    20775307.613         507.395  
       395.227          47.000          44.000  
 118188485.603 7  92095008.987 7  22490522.398    22490542.097        3288.000  
      2562.016          45.000          43.000  
 113790296.470 7  88667828.607 8  21653574.491    21653589.746       -1387.773  
     -1081.488          47.000          48.000  
 110459276.064 7  86072221.487 7  21019701.915    21019716.368       -1442.277  
     -1123.930          44.000          45.000  
 127090279.147 6  99031464.892 7  24184477.215    24184495.880       -2992.344  
     -2331.828          38.000          44.000  
 24  1 10  3 13  7.5000000  0  5G10G32G18G23G15
 109174835.499 7  85071368.426 7  20775281.354    20775297.961         507.102  
       395.121          47.000          44.000  
 118188156.820 7  92094752.793 7  22490459.833    22490479.532        3287.852  
      2561.758          45.000          43.000  
 113790435.263 7  88667936.736 8  21653600.902    21653616.153       -1387.836  
     -1081.488          47.000          48.000  
 110459420.300 7  86072333.869 7  21019729.362    21019743.813       -1442.309  
     -1123.922          44.000          45.000  
 127090578.430 6  99031698.073 7  24184534.166    24184552.825       -2992.605  
     -2331.906          38.000          44.000  
 24  1 10  3 13  7.6000000  0  5G10G32G18G23G15
 109174784.790 7  85071328.922 7  20775271.501    20775288.455         507.117  
       395.219          47.000          44.000  
 118187828.055 7  92094496.626 7  22490397.279    22490416.989        3287.746  
      2561.871          45.000          43.000  
 113790574.074 7  88668044.907 8  21653627.333    21653642.522       -1387.906  
     -1081.562          47.000          48.000  
 110459564.534 7  86072446.285 7  21019756.989    21019771.313       -1442.352  
     -1124.137          44.000          45.000  
 127090877.658 6  99031931.271 7  24184590.842    24184609.431       -2992.426  
     -2332.000          39.000          44.000  
 24  1 10  3 13  7.7000000  0  5G10G32G18G23G15
 109174734.088 7  85071289.412 7  20775261.853    20775278.806         507.121  
       394.879          47.000          44.000  
 118187499.285 7  92094240.429 7  22490334.716    22490354.423        3287.750  
      2561.750          45.000          43.000  
 113790712.888 7  88668153.070 7  21653653.748    21653668.937       -1388.008  
     -1081.566          47.000          47.000  
 110459708.785 7  86072558.662 7  21019784.439    21019798.757       -1442.438  
     -1124.012          44.000          45.000  
 127091176.970 6  99032164.466 7  24184647.799    24184666.379       -2992.840  
     -2331.938          39.000          44.000  
 24  1 10  3 13  7.8000000  0  5G10G32G18G23G15
 109174683.401 7  85071249.909 7  20775252.325    20775268.808         506.949  
       395.074          47.000          44.000  
 118187170.527 7  92093984.274 7  22490271.945    22490291.844        3287.625  
      2561.812          45.000          43.000  
 113790851.684 7  88668261.220 7  21653680.035    21653695.543       -1388.090  
     -1081.746          47.000          47.000  
 110459853.047 7  86072671.091 7  21019811.578    21019825.971       -1442.481  
     -1124.098          44.000          45.000  
 127091476.263 6  99032397.660 7  24184705.112    24184723.304       -2992.758  
     -2331.961          39.000          44.000  
 24  1 10  3 13  7.9000000  0  5G10G32G18G23G15
 109174632.728 7  85071210.426 7  20775242.682    20775259.165         506.848  
       394.910          47.000          44.000  
 118186841.774 7  92093728.073 7  22490209.385    22490229.277        3287.590  
      2561.605          45.000          43.000  
 113790990.512 7  88668369.413 7  21653706.453    21653721.965       -1388.106  
     -1081.746          47.000          47.000  
 110459997.318 7  86072783.511 7  21019839.032    21019853.425       -1442.633  
     -1124.137          44.000          45.000  
 127091775.523 6  99032630.880 7  24184762.059    24184780.259       -2992.766  
     -2332.172          39.000          44.000  
 24  1 10  3 13  8.0000000  0  5G10G32G18G23G15
 109174582.060 7  85071170.944 7  20775233.282    20775249.703         506.746  
       394.863          47.000          44.000  
 118186513.046 7  92093471.936 7  22490146.877    22490166.616        3287.391  
      2561.586          45.000          43.000  
 113791129.353 7  88668477.595 7  21653732.788    21653748.658       -1388.445  
     -1081.934          47.000          47.000  
 110460141.619 7  86072895.965 7  21019866.312    21019880.981       -1442.641  
     -1124.367          44.000          45.000  
 127092074.825 6  99032864.107 7  24184819.390    24184837.325       -2992.930  
     -2332.199          38.000          44.000  
 24  1 10  3 13  8.1000000  0  5G10G32G18G23G15
 109174531.412 7  85071131.478 7  20775223.644    20775240.065         506.605  
       394.590          47.000          44.000  
 118186184.320 7  92093215.799 7  22490084.323    22490104.065        3287.332  
      2561.477          45.000          43.000  
 113791268.204 7  88668585.796 7  21653759.210    21653775.082       -1388.340  
     -1081.852          47.000          47.000  
 110460285.885 7  86073008.372 7  21019893.765    21019908.432       -1442.898  
     -1124.356          44.000          45.000  
 127092374.117 6  99033097.331 7  24184876.343    24184894.281       -2992.852  
     -2332.270          39.000          44.000  
 24  1 10  3 13  8.2000000  0  5G10G32G18G23G15
 109174480.758 7  85071092.012 7  20775214.029    20775230.701         506.488  
       394.664          47.000          44.000  
 118185855.599 7  92092959.639 7  22490021.855    22490041.860        3287.270  
      2561.473          45.000          43.000  
 113791407.060 7  88668693.985 7  21653785.704    21653801.471       -1388.481  
     -1082.082          47.000          47.000  
 110460430.195 7  86073120.815 7  21019921.219    21019936.251       -1442.887  
     -1124.367          44.000          45.000  
 127092673.437 6  99033330.562 7  24184933.208    24184950.832       -2993.047  
     -2332.223          39.000          44.000  
 24  1 10  3 13  8.3000000  0  5G10G32G18G23G15
 109174430.140 7  85071052.568 7  20775204.396    20775221.068         506.430  
       394.516          47.000          44.000  
 118185526.921 7  92092703.533 7  22489959.310    22489979.316        3287.031  
      2561.230          45.000          43.000  
 113791545.925 7  88668802.190 7  21653812.129    21653827.896       -1388.602  
     -1082.195          47.000          47.000  
 110460574.516 7  86073233.264 7  21019948.682    21019963.712       -1443.078  
     -1124.613          44.000          45.000  
 127092972.772 6  99033563.801 7  24184990.169    24185007.791       -2993.227  
     -2332.461          39.000          44.000  
 24  1 10  3 13  8.4000000  0  5G10G32G18G23G15
 109174379.522 7  85071013.126 7  20775194.506    20775211.428         506.324  
       394.383          47.000          44.000  
 118185198.240 7  92092447.418 7  22489896.631    22489916.481        3286.891  
      2561.285          45.000          43.000  
 113791684.822 7  88668910.435 7  21653838.451    21653854.198       -1388.801  
     -1082.195          47.000          47.000  
 110460718.815 7  86073345.708 7  21019976.133    21019991.180       -1443.184  
     -1124.395          44.000          45.000  
 127093272.122 6  99033797.051 7  24185047.126    24185064.769       -2993.395  
     -2332.488          39.000          44.000  
 24  1 10  3 13  8.5000000  0  5G10G32G18G23G15
 109174328.909 7  85070973.688 7  20775184.875    20775201.797         506.184  
       394.406          47.000          44.000  
 118184869.545 7  92092191.295 7  22489834.082    22489853.933        3286.871  
      2561.016          45.000          43.000  
 113791823.713 7  88669018.643 7  21653864.881    21653880.623       -1388.863  
     -1082.231          47.000          47.000  
 110460863.124 7  86073458.143 7  21020003.594    21020018.638       -1443.195  
     -1124.703          44.000          45.000  
 127093571.454 6  99034030.312 7  24185104.087    24185121.734       -2993.445  
     -2332.512          39.000          44.000  
 24  1 10  3 13  8.6000000  0  5G10G32G18G23G15
 109174278.303 7  85070934.253 7  20775174.948    20775192.135         506.102  
       394.141          47.000          44.000  
 118184540.869 7  92091935.194 7  22489771.639    22489790.836        3286.844  
      2561.215          45.000          43.000  
 113791962.616 7  88669126.879 7  21653891.407    21653907.220       -1388.867  
     -1082.309          47.000          47.000  
 110461007.490 7  86073570.665 7  21020031.066    21020046.180       -1443.231  
     -1124.707          44.000          45.000  
 127093870.817 6  99034263.565 7  24185160.890    24185179.267       -2993.461  
     -2332.531          38.000          44.000  
 24  1 10  3 13  8.7000000  0  5G10G32G18G23G15
 109174227.694 7  85070894.813 7  20775165.318    20775182.504         506.105  
       394.441          47.000          44.000  
 118184212.189 7  92091679.057 7  22489709.093    22489728.285        3286.801  
      2561.109          45.000          43.000  
 113792101.497 7  88669235.106 7  21653917.836    21653933.650       -1388.883  
     -1082.457          47.000          47.000  
 110461151.837 7  86073683.148 7  21020058.535    21020073.649       -1443.312  
     -1124.641          44.000          45.000  
 127094170.149 6  99034496.815 7  24185217.851    24185236.229       -2993.418  
     -2332.461          38.000          44.000  
 24  1 10  3 13  8.8000000  0  5G10G32G18G23G15
 109174177.111 7  85070855.397 7  20775155.926    20775172.565         505.949  
       394.195          47.000          44.000  
 118183883.531 7  92091422.961 7  22489646.559    22489666.126        3286.660  
      2560.938          45.000          43.000  
 113792240.414 7  88669343.348 7  21653944.380    21653959.912       -1389.059  
     -1082.363          47.000          47.000  
 110461296.182 7  86073795.606 7  21020085.768    21020100.769       -1443.410  
     -1124.703          44.000          45.000  
 127094469.475 6  99034730.091 7  24185274.943    24185293.338       -2993.320  
     -2332.762          38.000          44.000  
 24  1 10  3 13  8.9000000  0  5G10G32G18G23G15
 109174126.538 7  85070815.976 7  20775146.303    20775162.938         505.793  
       393.980          47.000          44.000  
 118183554.906 7  92091166.894 7  22489584.024    22489603.592        3286.453  
      2560.762          45.000          43.000  
 113792379.342 7  88669451.615 7  21653970.817    21653986.351       -1389.160  
     -1082.652          47.000          47.000  
 110461440.532 7  86073908.073 7  21020113.237    21020128.234       -1443.527  
     -1124.988          44.000          45.000  
 127094768.887 6  99034963.360 7  24185331.920    24185350.304       -2993.793  
     -2332.680          39.000          44.000  
 24  1 10  3 13  9.0000000  0  5G10G32G18G23G15
 109174075.985 7  85070776.610 7  20775137.034    20775153.270         505.688  
       393.988          47.000          44.000  
 118183226.264 7  92090910.811 7  22489521.689    22489541.265        3286.422  
      2560.754          45.000          43.000  
 113792518.277 7  88669559.854 8  21653997.404    21654012.449       -1389.387  
     -1082.680          47.000          48.000  
 110461584.916 7  86074020.603 7  21020140.931    21020155.997       -1443.637  
     -1125.020          44.000          45.000  
 127095068.279 6  99035196.647 7  24185389.150    24185406.869       -2993.852  
     -2332.801          39.000          44.000  
 24  1 10  3 13  9.1000000  0  5G10G32G18G23G15
 109174025.436 7  85070737.212 7  20775127.415    20775143.649         505.516  
       393.711          47.000          44.000  
 118182897.646 7  92090654.741 7  22489459.155    22489478.730        3286.262  
      2560.664          45.000          43.000  
 113792657.252 7  88669668.159 8  21654023.850    21654038.898       -1389.469  
     -1082.809          47.000          48.000  
 110461729.291 7  86074133.101 7  21020168.405    21020183.470       -1443.793  
     -1125.078          44.000          45.000  
 127095367.671 6  99035429.957 7  24185446.122    24185463.846       -2993.852  
     -2332.977          39.000          44.000  
 24  1 10  3 13  9.2000000  0  5G10G32G18G23G15
 109173974.903 7  85070697.847 7  20775117.932    20775133.918         505.453  
       393.773          47.000          44.000  
 118182569.041 7  92090398.685 7  22489396.819    22489416.214        3286.164  
      2560.664          45.000          43.000  
 113792796.200 7  88669776.430 8  21654050.103    21654065.823       -1389.574  
     -1082.836          47.000          48.000  
 110461873.697 7  86074245.627 7  21020195.986    21020210.637       -1443.934  
     -1125.211          44.000          45.000  
 127095667.083 6  99035663.255 7  24185502.825    24185520.952       -2994.027  
     -2333.039          39.000          44.000  
 24  1 10  3 13  9.3000000  0  5G10G32G18G23G15
 109173924.378 7  85070658.473 7  20775108.317    20775124.302         505.402  
       393.730          47.000          44.000  
 118182240.447 7  92090142.636 7  22489334.289    22489353.684        3286.031  
      2560.590          45.000          43.000  
 113792935.172 7  88669884.719 8  21654076.549    21654092.268       -1389.606  
     -1082.867          47.000          48.000  
 110462018.103 7  86074358.133 7  21020223.465    21020238.112       -1443.906  
     -1125.184          44.000          45.000  
 127095966.499 6  99035896.564 7  24185559.802    24185577.929       -2994.035  
     -2333.117          39.000          44.000  
 24  1 10  3 13  9.4000000  0  5G10G32G18G23G15
 109173873.873 7  85070619.122 7  20775098.597    20775115.005         505.215  
       393.594          47.000          44.000  
 118181911.869 7  92089886.613 7  22489271.099    22489291.575        3285.934  
      2560.227          45.000          43.000  
 113793074.170 7  88669993.042 7  21654102.999    21654118.331       -1389.809  
     -1083.106          47.000          47.000  
 110462162.506 7  86074470.656 7  21020250.937    21020265.693       -1444.148  
     -1125.441          44.000          45.000  
 127096265.919 6  99036129.892 7  24185616.702    24185635.277       -2994.211  
     -2333.297          39.000          44.000  
 24  1 10  3 13  9.5000000  0  5G10G32G18G23G15
 109173823.373 7  85070579.766 7  20775088.987    20775105.394         505.039  
       393.398          47.000          44.000  
 118181583.300 7  92089630.584 7  22489208.574    22489229.050        3285.746  
      2560.270          45.000          43.000  
 113793213.160 7  88670101.335 7  21654129.448    21654144.778       -1389.930  
     -1083.160          47.000          47.000  
 110462306.931 7  86074583.214 7  21020278.420    21020293.181       -1444.168  
     -1125.520          44.000          45.000  
 127096565.374 6  99036363.217 7  24185673.686    24185692.257       -2994.375  
     -2333.207          39.000          44.000  
 24  1 10  3 13  9.6000000  0  5G10G32G18G23G15
 109173772.904 7  85070540.454 7  20775079.329    20775095.926         504.957  
       393.383          47.000          44.000  
 118181254.739 7  92089374.551 7  22489146.028    22489166.204        3285.664  
      2560.160          45.000          43.000  
 113793352.174 7  88670209.647 7  21654156.019    21654171.057       -1390.090  
     -1083.172          47.000          47.000  
