     2.11           OBSERVATION DATA    M (MIXED)           RINEX VERSION / TYPE
GPP.DLL V3.2.21                         18 - MAR - 24 07:42 PGM / RUN BY / DATE 
                                                            MARKER NAME         
                                                            MARKER NUMBER       
                                                            OBSERVER / AGENCY   
6028C00128          APX-15v3 AV         5.50                REC # / TYPE / VERS 
                    E                                       ANT # / TYPE        
 -4667835.3847  2554607.5248 -3504874.1080                  APPROX POSITION XYZ 
        0.0000       -0.0000       -0.0000                  ANTENNA: DELTA H/E/N
     1     1                                                WAVELENGTH FACT L1/2
     8    L1    L2    C1    C2    D1    D2    S1    S2      # / TYPES OF OBSERV 
     0.100                                                  INTERVAL            
  2024     1    10     3    18    0.0000000     GPS         TIME OF FIRST OBS   
  2024     1    10     3    18   59.9000000     GPS         TIME OF LAST OBS    
    18                                                      LEAP SECONDS        
     7                                                      # OF SATELLITES     
   G08   600   600   600   600   600   600   600   600      PRN / # OF OBS      
   G10   600   600   600   600   600   600   600   600      PRN / # OF OBS      
   G15   600   600   600   600   600   600   600   600      PRN / # OF OBS      
   G18   600   600   600   600   600   600   600   600      PRN / # OF OBS      
   G23   600   600   600   600   600   600   600   600      PRN / # OF OBS      
   G24   560   560   560   560   560   560   560   560      PRN / # OF OBS      
   G32   600   600   600   600   600   600   600   600      PRN / # OF OBS      
                                                            END OF HEADER       
 24  1 10  3 18  0.0000000  0  7G08G24G18G23G10G32G15
 130703815.188 6 101847210.893 6  24872121.947    24872142.882        2900.703  
      2260.578          37.000          37.000  
 129623094.84425 101005101.168 6  24666453.055    24666475.798         342.648  
       266.105          33.000          38.000  
 114254846.624 7  89029815.112 7  21741975.180    21741991.376       -1755.465  
     -1367.660          42.000          43.000  
 110933876.936 7  86442039.832 7  21110016.638    21110030.496       -1759.914  
     -1371.223          44.000          45.000  
 109085157.062 8  85001489.059 7  20758216.607    20758232.511         145.609  
       113.531          48.000          45.000  
 117286384.301 7  91392074.254 6  22318857.283    22318875.889        2900.930  
      2260.703          47.000          39.000  
 128017464.328 6  99753944.405 6  24360916.290    24360933.358       -3299.945  
     -2571.164          39.000          37.000  
 24  1 10  3 18  0.1000000  0  7G08G24G18G23G10G32G15
 130703525.052 6 101846984.813 6  24872066.736    24872087.671        2901.082  
      2260.590          37.000          37.000  
 129623060.79335 101005074.489 6  24666446.552    24666469.282         341.727  
       266.828          33.000          39.000  
 114255022.068 7  89029951.880 7  21742008.566    21742024.776       -1754.824  
     -1367.414          43.000          43.000  
 110934052.884 7  86442176.931 7  21110050.119    21110063.977       -1759.688  
     -1371.031          44.000          45.000  
 109085142.443 8  85001477.655 7  20758213.825    20758229.726         145.961  
       113.875          48.000          45.000  
 117286094.152 7  91391848.211 6  22318802.070    22318820.687        2901.324  
      2260.602          47.000          39.000  
 128017794.295 6  99754201.535 6  24360979.080    24360996.152       -3299.680  
     -2571.441          39.000          37.000  
 24  1 10  3 18  0.2000000  0  7G08G24G18G23G10G32G15
 130703234.997 6 101846758.812 6  24872011.369    24872032.558        2900.863  
      2260.062          38.000          37.000  
 129623026.54225 101005047.844 6  24666440.198    24666462.760         341.949  
       266.379          33.000          39.000  
 114255197.570 7  89030088.590 7  21742042.174    21742058.397       -1754.914  
     -1367.231          43.000          43.000  
 110934228.800 7  86442314.032 7  21110083.455    21110097.263       -1759.328  
     -1370.918          45.000          45.000  
 109085127.835 8  85001466.302 7  20758211.061    20758226.836         146.129  
       113.867          48.000          45.000  
 117285804.021 7  91391622.110 6  22318747.063    22318765.314        2901.285  
      2261.016          47.000          39.000  
 128018124.234 6  99754458.693 6  24361042.225    24361058.960       -3299.684  
     -2571.363          38.000          38.000  
 24  1 10  3 18  0.3000000  0  7G08G24G18G23G10G32G15
 130702944.915 6 101846532.756 6  24871956.168    24871977.352        2900.801  
      2260.430          37.000          37.000  
 129622992.36725 101005021.192 6  24666433.695    24666456.251         341.945  
       266.605          32.000          38.000  
 114255373.041 7  89030225.348 7  21742075.565    21742091.794       -1754.684  
     -1367.465          43.000          43.000  
 110934404.766 7  86442451.143 7  21110116.940    21110130.747       -1759.484  
     -1371.031          44.000          45.000  
 109085113.233 8  85001454.894 7  20758208.282    20758224.050         145.984  
       113.820          48.000          45.000  
 117285513.879 7  91391396.014 6  22318691.851    22318710.099        2901.375  
      2260.598          47.000          39.000  
 128018454.295 6  99754715.819 6  24361105.033    24361121.753       -3300.012  
     -2571.531          39.000          38.000  
 24  1 10  3 18  0.4000000  0  7G08G24G18G23G10G32G15
 130702654.812 6 101846306.720 6  24871901.323    24871922.347        2900.918  
      2260.484          37.000          37.000  
 129622958.22335 101004994.568 6  24666427.315    24666449.804         342.070  
       266.430          31.000          38.000  
 114255548.534 7  89030362.119 7  21742109.765    21742125.125       -1754.820  
     -1367.504          43.000          43.000  
 110934580.711 7  86442588.253 7  21110150.124    21110164.114       -1759.445  
     -1370.973          44.000          45.000  
 109085098.625 8  85001443.517 7  20758205.346    20758221.725         146.176  
       113.844          48.000          45.000  
 117285223.740 7  91391169.930 6  22318636.483    22318654.981        2901.320  
      2260.852          47.000          39.000  
 128018784.266 6  99754972.928 6  24361168.106    24361184.979       -3299.934  
     -2571.207          39.000          38.000  
 24  1 10  3 18  0.5000000  0  7G08G24G18G23G10G32G15
 130702364.827 6 101846080.740 6  24871846.140    24871867.161        2900.336  
      2259.719          37.000          37.000  
 129622923.98025 101004967.954 6  24666420.799    24666443.304         341.875  
       265.910          31.000          38.000  
 114255724.036 7  89030498.813 7  21742143.162    21742158.507       -1755.066  
     -1367.520          44.000          43.000  
 110934756.693 7  86442725.367 7  21110183.612    21110197.598       -1759.727  
     -1371.254          44.000          45.000  
 109085084.049 8  85001432.155 7  20758202.572    20758218.950         145.855  
       113.633          48.000          45.000  
 117284933.641 7  91390943.891 6  22318581.279    22318599.780        2901.082  
      2260.836          47.000          39.000  
 128019114.342 6  99755230.109 6  24361230.917    24361247.785       -3300.254  
     -2571.898          39.000          38.000  
 24  1 10  3 18  0.6000000  0  7G08G24G18G23G10G32G15
 130702074.758 6 101845854.747 6  24871790.965    24871811.471        2900.520  
      2260.074          37.000          37.000  
 129622889.87125 101004941.343 6  24666414.519    24666436.743         341.664  
       266.180          31.000          38.000  
 114255899.559 7  89030635.654 7  21742176.813    21742191.159       -1755.156  
     -1367.762          43.000          43.000  
 110934932.688 7  86442862.516 7  21110216.627    21110231.302       -1759.789  
     -1371.473          44.000          45.000  
 109085069.474 8  85001420.793 7  20758200.072    20758216.184         145.789  
       113.535          48.000          45.000  
 117284643.542 7  91390717.833 6  22318525.676    22318544.395        2901.125  
      2260.410          47.000          39.000  
 128019444.333 6  99755487.262 6  24361293.916    24361310.561       -3300.238  
     -2571.297          40.000          38.000  
 24  1 10  3 18  0.7000000  0  7G08G24G18G23G10G32G15
 130701784.726 6 101845628.698 6  24871735.774    24871756.268        2900.422  
      2260.438          37.000          37.000  
 129622855.71925 101004914.704 6  24666408.020    24666430.238         341.387  
       266.273          30.000          38.000  
 114256075.079 7  89030772.390 7  21742210.213    21742224.552       -1755.133  
     -1367.656          43.000          43.000  
 110935108.693 7  86442999.670 7  21110250.119    21110264.797       -1759.844  
     -1371.348          44.000          45.000  
 109085054.926 8  85001409.450 7  20758197.304    20758213.413         145.605  
       113.238          48.000          45.000  
 117284353.451 7  91390491.807 6  22318470.474    22318489.197        2900.914  
      2260.238          47.000          39.000  
 128019774.397 6  99755744.417 6  24361356.725    24361373.361       -3300.309  
     -2571.676          40.000          38.000  
 24  1 10  3 18  0.8000000  0  7G08G24G18G23G10G32G15
 130701494.679 6 101845402.736 6  24871680.525    24871700.976        2900.504  
      2259.746          37.000          37.000  
 129622821.58125 101004888.135 6  24666401.860    24666424.210         341.598  
       265.945          30.000          38.000  
 114256250.629 7  89030909.157 7  21742242.994    21742257.795       -1755.441  
     -1367.844          43.000          43.000  
 110935284.707 7  86443136.788 7  21110283.621    21110298.189       -1760.195  
     -1371.441          44.000          45.000  
 109085040.386 8  85001398.149 7  20758194.318    20758210.833         145.539  
       113.238          48.000          45.000  
 117284063.370 7  91390265.760 6  22318415.281    22318434.056        2900.809  
      2260.367          47.000          39.000  
 128020104.365 6  99756001.599 6  24361419.414    24361436.378       -3300.074  
     -2571.750          39.000          38.000  
 24  1 10  3 18  0.9000000  0  7G08G24G18G23G10G32G15
 130701204.695 6 101845176.779 6  24871625.343    24871645.795        2900.113  
      2259.586          37.000          37.000  
 129622787.541 5 101004861.499 6  24666395.382    24666417.705         340.953  
       266.145          30.000          39.000  
 114256426.197 7  89031045.977 7  21742276.404    21742291.208       -1755.516  
     -1367.984          43.000          43.000  
 110935460.706 7  86443273.971 7  21110317.113    21110331.690       -1760.078  
     -1371.598          44.000          45.000  
 109085025.883 8  85001386.825 7  20758191.558    20758208.068         145.203  
       113.102          48.000          45.000  
 117283773.338 7  91390039.756 6  22318360.090    22318378.864        2900.574  
      2259.906          47.000          39.000  
 128020434.426 6  99756258.779 6  24361482.223    24361499.184       -3300.375  
     -2571.758          39.000          38.000  
 24  1 10  3 18  1.0000000  0  7G08G24G18G23G10G32G15
 130700914.729 6 101844950.773 6  24871569.891    24871590.391        2899.887  
      2259.934          37.000          37.000  
 129622753.297 4 101004834.992 6  24666388.842    24666411.623         341.812  
       265.605          29.000          39.000  
 114256601.744 7  89031182.747 7  21742309.739    21742324.835       -1755.453  
     -1367.895          43.000          44.000  
 110935636.729 7  86443411.071 7  21110351.148    21110365.367       -1760.172  
     -1371.516          44.000          45.000  
 109085011.353 8  85001375.500 7  20758188.840    20758205.068         145.250  
       113.125          48.000          45.000  
 117283483.272 7  91389813.715 6  22318304.947    22318324.115        2900.570  
      2260.242          47.000          39.000  
 128020764.422 6  99756515.920 6  24361544.558    24361562.020       -3300.199  
     -2571.234          39.000          38.000  
 24  1 10  3 18  1.1000000  0  7G08G24G18G23G10G32G15
 130700624.675 6 101844724.804 6  24871514.695    24871535.207        2900.133  
      2259.645          37.000          37.000  
 129622719.093 4 101004808.336 6  24666382.333    24666405.113         341.980  
       266.055          29.000          39.000  
 114256777.305 7  89031319.564 7  21742343.147    21742358.248       -1755.555  
     -1368.234          44.000          44.000  
 110935812.745 7  86443548.268 7  21110384.643    21110398.872       -1760.117  
     -1371.606          44.000          45.000  
 109084996.869 8  85001364.240 7  20758186.084    20758202.318         145.082  
       112.832          48.000          45.000  
 117283193.219 7  91389587.729 6  22318249.751    22318268.927        2900.570  
      2259.793          47.000          39.000  
 128021094.470 6  99756773.104 6  24361607.364    24361624.827       -3300.324  
     -2572.059          39.000          38.000  
 24  1 10  3 18  1.2000000  0  7G08G24G18G23G10G32G15
 130700334.751 6 101844498.853 6  24871459.353    24871480.457        2899.699  
      2259.484          37.000          37.000  
 129622685.037 4 101004781.707 6  24666375.861    24666399.009         341.133  
       266.172          29.000          39.000  
 114256952.831 7  89031456.378 7  21742377.228    21742392.346       -1755.301  
     -1367.922          44.000          44.000  
 110935988.768 7  86443685.420 7  21110417.748    21110432.178       -1760.316  
     -1371.824          44.000          45.000  
 109084982.369 8  85001352.917 7  20758183.520    20758199.264         144.980  
       113.020          48.000          45.000  
 117282903.184 7  91389361.714 6  22318194.411    22318213.810        2900.395  
      2259.852          47.000          39.000  
 128021424.521 6  99757030.267 6  24361669.983    24361687.324       -3300.395  
     -2571.340          39.000          38.000  
 24  1 10  3 18  1.3000000  0  7G08G24G18G23G10G32G15
 130700044.799 6 101844272.923 6  24871404.177    24871425.283        2899.613  
      2259.461          37.000          37.000  
 129622650.851 4 101004755.147 6  24666369.355    24666392.522         341.633  
       265.773          29.000          39.000  
 114257128.392 7  89031593.147 7  21742410.636    21742425.747       -1755.594  
     -1367.867          44.000          44.000  
 110936164.827 7  86443822.657 7  21110451.251    21110465.693       -1760.230  
     -1371.754          44.000          45.000  
 109084967.909 8  85001341.665 7  20758180.769    20758196.516         144.867  
       112.602          48.000          46.000  
 117282613.162 7  91389135.729 6  22318139.222    22318158.622        2900.328  
      2260.195          47.000          39.000  
 128021754.546 6  99757287.423 6  24361732.785    24361750.124       -3300.281  
     -2571.758          38.000          38.000  
 24  1 10  3 18  1.4000000  0  7G08G24G18G23G10G32G15
 130699754.847 6 101844047.016 6  24871348.751    24871370.223        2899.684  
      2259.141          37.000          37.000  
 129622616.845 5 101004728.559 6  24666362.626    24666385.849         340.703  
       265.777          31.000          39.000  
 114257303.967 7  89031729.973 7  21742443.977    21742458.927       -1755.547  
     -1367.977          44.000          44.000  
 110936340.861 7  86443959.772 7  21110484.734    21110498.928       -1760.531  
     -1371.641          44.000          45.000  
 109084953.435 8  85001330.388 7  20758177.928    20758194.051         144.684  
       112.707          48.000          45.000  
 117282323.148 7  91388909.743 6  22318084.081    22318103.153        2900.297  
      2259.840          47.000          39.000  
 128022084.594 6  99757544.617 6  24361795.481    24361813.051       -3300.488  
     -2571.602          38.000          38.000  
 24  1 10  3 18  1.5000000  0  7G08G24G18G23G10G32G15
 130699464.857 6 101843821.062 6  24871293.568    24871315.043        2899.629  
      2259.398          37.000          37.000  
 129622582.601 5 101004701.947 6  24666356.110    24666379.351         341.656  
       266.066          31.000          39.000  
 114257479.535 7  89031866.741 7  21742477.386    21742492.327       -1755.609  
     -1367.770          44.000          44.000  
 110936516.837 7  86444096.897 7  21110518.221    21110532.415       -1760.008  
     -1371.484          44.000          45.000  
 109084938.945 8  85001319.082 7  20758175.171    20758191.290         144.918  
       113.055          48.000          45.000  
 117282033.089 7  91388683.719 6  22318028.884    22318047.955        2900.453  
      2260.336          47.000          39.000  
 128022414.636 6  99757801.771 6  24361858.286    24361875.850       -3300.371  
     -2571.766          38.000          38.000  
 24  1 10  3 18  1.6000000  0  7G08G24G18G23G10G32G15
 130699174.952 6 101843595.096 6  24871238.330    24871259.735        2899.426  
      2259.578          37.000          37.000  
 129622548.483 5 101004675.341 6  24666349.992    24666372.955         341.496  
       266.082          31.000          38.000  
 114257655.012 7  89032003.503 7  21742510.857    21742525.710       -1755.266  
     -1367.660          44.000          43.000  
 110936692.856 7  86444234.077 7  21110551.904    21110565.877       -1760.047  
     -1371.402          44.000          45.000  
 109084924.400 8  85001307.745 7  20758172.372    20758188.428         145.203  
       113.324          48.000          45.000  
 117281742.996 7  91388457.680 6  22317973.939    22317992.684        2900.719  
      2260.262          47.000          39.000  
 128022744.652 6  99758058.918 6  24361921.086    24361938.898       -3300.273  
     -2571.199          38.000          38.000  
 24  1 10  3 18  1.7000000  0  7G08G24G18G23G10G32G15
 130698884.908 6 101843369.144 6  24871183.137    24871204.555        2900.020  
      2259.484          37.000          37.000  
 129622514.354 5 101004648.782 6  24666343.498    24666366.469         341.340  
       265.816          32.000          38.000  
 114257830.579 7  89032140.299 7  21742544.266    21742559.117       -1755.227  
     -1367.441          44.000          44.000  
 110936868.835 7  86444371.209 7  21110585.391    21110599.366       -1759.875  
     -1371.395          44.000          45.000  
 109084909.880 8  85001296.465 7  20758169.609    20758185.673         145.297  
       113.133          48.000          46.000  
 117281452.920 7  91388231.639 6  22317918.740    22317937.483        2900.840  
      2260.320          47.000          39.000  
 128023074.710 6  99758316.093 6  24361983.894    24362001.703       -3300.465  
     -2571.730          38.000          39.000  
 24  1 10  3 18  1.8000000  0  7G08G24G18G23G10G32G15
 130698594.962 6 101843143.168 6  24871128.134    24871149.346        2899.660  
      2259.750          37.000          37.000  
 129622480.249 5 101004622.148 6  24666337.570    24666359.316         341.145  
       266.504          32.000          38.000  
 114258006.101 7  89032277.045 7  21742577.674    21742592.629       -1755.344  
     -1368.055          44.000          43.000  
 110937044.850 7  86444508.373 7  21110618.917    21110633.449       -1760.074  
     -1371.562          44.000          45.000  
 109084895.377 8  85001285.143 7  20758166.849    20758183.057         145.078  
       113.016          48.000          46.000  
 117281162.863 7  91388005.625 6  22317863.630    22317881.967        2900.617  
      2260.164          47.000          39.000  
 128023404.767 6  99758573.259 6  24362046.569    24362064.334       -3300.430  
     -2571.609          38.000          39.000  
 24  1 10  3 18  1.9000000  0  7G08G24G18G23G10G32G15
 130698304.975 6 101842917.240 6  24871072.951    24871094.172        2899.703  
      2259.328          37.000          37.000  
 129622446.111 5 101004595.597 6  24666331.074    24666352.832         341.137  
       265.422          32.000          38.000  
 114258181.708 7  89032413.945 7  21742611.091    21742626.061       -1755.633  
     -1368.434          44.000          43.000  
 110937220.897 7  86444645.524 7  21110652.418    21110666.942       -1760.203  
     -1371.555          44.000          45.000  
 109084880.893 8  85001273.865 7  20758164.093    20758180.302         144.941  
       112.828          48.000          46.000  
 117280872.829 7  91387779.610 6  22317808.438    22317826.772        2900.414  
      2259.867          47.000          39.000  
 128023734.840 6  99758830.450 6  24362109.380    24362127.142       -3300.703  
     -2571.898          38.000          39.000  
 24  1 10  3 18  2.0000000  0  7G08G24G18G23G10G32G15
 130698015.054 6 101842691.309 6  24871017.906    24871039.036        2899.434  
      2259.297          37.000          37.000  
 129622412.148 5 101004569.077 6  24666324.775    24666346.551         340.598  
       265.117          33.000          38.000  
 114258357.287 7  89032550.746 7  21742644.448    21742658.954       -1755.910  
     -1368.320          44.000          43.000  
 110937396.959 7  86444782.705 7  21110685.796    21110700.693       -1760.520  
     -1371.824          44.000          45.000  
 109084866.424 8  85001262.577 7  20758161.207    20758177.428         144.695  
       112.855          48.000          46.000  
 117280582.808 7  91387553.635 6  22317752.991    22317771.571        2900.223  
      2259.902          47.000          39.000  
 128024064.880 6  99759087.679 6  24362172.489    24362190.265       -3300.566  
     -2572.246          38.000          39.000  
 24  1 10  3 18  2.1000000  0  7G08G24G18G23G10G32G15
 130697725.091 6 101842465.372 6  24870962.728    24870983.860        2899.586  
      2259.539          37.000          37.000  
 129622378.036 5 101004542.575 6  24666318.284    24666340.079         340.734  
       264.871          32.000          37.000  
 114258532.889 7  89032687.549 7  21742677.864    21742692.362       -1755.906  
     -1368.293          43.000          43.000  
 110937573.022 7  86444919.935 7  21110719.300    21110734.206       -1760.496  
     -1372.066          45.000          45.000  
 109084851.951 8  85001251.290 7  20758158.453    20758174.672         144.703  
       112.703          48.000          46.000  
 117280292.814 7  91387327.671 6  22317697.807    22317716.389        2900.148  
      2259.840          47.000          39.000  
 128024395.011 6  99759344.872 6  24362235.311    24362253.074       -3300.879  
     -2571.965          38.000          39.000  
 24  1 10  3 18  2.2000000  0  7G08G24G18G23G10G32G15
 130697435.138 6 101842239.433 6  24870907.567    24870928.809        2899.555  
      2259.293          37.000          37.000  
 129622344.025 5 101004515.995 6  24666311.781    24666333.713         340.371  
       265.492          32.000          37.000  
 114258708.528 7  89032824.424 7  21742711.615    21742725.234       -1756.258  
     -1368.848          43.000          43.000  
 110937749.087 7  86445057.131 7  21110752.851    21110767.406       -1760.625  
     -1372.043          44.000          45.000  
 109084837.503 8  85001240.073 7  20758155.555    20758172.136         144.691  
       112.520          48.000          46.000  
 117280002.816 7  91387101.729 6  22317642.716    22317661.125        2900.094  
      2259.324          47.000          39.000  
 128024725.091 6  99759602.108 6  24362297.928    24362315.839       -3300.914  
     -2572.422          37.000          38.000  
 24  1 10  3 18  2.3000000  0  7G08G24G18G23G10G32G15
 130697145.228 6 101842013.486 6  24870852.399    24870873.630        2899.348  
      2259.445          37.000          37.000  
 129622310.074 5 101004489.516 6  24666305.320    24666327.246         339.770  
       264.949          31.000          37.000  
 114258884.186 7  89032961.337 7  21742745.042    21742758.670       -1756.504  
     -1369.023          43.000          43.000  
 110937925.201 7  86445194.352 7  21110786.364    21110800.917       -1761.000  
     -1372.125          44.000          45.000  
 109084823.055 8  85001228.778 7  20758152.805    20758169.377         144.500  
       112.543          48.000          46.000  
 117279712.840 7  91386875.734 6  22317587.536    22317605.935        2899.832  
      2259.730          47.000          39.000  
 128025055.294 6  99759859.350 6  24362360.763    24362378.660       -3301.430  
     -2572.422          37.000          39.000  
 24  1 10  3 18  2.4000000  0  7G08G24G18G23G10G32G15
 130696855.222 6 101841787.584 6  24870797.236    24870818.314        2899.609  
      2259.273          37.000          37.000  
 129622276.11335 101004463.036 6  24666298.639    24666320.147         340.309  
       264.934          31.000          37.000  
 114259059.885 7  89033098.253 7  21742777.711    21742792.426       -1756.660  
     -1368.934          43.000          43.000  
 110938101.319 7  86445331.546 7  21110819.402    21110834.577       -1761.027  
     -1372.156          44.000          45.000  
 109084808.629 8  85001217.557 7  20758149.935    20758166.520         144.340  
       112.496          48.000          46.000  
 117279422.888 7  91386649.807 6  22317532.453    22317550.628        2899.703  
      2259.387          47.000          39.000  
 128025385.460 6  99760116.641 6  24362423.412    24362441.657       -3301.543  
     -2572.828          38.000          39.000  
 24  1 10  3 18  2.5000000  0  7G08G24G18G23G10G32G15
 130696565.267 6 101841561.627 6  24870742.060    24870763.133        2899.629  
      2259.434          37.000          37.000  
 129622242.07025 101004436.557 6  24666292.161    24666313.680         339.805  
       264.766          30.000          37.000  
 114259235.586 7  89033235.119 7  21742811.145    21742825.850       -1756.926  
     -1368.707          42.000          43.000  
 110938277.412 7  86445468.787 7  21110852.911    21110868.093       -1761.000  
     -1372.602          45.000          45.000  
 109084794.200 8  85001206.292 7  20758147.190    20758163.769         144.371  
       112.453          48.000          46.000  
 117279132.939 7  91386423.864 6  22317477.278    22317495.451        2899.609  
      2259.430          47.000          39.000  
 128025715.520 6  99760373.905 6  24362486.220    24362504.484       -3301.074  
     -2572.715          38.000          38.000  
 24  1 10  3 18  2.6000000  0  7G08G24G18G23G10G32G15
 130696275.318 6 101841335.683 6  24870687.111    24870707.963        2899.590  
      2259.289          37.000          37.000  
 129622208.13435 101004410.076 6  24666285.125    24666306.893         340.152  
       264.602          30.000          37.000  
 114259411.251 7  89033371.973 7  21742844.073    21742860.053       -1756.906  
     -1369.039          42.000          43.000  
 110938453.559 7  86445606.065 7  21110886.517    21110901.641       -1761.121  
     -1372.238          44.000          45.000  
 109084779.766 8  85001195.056 7  20758144.701    20758160.908         144.348  
       112.438          48.000          46.000  
 117278842.977 7  91386197.918 6  22317421.670    22317439.812        2899.637  
      2259.277          47.000          39.000  
 128026045.644 6  99760631.099 6  24362549.447    24362567.153       -3301.164  
     -2572.121          39.000          38.000  
 24  1 10  3 18  2.7000000  0  7G08G24G18G23G10G32G15
 130695985.394 6 101841109.721 6  24870631.940    24870652.781        2899.492  
      2259.449          37.000          37.000  
 129622174.11125 101004383.661 6  24666278.650    24666300.442         339.660  
       264.449          30.000          37.000  
 114259586.977 7  89033508.947 7  21742877.513    21742893.503       -1756.863  
     -1369.281          43.000          43.000  
 110938629.644 7  86445743.245 7  21110920.025    21110935.142       -1761.027  
     -1372.191          44.000          45.000  
 109084765.299 8  85001183.781 7  20758141.948    20758158.154         144.504  
       112.652          48.000          46.000  
 117278553.022 7  91385971.997 6  22317366.493    22317384.639        2899.684  
      2259.602          47.000          39.000  
 128026375.803 6  99760888.366 6  24362612.274    24362629.980       -3301.371  
     -2572.793          39.000          38.000  
 24  1 10  3 18  2.8000000  0  7G08G24G18G23G10G32G15
 130695695.363 6 101840883.792 6  24870577.007    24870597.302        2899.812  
      2259.309          37.000          37.000  
 129622140.32425 101004357.206 6  24666271.908    24666293.927         339.121  
       264.312          31.000          37.000  
 114259762.686 7  89033645.870 7  21742911.293    21742926.402       -1756.984  
     -1369.234          43.000          43.000  
 110938805.788 7  86445880.502 7  21110953.786    21110968.146       -1761.098  
     -1372.242          44.000          45.000  
 109084750.863 8  85001172.555 7  20758139.388    20758155.147         144.582  
       112.688          48.000          46.000  
 117278263.044 7  91385746.025 6  22317311.500    22317330.252        2899.555  
      2258.961          47.000          39.000  
 128026705.988 6  99761145.665 6  24362675.419    24362692.268       -3301.730  
     -2572.695          40.000          37.000  
 24  1 10  3 18  2.8000000  5  0
 24  1 10  3 18  2.8000000  5  0
 24  1 10  3 18  2.9000000  0  7G08G24G18G23G10G32G15
 130695405.438 6 101840657.867 6  24870521.836    24870542.129        2899.559  
      2259.195          37.000          37.000  
 129622106.35825 101004330.764 6  24666265.445    24666287.469         339.375  
       264.406          30.000          37.000  
 114259938.425 7  89033782.749 7  21742944.735    21742959.829       -1757.375  
     -1369.031          44.000          43.000  
 110938981.863 7  86446017.701 7  21110987.292    21111001.651       -1761.148  
     -1372.180          44.000          45.000  
 109084736.410 8  85001161.270 7  20758136.638    20758152.391         144.414  
       112.566          48.000          46.000  
 117277973.089 7  91385520.102 6  22317256.323    22317275.079        2899.602  
      2259.566          47.000          39.000  
 128027036.158 6  99761402.946 6  24362738.248    24362755.099       -3301.578  
     -2572.785          40.000          37.000  
 24  1 10  3 18  3.0000000  0  7G08G24G18G23G10G32G15
 130695115.519 6 101840431.908 6  24870467.064    24870487.393        2899.316  
      2259.449          37.000          37.000  
 129622072.43325 101004304.384 6  24666258.958    24666281.277         339.090  
       263.984          30.000          37.000  
 114260114.132 7  89033919.689 7  21742979.132    21742992.701       -1757.133  
     -1369.520          44.000          43.000  
 110939157.961 7  86446154.933 7  21111020.927    21111034.837       -1760.941  
     -1372.258          45.000          45.000  
 109084721.950 8  85001150.005 7  20758134.081    20758149.609         144.531  
       112.668          48.000          46.000  
 117277683.134 7  91385294.181 6  22317201.459    22317219.868        2899.625  
      2259.430          47.000          39.000  
 128027366.340 6  99761660.208 6  24362800.916    24362817.456       -3301.785  
     -2572.867          39.000          37.000  
 24  1 10  3 18  3.1000000  0  7G08G24G18G23G10G32G15
 130694825.536 6 101840205.991 6  24870411.883    24870432.222        2899.559  
      2259.098          37.000          37.000  
 129622038.61025 101004277.936 6  24666252.522    24666274.818         338.793  
       264.672          30.000          37.000  
 114260289.858 7  89034056.657 7  21743012.572    21743026.150       -1757.188  
     -1369.371          44.000          44.000  
 110939334.082 7  86446292.190 7  21111054.442    21111068.356       -1761.133  
     -1372.344          45.000          45.000  
 109084707.510 8  85001138.763 7  20758131.334    20758146.864         144.547  
       112.465          48.000          45.000  
 117277393.183 7  91385068.245 6  22317146.283    22317164.692        2899.551  
      2259.355          47.000          39.000  
 128027696.578 6  99761917.506 6  24362863.758    24362880.291       -3302.023  
     -2572.906          39.000          37.000  
 24  1 10  3 18  3.2000000  0  7G08G24G18G23G10G32G15
 130694535.604 6 101839980.096 6  24870356.437    24870377.181        2899.473  
      2259.254          37.000          37.000  
 129622004.71134 101004251.580 6  24666246.055    24666268.077         339.309  
       263.605          28.000          37.000  
 114260465.652 7  89034193.618 7  21743046.157    21743060.355       -1757.414  
     -1369.449          44.000          44.000  
 110939510.276 7  86446429.453 7  21111088.260    21111102.010       -1761.562  
     -1372.598          44.000          45.000  
 109084693.092 8  85001127.520 7  20758128.637    20758144.430         144.215  
       112.293          48.000          45.000  
 117277103.258 7  91384842.270 6  22317090.902    22317109.483        2899.289  
      2259.348          47.000          39.000  
 128028026.763 6  99762174.846 6  24362926.262    24362943.245       -3301.980  
     -2573.340          39.000          37.000  
 24  1 10  3 18  3.3000000  0  7G08G24G18G23G10G32G15
 130694245.673 6 101839754.152 6  24870301.265    24870322.003        2899.414  
      2258.879          38.000          37.000  
 129621970.77824 101004225.220 6  24666239.598    24666261.640         338.949  
       263.625          27.000          37.000  
 114260641.420 7  89034330.553 7  21743079.604    21743093.796       -1757.828  
     -1369.738          44.000          43.000  
 110939686.459 7  86446566.721 7  21111121.786    21111135.532       -1761.809  
     -1372.863          44.000          45.000  
 109084678.707 8  85001116.308 7  20758125.899    20758141.692         144.059  
       112.109          48.000          46.000  
 117276813.361 7  91384616.422 6  22317035.736    22317054.329        2899.203  
      2258.863          47.000          39.000  
 128028357.005 6  99762432.181 6  24362989.105    24363006.089       -3302.309  
     -2573.320          39.000          38.000  
 24  1 10  3 18  3.4000000  0  7G08G24G18G23G10G32G15
 130693955.768 6 101839528.273 6  24870245.785    24870266.474        2899.305  
      2259.266          38.000          37.000  
 129621936.90924 101004198.795 6  24666233.192    24666255.359         339.012  
       264.125          28.000          37.000  
 114260817.211 7  89034467.517 7  21743112.939    21743127.643       -1757.930  
     -1369.754          44.000          43.000  
 110939862.585 7  86446703.987 7  21111154.989    21111169.531       -1761.520  
     -1372.895          44.000          45.000  
 109084664.292 8  85001105.074 7  20758122.883    20758138.941         143.984  
       112.176          48.000          45.000  
 117276523.422 7  91384390.501 6  22316980.352    22316998.985        2899.207  
      2258.945          47.000          39.000  
 128028687.232 6  99762689.499 6  24363052.351    24363069.077       -3302.211  
     -2573.316          39.000          38.000  
 24  1 10  3 18  3.5000000  0  7G08G24G18G23G10G32G15
 130693665.871 6 101839302.299 6  24870190.620    24870211.288        2899.125  
      2259.418          38.000          37.000  
 129621903.06224 101004172.385 6  24666226.751    24666248.909         338.605  
       264.031          29.000          37.000  
 114260992.919 7  89034604.473 7  21743146.375    21743161.089       -1757.449  
     -1369.461          44.000          43.000  
 110940038.731 7  86446841.255 7  21111188.509    21111203.053       -1761.395  
     -1372.391          44.000          45.000  
 109084649.842 8  85001093.811 7  20758120.133    20758136.191         144.367  
       112.641          48.000          45.000  
 117276233.478 7  91384164.532 6  22316925.177    22316943.800        2899.438  
      2259.812          47.000          39.000  
 128029017.466 6  99762946.804 6  24363115.193    24363131.914       -3302.289  
     -2573.125          40.000          38.000  
 24  1 10  3 18  3.6000000  0  7G08G24G18G23G10G32G15
 130693375.900 6 101839076.424 6  24870135.448    24870155.909        2899.293  
      2258.926          37.000          37.000  
 129621869.15124 101004145.994 6  24666220.603    24666242.089         338.961  
       263.547          29.000          37.000  
 114261168.686 7  89034741.453 7  21743179.424    21743194.502       -1757.363  
     -1369.371          43.000          43.000  
 110940214.868 7  86446978.490 7  21111221.901    21111236.708       -1761.348  
     -1372.461          44.000          45.000  
 109084635.423 8  85001082.590 7  20758117.553    20758133.380         144.312  
       112.375          48.000          45.000  
 117275943.530 7  91383938.646 6  22316870.111    22316888.879        2899.430  
      2259.383          47.000          39.000  
 128029347.656 6  99763204.127 6  24363178.401    24363195.012       -3302.047  
     -2573.203          40.000          38.000  
 24  1 10  3 18  3.7000000  0  7G08G24G18G23G10G32G15
 130693086.027 6 101838850.540 6  24870080.287    24870100.746        2899.074  
      2258.918          38.000          37.000  
 129621835.43224 101004119.690 6  24666214.186    24666235.665         337.887  
       263.543          29.000          37.000  
 114261344.456 7  89034878.419 7  21743212.872    21743227.950       -1757.562  
     -1369.688          43.000          43.000  
 110940391.034 7  86447115.746 7  21111255.425    21111270.227       -1761.598  
     -1372.629          45.000          45.000  
 109084621.009 8  85001071.340 7  20758114.810    20758130.633         144.176  
       112.305          48.000          45.000  
 117275653.629 7  91383712.725 6  22316814.945    22316833.707        2899.289  
      2258.828          47.000          39.000  
 128029677.919 6  99763461.437 6  24363241.248    24363257.850       -3302.504  
     -2572.957          39.000          38.000  
 24  1 10  3 18  3.8000000  0  7G08G24G18G23G10G32G15
 130692796.153 6 101838624.657 6  24870024.993    24870045.708        2898.859  
      2258.727          37.000          37.000  
 129621801.54234 101004093.333 6  24666207.573    24666229.338         338.492  
       263.375          29.000          37.000  
 114261520.260 7  89035015.353 7  21743246.076    21743260.734       -1758.129  
     -1370.012          43.000          43.000  
 110940567.256 7  86447253.082 7  21111289.521    21111304.008       -1761.750  
     -1372.957          45.000          45.000  
 109084606.646 8  85001060.161 7  20758111.913    20758128.020         143.918  
       111.977          48.000          45.000  
 117275363.741 7  91383486.835 6  22316759.781    22316778.683        2899.023  
      2259.008          47.000          39.000  
 128030008.232 6  99763718.808 6  24363304.479    24363321.203       -3302.730  
     -2573.785          39.000          38.000  
 24  1 10  3 18  3.9000000  0  7G08G24G18G23G10G32G15
 130692506.319 6 101838398.800 6  24869969.839    24869990.551        2898.625  
      2258.664          37.000          37.000  
 129621767.77024 101004066.994 6  24666201.146    24666222.906         338.254  
       263.383          29.000          38.000  
 114261696.070 7  89035152.388 7  21743279.532    21743294.200       -1757.914  
     -1370.168          43.000          43.000  
 110940743.444 7  86447390.351 7  21111323.049    21111337.531       -1762.055  
     -1373.172          45.000          45.000  
 109084592.277 8  85001048.954 7  20758109.179    20758125.283         143.691  
       111.801          48.000          45.000  
 117275073.844 7  91383260.961 6  22316704.615    22316723.522        2898.863  
      2258.656          47.000          39.000  
 128030338.521 6  99763976.176 6  24363367.331    24363384.055       -3302.828  
     -2573.773          39.000          38.000  
 24  1 10  3 18  4.0000000  0  7G08G24G18G23G10G32G15
 130692216.506 6 101838172.989 6  24869914.838    24869935.187        2898.449  
      2257.988          37.000          37.000  
 129621733.92424 101004040.691 6  24666195.206    24666217.154         338.316  
       263.410          29.000          38.000  
 114261871.927 7  89035289.420 7  21743312.660    21743327.305       -1758.238  
     -1370.016          43.000          43.000  
 110940919.635 7  86447527.660 7  21111356.639    21111370.930       -1761.980  
     -1373.094          45.000          45.000  
 109084577.916 8  85001037.759 7  20758106.415    20758122.463         143.668  
       111.922          48.000          45.000  
 117274783.971 7  91383035.066 6  22316649.509    22316668.520        2898.809  
      2258.719          47.000          39.000  
 128030668.770 6  99764233.525 6  24363430.230    24363446.371       -3302.688  
     -2573.504          38.000          38.000  
 24  1 10  3 18  4.1000000  0  7G08G24G18G23G10G32G15
 130691926.609 6 101837947.084 6  24869859.673    24869880.019        2898.547  
      2259.125          37.000          36.000  
 129621700.14624 101004014.370 6  24666188.778    24666210.726         338.070  
       263.297          29.000          38.000  
 114262047.716 7  89035426.348 7  21743346.112    21743360.744       -1758.211  
     -1369.766          44.000          43.000  
 110941095.876 7  86447664.969 7  21111390.177    21111404.462       -1762.152  
     -1372.906          45.000          45.000  
 109084563.569 8  85001026.598 7  20758103.685    20758119.738         143.602  
       111.805          48.000          45.000  
 117274494.113 7  91382809.216 6  22316594.351    22316613.365        2898.730  
      2258.797          47.000          39.000  
 128030999.015 6  99764490.893 6  24363493.074    24363509.222       -3302.543  
     -2573.633          38.000          38.000  
 24  1 10  3 18  4.2000000  0  7G08G24G18G23G10G32G15
 130691636.757 6 101837721.243 6  24869804.617    24869824.655        2898.629  
      2258.539          37.000          36.000  
 129621666.37224 101003988.005 6  24666182.328    24666205.014         337.871  
       263.293          29.000          39.000  
 114262223.557 7  89035563.430 7  21743379.628    21743394.229       -1758.023  
     -1370.363          43.000          43.000  
 110941272.067 7  86447802.259 7  21111423.798    21111437.865       -1762.062  
     -1373.078          45.000          45.000  
 109084549.219 8  85001015.425 7  20758100.829    20758116.642         143.488  
       111.762          48.000          45.000  
 117274204.252 7  91382583.337 6  22316539.005    22316558.274        2898.625  
      2258.320          47.000          39.000  
 128031329.285 6  99764748.260 6  24363555.305    24363571.855       -3302.555  
     -2573.562          37.000          38.000  
 24  1 10  3 18  4.3000000  0  7G08G24G18G23G10G32G15
 130691346.902 6 101837495.426 6  24869749.460    24869769.508        2898.578  
      2258.395          37.000          36.000  
 129621632.58225 101003961.689 6  24666175.898    24666198.588         337.863  
       263.227          30.000          39.000  
 114262399.424 7  89035700.482 7  21743413.094    21743427.698       -1758.305  
     -1370.207          43.000          43.000  
 110941448.305 7  86447939.617 7  21111457.335    21111471.409       -1762.062  
     -1373.160          44.000          45.000  
 109084534.896 8  85001004.240 7  20758098.103    20758113.910         143.348  
       111.785          48.000          45.000  
 117273914.413 7  91382357.479 6  22316483.850    22316503.117        2898.477  
      2258.633          47.000          39.000  
 128031659.611 6  99765005.614 6  24363618.164    24363634.704       -3302.902  
     -2573.324          38.000          38.000  
 24  1 10  3 18  4.4000000  0  7G08G24G18G23G10G32G15
 130691057.087 6 101837269.553 6  24869693.685    24869714.152        2898.449  
      2258.523          37.000          37.000  
 129621598.80525 101003935.365 6  24666169.532    24666192.511         337.637  
       263.316          30.000          38.000  
 114262575.273 7  89035837.396 7  21743447.151    21743461.165       -1758.793  
     -1370.066          44.000          43.000  
 110941624.526 7  86448076.935 7  21111490.455    21111505.162       -1762.215  
     -1373.141          44.000          45.000  
 109084520.578 8  85000993.078 7  20758095.465    20758111.036         143.297  
       111.414          48.000          45.000  
 117273624.605 7  91382131.686 6  22316428.678    22316447.765        2898.273  
      2258.121          47.000          39.000  
 128031989.874 6  99765262.968 6  24363680.370    24363697.755       -3302.805  
     -2573.660          38.000          38.000  
 24  1 10  3 18  4.5000000  0  7G08G24G18G23G10G32G15
 130690767.258 6 101837043.658 6  24869638.532    24869658.987        2898.340  
      2258.805          37.000          37.000  
 129621565.14225 101003909.025 6  24666163.127    24666186.078         337.426  
       263.309          30.000          38.000  
 114262751.093 7  89035974.501 7  21743480.609    21743494.648       -1758.312  
     -1370.609          44.000          43.000  
 110941800.753 7  86448214.224 7  21111523.990    21111538.689       -1762.266  
     -1373.156          44.000          45.000  
 109084506.277 8  85000981.967 7  20758092.743    20758108.323         143.176  
       111.535          48.000          45.000  
 117273334.812 7  91381905.883 6  22316373.532    22316392.622        2898.121  
      2258.410          47.000          39.000  
 128032320.129 6  99765520.300 6  24363743.215    24363760.599       -3302.574  
     -2573.324          37.000          38.000  
 24  1 10  3 18  4.6000000  0  7G08G24G18G23G10G32G15
 130690477.397 6 101836817.812 6  24869583.256    24869604.247        2898.527  
      2258.816          37.000          37.000  
 129621531.43225 101003882.709 6  24666156.884    24666179.230         337.227  
       263.430          31.000          38.000  
 114262926.992 7  89036111.565 7  21743514.573    21743528.073       -1758.602  
     -1370.387          44.000          43.000  
 110941976.988 7  86448351.554 7  21111556.737    21111572.196       -1762.344  
     -1373.125          44.000          45.000  
 109084491.970 8  85000970.800 7  20758089.661    20758105.650         143.086  
       111.422          48.000          45.000  
 117273045.022 7  91381680.034 6  22316318.168    22316337.748        2897.953  
      2258.168          47.000          39.000  
 128032650.328 6  99765777.675 6  24363805.128    24363823.390       -3302.305  
     -2573.598          36.000          38.000  
 24  1 10  3 18  4.7000000  0  7G08G24G18G23G10G32G15
 130690187.511 6 101836591.941 6  24869528.093    24869549.087        2898.516  
      2258.582          37.000          37.000  
 129621497.53525 101003856.448 6  24666150.433    24666172.816         337.879  
       262.598          30.000          38.000  
 114263102.951 7  89036248.644 7  21743548.057    21743561.550       -1759.074  
     -1370.754          44.000          43.000  
 110942153.199 7  86448488.890 7  21111590.269    21111605.735       -1762.203  
     -1373.539          44.000          45.000  
 109084477.686 8  85000959.666 7  20758086.943    20758102.931         142.965  
       111.309          48.000          45.000  
 117272755.278 7  91381454.265 6  22316263.032    22316282.613        2897.668  
      2257.664          47.000          39.000  
 128032980.673 6  99766035.023 6  24363867.991    24363886.237       -3302.980  
     -2573.508          36.000          39.000  
 24  1 10  3 18  4.8000000  0  7G08G24G18G23G10G32G15
 130689897.646 6 101836366.117 6  24869472.824    24869493.938        2898.719  
      2258.594          37.000          37.000  
 129621463.92325 101003830.185 6  24666143.990    24666165.606         337.062  
       262.734          30.000          38.000  
 114263278.785 7  89036385.667 7  21743581.470    21743595.317       -1758.828  
     -1370.621          44.000          43.000  
 110942329.493 7  86448626.265 7  21111624.075    21111639.072       -1762.547  
     -1373.293          44.000          45.000  
 109084463.399 8  85000948.540 7  20758084.435    20758100.691         142.887  
       111.227          48.000          45.000  
 117272465.534 7  91381228.516 6  22316208.208    22316227.413        2897.570  
      2257.805          47.000          39.000  
 128033310.971 6  99766292.363 6  24363930.188    24363949.457       -3302.801  
     -2573.570          36.000          39.000  
 24  1 10  3 18  4.9000000  0  7G08G24G18G23G10G32G15
 130689607.841 6 101836140.254 6  24869417.676    24869438.780        2898.316  
      2258.410          37.000          37.000  
 129621430.18524 101003803.921 6  24666137.570    24666159.192         337.383  
       262.777          28.000          39.000  
 114263454.770 7  89036522.782 7  21743614.959    21743628.802       -1759.383  
     -1371.039          44.000          43.000  
 110942505.757 7  86448763.586 7  21111657.617    21111672.607       -1762.590  
     -1373.586          44.000          45.000  
 109084449.140 8  85000937.428 7  20758081.722    20758097.977         142.699  
       111.133          48.000          45.000  
 117272175.832 7  91381002.773 6  22316153.080    22316172.284        2897.246  
      2257.211          47.000          39.000  
 128033641.285 6  99766549.764 6  24363993.045    24364012.317       -3303.098  
     -2573.984          36.000          39.000  
 24  1 10  3 18  5.0000000  0  7G08G24G18G23G10G32G15
 130689318.020 6 101835914.410 6  24869362.775    24869383.096        2898.340  
      2258.543          37.000          37.000  
 129621396.47024 101003777.620 6  24666131.131    24666152.949         337.480  
       262.789          28.000          38.000  
 114263630.670 7  89036659.864 7  21743648.369    21743662.825       -1759.090  
     -1370.641          44.000          43.000  
 110942682.028 7  86448900.921 7  21111691.121    21111706.013       -1762.785  
     -1373.328          44.000          45.000  
 109084434.850 8  85000926.304 7  20758079.307    20758094.909         142.797  
       111.355          48.000          45.000  
 117271886.104 7  91380777.005 6  22316098.243    22316117.180        2897.254  
      2257.723          47.000          39.000  
 128033971.592 6  99766807.147 6  24364056.135    24364075.813       -3303.012  
     -2573.664          36.000          38.000  
 24  1 10  3 18  5.1000000  0  7G08G24G18G23G10G32G15
 130689028.104 6 101835688.510 6  24869307.605    24869327.928        2898.711  
      2258.730          37.000          37.000  
 129621362.63134 101003751.366 6  24666124.707    24666146.537         337.457  
       262.512          27.000          38.000  
 114263806.590 7  89036796.933 7  21743681.846    21743696.299       -1759.047  
     -1370.754          43.000          43.000  
 110942858.257 7  86449038.269 7  21111724.656    21111739.555       -1762.336  
     -1373.391          44.000          45.000  
 109084420.546 8  85000915.139 7  20758076.586    20758092.182         142.953  
       111.383          48.000          45.000  
 117271596.371 7  91380551.227 6  22316043.109    22316062.043        2897.367  
      2257.758          47.000          39.000  
 128034301.885 6  99767064.488 6  24364118.987    24364138.658       -3302.977  
     -2573.539          38.000          38.000  
 24  1 10  3 18  5.2000000  0  7G08G24G18G23G10G32G15
 130688738.283 6 101835462.680 6  24869252.439    24869273.052        2898.531  
      2258.543          37.000          37.000  
 129621328.95324 101003725.077 6  24666117.767    24666140.156         337.391  
       262.574          28.000          38.000  
 114263982.479 7  89036933.984 7  21743714.644    21743729.549       -1759.184  
     -1370.672          43.000          43.000  
 110943034.497 7  86449175.595 7  21111758.521    21111772.818       -1762.422  
     -1373.336          44.000          45.000  
 109084406.253 8  85000904.017 7  20758073.709    20758089.552         142.988  
       111.281          48.000          45.000  
 117271306.632 7  91380325.479 6  22315988.122    22316006.593        2897.352  
      2257.371          47.000          39.000  
 128034632.163 6  99767321.896 6  24364182.415    24364201.418       -3302.859  
     -2573.996          38.000          38.000  
 24  1 10  3 18  5.3000000  0  7G08G24G18G23G10G32G15
 130688448.444 6 101835236.835 6  24869197.284    24869217.898        2898.453  
      2258.453          37.000          37.000  
 129621295.33224 101003698.883 6  24666111.369    24666133.759         336.656  
       262.176          29.000          38.000  
 114264158.441 7  89037071.128 7  21743748.129    21743763.041       -1759.316  
     -1371.219          43.000          43.000  
 110943210.781 7  86449312.960 7  21111792.067    21111806.364       -1762.609  
     -1373.426          44.000          45.000  
 109084391.978 8  85000892.893 7  20758070.993    20758086.835         142.848  
       111.262          48.000          45.000  
 117271016.902 7  91380099.720 6  22315932.988    22315951.460        2897.348  
      2257.859          47.000          39.000  
 128034962.489 6  99767579.280 6  24364245.274    24364264.274       -3303.035  
     -2573.766          39.000          38.000  
 24  1 10  3 18  5.4000000  0  7G08G24G18G23G10G32G15
 130688158.646 6 101835010.985 6  24869141.684    24869162.532        2898.258  
      2258.629          37.000          37.000  
 129621261.68724 101003672.609 6  24666105.053    24666127.484         336.961  
       262.648          28.000          38.000  
 114264334.365 7  89037208.218 7  21743781.106    21743796.864       -1759.270  
     -1371.035          43.000          43.000  
 110943387.033 7  86449450.318 7  21111825.951    21111840.095       -1762.684  
     -1373.691          44.000          45.000  
 109084377.678 8  85000881.738 7  20758068.115    20758084.267         142.914  
       111.309          48.000          45.000  
 117270727.159 7  91379873.915 6  22315877.672    22315896.527        2897.410  
      2257.871          47.000          39.000  
 128035292.831 6  99767836.688 6  24364308.355    24364326.933       -3303.164  
     -2574.008          38.000          38.000  
 24  1 10  3 18  5.5000000  0  7G08G24G18G23G10G32G15
 130687868.778 6 101834785.120 6  24869086.524    24869107.374        2898.402  
      2258.562          37.000          37.000  
 129621227.92225 101003646.376 6  24666098.628    24666121.077         336.984  
       262.223          30.000          38.000  
 114264510.334 7  89037345.298 7  21743814.592    21743830.340       -1759.516  
     -1370.910          43.000          43.000  
 110943563.296 7  86449587.655 7  21111859.492    21111873.635       -1762.566  
     -1373.270          44.000          45.000  
 109084363.386 8  85000870.615 7  20758065.396    20758081.551         142.938  
       111.363          48.000          45.000  
 117270437.404 7  91379648.169 6  22315822.533    22315841.398        2897.504  
      2257.699          47.000          39.000  
 128035623.106 6  99768094.090 6  24364371.204    24364389.793       -3303.109  
     -2573.930          37.000          38.000  
 24  1 10  3 18  5.6000000  0  7G08G24G18G23G10G32G15
 130687578.952 6 101834559.345 6  24869031.802    24869051.823        2898.344  
      2258.047          37.000          37.000  
 129621194.39825 101003620.159 6  24666092.405    24666114.550         336.141  
       262.105          30.000          38.000  
 114264686.278 7  89037482.372 7  21743848.495    21743863.432       -1759.574  
     -1371.098          44.000          43.000  
 110943739.590 7  86449725.007 7  21111892.837    21111907.263       -1762.828  
     -1373.594          44.000          45.000  
 109084349.132 8  85000859.483 7  20758062.722    20758078.864         142.766  
       111.199          48.000          45.000  
 117270147.671 7  91379422.391 6  22315767.352    22315786.385        2897.418  
      2257.762          47.000          39.000  
 128035953.496 6  99768351.513 6  24364434.091    24364452.447       -3303.547  
     -2574.164          36.000          38.000  
 24  1 10  3 18  5.7000000  0  7G08G24G18G23G10G32G15
 130687289.132 6 101834333.476 6  24868976.651    24868996.664        2898.293  
      2258.559          37.000          37.000  
 129621160.66325 101003593.963 6  24666085.985    24666108.152         336.918  
       262.078          30.000          38.000  
 114264862.243 7  89037619.545 7  21743881.980    21743896.931       -1759.441  
     -1371.231          44.000          43.000  
 110943915.880 7  86449862.389 7  21111926.384    21111940.813       -1762.887  
     -1373.738          44.000          45.000  
 109084334.846 8  85000848.378 7  20758060.004    20758076.152         142.816  
       111.195          48.000          45.000  
 117269857.903 7  91379196.575 6  22315712.211    22315731.239        2897.570  
      2257.711          47.000          39.000  
 128036283.852 6  99768608.985 6  24364496.956    24364515.325       -3303.570  
     -2574.410          36.000          38.000  
 24  1 10  3 18  5.8000000  0  7G08G24G18G23G10G32G15
 130686999.330 6 101834107.717 6  24868921.629    24868941.593        2898.125  
      2257.641          38.000          37.000  
 129621127.08025 101003567.706 6  24666080.204    24666101.584         336.195  
       262.215          31.000          38.000  
 114265038.188 7  89037756.651 7  21743915.484    21743930.547       -1759.531  
     -1371.129          44.000          43.000  
 110944092.211 7  86449999.810 7  21111959.806    21111974.271       -1763.023  
     -1373.973          43.000          45.000  
 109084320.615 8  85000837.270 7  20758057.014    20758073.400         142.527  
       111.004          48.000          45.000  
 117269568.175 7  91378970.848 6  22315656.953    22315675.965        2897.418  
      2257.617          47.000          39.000  
 128036614.271 6  99768866.381 6  24364559.895    24364578.480       -3303.938  
     -2574.117          37.000          38.000  
 24  1 10  3 18  5.9000000  0  7G08G24G18G23G10G32G15
 130686709.587 6 101833881.857 6  24868866.492    24868886.436        2897.652  
      2258.281          37.000          37.000  
 129621093.47925 101003541.582 6  24666073.810    24666095.204         335.980  
       261.543          31.000          38.000  
 114265214.246 7  89037893.822 7  21743948.987    21743964.045       -1759.977  
     -1371.723          44.000          43.000  
 110944268.594 7  86450137.252 7  21111993.370    21112007.836       -1763.562  
     -1374.453          44.000          45.000  
 109084306.438 8  85000826.252 7  20758054.317    20758070.709         142.082  
       110.258          48.000          45.000  
 117269278.483 7  91378745.099 6  22315601.826    22315620.835        2897.062  
      2257.504          47.000          39.000  
 128036944.658 6  99769123.837 6  24364622.765    24364641.354       -3303.855  
     -2574.512          37.000          39.000  
 24  1 10  3 18  6.0000000  0  7G08G24G18G23G10G32G15
 130686419.913 6 101833656.111 6  24868811.143    24868831.807        2897.301  
