     2.11           OBSERVATION DATA    M (MIXED)           RINEX VERSION / TYPE
GPP.DLL V3.2.21                         18 - MAR - 24 07:43 PGM / RUN BY / DATE 
                                                            MARKER NAME         
                                                            MARKER NUMBER       
                                                            OBSERVER / AGENCY   
6028C00128          APX-15v3 AV         5.50                REC # / TYPE / VERS 
                    E                                       ANT # / TYPE        
 -4668078.5841  2554565.5762 -3504580.7464                  APPROX POSITION XYZ 
        0.0000       -0.0000       -0.0000                  ANTENNA: DELTA H/E/N
     1     1                                                WAVELENGTH FACT L1/2
     9    L1    L2    C1    P2    C2    D1    D2    S1    S2# / TYPES OF OBSERV 
     0.100                                                  INTERVAL            
  2024     1    10     3    21    0.0000000     GPS         TIME OF FIRST OBS   
  2024     1    10     3    21   59.9000000     GPS         TIME OF LAST OBS    
    18                                                      LEAP SECONDS        
     8                                                      # OF SATELLITES     
   G08   600   600   600     0   600   600   600   600   600PRN / # OF OBS      
   G10   600   600   600     0   600   600   600   600   600PRN / # OF OBS      
   G15   600   600   600     0   600   600   600   600   600PRN / # OF OBS      
   G16   600   600   600   600     0   600   600   600   600PRN / # OF OBS      
   G18   600   600   600     0   600   600   600   600   600PRN / # OF OBS      
   G23   600   600   600     0   600   600   600   600   600PRN / # OF OBS      
   G24   578   578   578     0   578   578   578   578   578PRN / # OF OBS      
   G32   600   600   600     0   600   600   600   600   600PRN / # OF OBS      
                                                            END OF HEADER       
 24  1 10  3 21  0.0000000  0  8G08G24G18G23G16G10G15G32
 128621287.683 5 100224464.218 5  24475829.624                    24475851.047  
      2812.539        2191.215          33.000          35.000  
 127996355.68726  99737511.911 6  24356895.714                    24356917.953  
       220.117         171.844          37.000          39.000  
 113003481.369 7  88054724.836 7  21503849.813                    21503864.364  
     -1857.953       -1447.481          42.000          42.000  
 109685432.188 7  85469225.368 7  20872444.900                    20872459.972  
     -1837.488       -1431.547          44.000          43.000  
 127921849.774 5  99679490.256 3  24342725.914    24342749.910                  
     -2286.668       -1781.684          35.000          18.000  
 107495854.954 7  83763071.772 7  20455782.659                    20455798.877  
        48.605          37.863          47.000          44.000  
 127046070.227 5  98997012.916 6  24176066.076                    24176084.770  
     -3375.629       -2630.258          34.000          37.000  
 115194532.046 7  89762060.287 6  21920790.621                    21920809.463  
      2802.344        2183.914          46.000          41.000  
 24  1 10  3 21  0.1000000  0  8G08G24G18G23G16G10G15G32
 128621006.433 5 100224245.056 5  24475776.104                    24475797.525  
      2812.270        2191.602          34.000          35.000  
 127996333.67126  99737494.757 6  24356891.525                    24356913.764  
       220.281         171.672          38.000          39.000  
 113003667.136 7  88054869.561 7  21503885.164                    21503899.707  
     -1857.840       -1447.250          42.000          42.000  
 109685615.929 7  85469368.569 7  20872479.865                    20872494.943  
     -1837.434       -1431.953          44.000          43.000  
 127922078.358 5  99679668.368 3  24342769.412    24342793.407                  
     -2286.117       -1780.996          35.000          18.000  
 107495850.099 7  83763067.983 7  20455781.735                    20455797.952  
        48.637          38.055          47.000          44.000  
 127046407.812 5  98997275.987 6  24176130.316                    24176149.014  
     -3375.808       -2630.336          34.000          37.000  
 115194251.789 7  89761841.896 6  21920737.289                    21920756.129  
      2802.488        2184.031          46.000          41.000  
 24  1 10  3 21  0.2000000  0  8G08G24G18G23G16G10G15G32
 128620725.280 5 100224025.944 5  24475722.540                    24475744.094  
      2812.129        2191.086          34.000          35.000  
 127996311.57626  99737477.609 6  24356887.820                    24356909.522  
       220.586         171.699          37.000          39.000  
 113003852.872 6  88055014.317 7  21503920.375                    21503935.253  
     -1857.320       -1447.168          41.000          42.000  
 109685799.685 7  85469511.782 7  20872514.559                    20872530.151  
     -1837.438       -1431.762          44.000          43.000  
 127922306.966 5  99679846.503 3  24342812.735    24342836.987                  
     -2286.219       -1781.430          35.000          18.000  
 107495845.245 7  83763064.184 7  20455780.413                    20455796.953  
        48.566          37.848          47.000          44.000  
 127046745.448 5  98997539.034 6  24176194.613                    24176213.589  
     -3376.082       -2630.688          34.000          37.000  
 115193971.526 7  89761623.483 6  21920683.613                    21920702.783  
      2802.594        2183.895          46.000          41.000  
 24  1 10  3 21  0.3000000  0  8G08G24G18G23G16G10G15G32
 128620444.053 5 100223806.863 5  24475669.024                    24475690.592  
      2812.098        2191.242          34.000          35.000  
 127996289.58226  99737460.432 6  24356883.635                    24356905.327  
       220.227         171.691          36.000          39.000  
 113004038.521 6  88055158.991 7  21503955.703                    21503970.584  
     -1856.953       -1447.215          40.000          42.000  
 109685983.434 7  85469654.903 7  20872549.525                    20872565.103  
     -1837.566       -1431.586          44.000          43.000  
 127922535.721 5  99680024.755 3  24342856.265    24342880.518                  
     -2286.746       -1782.078          35.000          18.000  
 107495840.365 7  83763060.410 7  20455779.485                    20455796.032  
        48.684          37.840          47.000          44.000  
 127047082.935 5  98997802.088 6  24176258.835                    24176277.830  
     -3375.551       -2630.422          33.000          38.000  
 115193691.193 7  89761405.087 6  21920630.268                    21920649.448  
      2803.000        2183.957          46.000          41.000  
 24  1 10  3 21  0.4000000  0  8G08G24G18G23G16G10G15G32
 128620162.909 5 100223587.709 5  24475615.751                    24475637.182  
      2811.727        2190.785          35.000          34.000  
 127996267.50825  99737443.271 6  24356879.474                    24356901.612  
       220.371         171.508          34.000          40.000  
 113004224.313 6  88055303.797 7  21503990.535                    21504005.987  
     -1857.281       -1447.258          41.000          42.000  
 109686167.181 7  85469798.133 7  20872584.639                    20872599.979  
     -1837.469       -1432.152          45.000          43.000  
 127922764.319 5  99680202.892 3  24342900.071    24342924.021                  
     -2286.477       -1781.734          35.000          18.000  
 107495835.533 7  83763056.619 7  20455778.495                    20455795.145  
        48.469          37.863          47.000          44.000  
 127047420.612 5  98998065.157 6  24176322.983                    24176342.199  
     -3376.058       -2630.844          34.000          38.000  
 115193410.927 7  89761186.677 6  21920576.247                    21920595.985  
      2802.863        2184.289          45.000          41.000  
 24  1 10  3 21  0.5000000  0  8G08G24G18G23G16G10G15G32
 128619881.769 5 100223368.686 5  24475562.251                    24475583.694  
      2811.500        2190.504          35.000          34.000  
 127996245.48425  99737426.151 6  24356875.283                    24356897.432  
       220.363         171.273          33.000          40.000  
 113004410.096 6  88055448.532 7  21504025.888                    21504041.332  
     -1857.730       -1447.637          41.000          42.000  
 109686350.975 7  85469941.355 7  20872619.614                    20872634.956  
     -1837.703       -1432.152          45.000          44.000  
 127922993.021 5  99680381.095 3  24342943.591    24342967.540                  
     -2286.863       -1782.168          35.000          19.000  
 107495830.720 7  83763052.865 7  20455777.579                    20455794.228  
        48.305          37.520          47.000          44.000  
 127047758.219 5  98998328.248 6  24176387.228                    24176406.448  
     -3375.992       -2630.770          35.000          38.000  
 115193130.655 7  89760968.242 6  21920522.913                    21920542.641  
      2802.625        2183.711          45.000          41.000  
 24  1 10  3 21  0.6000000  0  8G08G24G18G23G16G10G15G32
 128619600.665 5 100223149.601 5  24475508.993                    24475529.723  
      2811.480        2190.621          35.000          34.000  
 127996223.53725  99737409.012 6  24356870.528                    24356893.699  
       219.668         171.496          33.000          40.000  
 113004595.777 6  88055593.231 7  21504061.113                    21504076.755  
     -1857.441       -1447.481          40.000          42.000  
 109686534.765 7  85470084.542 7  20872654.768                    20872670.150  
     -1837.930       -1432.031          45.000          44.000  
 127923221.715 5  99680559.293 3  24342987.314    24343011.058                  
     -2286.715       -1781.707          34.000          19.000  
 107495825.910 7  83763049.121 7  20455776.726                    20455793.267  
        48.105          37.234          47.000          44.000  
 127048095.840 5  98998591.320 6  24176451.522                    24176470.553  
     -3376.215       -2630.527          35.000          38.000  
 115192850.410 7  89760749.917 6  21920469.366                    21920489.293  
      2802.570        2183.500          45.000          41.000  
 24  1 10  3 21  0.7000000  0  8G08G24G18G23G16G10G15G32
 128619319.458 5 100222930.543 5  24475455.482                    24475476.227  
      2811.594        2190.617          35.000          34.000  
 127996201.57825  99737391.860 6  24356866.349                    24356889.510  
       219.891         171.438          32.000          40.000  
 113004781.543 6  88055737.986 7  21504096.463                    21504112.106  
     -1857.320       -1447.359          41.000          42.000  
 109686718.526 7  85470227.742 7  20872689.736                    20872705.121  
     -1837.605       -1431.941          45.000          44.000  
 127923450.349 5  99680737.442 3  24343030.821    24343054.564                  
     -2286.633       -1781.730          34.000          18.000  
 107495821.080 7  83763045.380 7  20455775.807                    20455792.353  
        48.309          37.738          47.000          44.000  
 127048433.466 5  98998854.396 6  24176515.770                    24176534.798  
     -3376.230       -2630.793          35.000          38.000  
 115192570.130 7  89760531.487 6  21920416.030                    21920435.950  
      2802.785        2184.152          45.000          41.000  
 24  1 10  3 21  0.8000000  0  8G08G24G18G23G16G10G15G32
 128619038.387 6 100222711.467 5  24475402.253                    24475422.937  
      2811.152        2190.496          36.000          35.000  
 127996178.966 5  99737374.741 6  24356861.640                    24356885.322  
       220.281         171.297          30.000          40.000  
 113004967.358 7  88055882.753 7  21504132.299                    21504147.405  
     -1857.926       -1447.746          42.000          42.000  
 109686902.329 7  85470370.967 7  20872724.596                    20872739.824  
     -1837.840       -1432.203          45.000          44.000  
 127923679.078 5  99680915.670 3  24343074.409    24343098.128                  
     -2287.016       -1782.273          34.000          18.000  
 107495816.301 7  83763041.626 7  20455774.843                    20455791.476  
        48.062          37.359          47.000          44.000  
 127048771.122 5  98999117.493 6  24176579.992                    24176598.924  
     -3376.508       -2630.957          35.000          38.000  
 115192289.910 7  89760313.131 6  21920363.050                    21920382.703  
      2802.480        2183.715          45.000          41.000  
 24  1 10  3 21  0.9000000  0  8G08G24G18G23G16G10G15G32
 128618757.267 6 100222492.421 5  24475348.758                    24475369.444  
      2811.215        2190.656          36.000          34.000  
 127996157.094 5  99737357.614 6  24356857.478                    24356881.139  
       219.566         171.254          31.000          41.000  
 113005153.164 6  88056027.500 7  21504167.656                    21504182.754  
     -1858.180       -1447.727          41.000          42.000  
 109687086.125 7  85470514.175 7  20872759.571                    20872774.797  
     -1838.047       -1432.234          45.000          44.000  
 127923907.810 5  99681093.904 3  24343117.935    24343141.654                  
     -2287.145       -1782.309          34.000          18.000  
 107495811.505 7  83763037.897 7  20455773.930                    20455790.565  
        47.898          37.254          47.000          44.000  
 127049108.738 5  98999380.587 6  24176644.239                    24176663.175  
     -3376.219       -2630.828          35.000          38.000  
 115192009.697 7  89760094.785 6  21920309.727                    21920329.381  
      2802.141        2183.285          45.000          41.000  
 24  1 10  3 21  1.0000000  0  8G08G24G18G23G16G10G15G32
 128618476.128 6 100222273.374 5  24475295.657                    24475315.622  
      2811.340        2190.387          36.000          34.000  
 127996135.102 5  99737340.480 6  24356852.957                    24356876.830  
       219.977         171.227          34.000          40.000  
 113005338.953 6  88056172.256 7  21504202.948                    21504218.050  
     -1857.688       -1447.199          41.000          42.000  
 109687269.905 7  85470657.389 7  20872794.700                    20872809.365  
     -1837.938       -1432.051          45.000          44.000  
 127924136.514 5  99681272.114 2  24343161.542    24343185.222                  
     -2287.078       -1782.148          35.000          17.000  
 107495806.706 8  83763034.163 7  20455773.111                    20455789.528  
        47.988          37.488          48.000          44.000  
 127049446.354 6  98999643.666 6  24176708.430                    24176727.023  
     -3376.226       -2630.770          36.000          38.000  
 115191729.453 7  89759876.454 6  21920256.617                    21920275.945  
      2802.449        2183.500          46.000          41.000  
 24  1 10  3 21  1.1000000  0  8G08G24G18G23G16G10G15G32
 128618194.965 6 100222054.328 5  24475242.154                    24475262.129  
      2811.371        2190.711          36.000          34.000  
 127996113.098 5  99737323.355 6  24356848.770                    24356872.648  
       219.902         171.402          35.000          40.000  
 113005524.648 6  88056317.014 7  21504238.285                    21504253.401  
     -1857.434       -1448.035          41.000          42.000  
 109687453.661 7  85470800.595 7  20872829.667                    20872844.338  
     -1837.645       -1432.055          45.000          44.000  
 127924365.254 5  99681450.354 3  24343205.070    24343228.750                  
     -2287.273       -1782.387          35.000          18.000  
 107495801.906 8  83763030.427 7  20455772.197                    20455788.616  
        48.016          37.348          48.000          44.000  
 127049783.949 6  98999906.694 6  24176772.672                    24176791.257  
     -3376.024       -2630.684          36.000          38.000  
 115191449.210 7  89759658.075 6  21920203.289                    21920222.615  
      2802.344        2183.625          46.000          41.000  
 24  1 10  3 21  1.2000000  0  8G08G24G18G23G16G10G15G32
 128617913.830 6 100221835.194 5  24475188.843                    24475208.052  
      2811.488        2190.875          36.000          35.000  
 127996091.007 6  99737306.173 6  24356845.254                    24356868.100  
       220.453         171.871          36.000          40.000  
 113005710.386 6  88056461.792 7  21504273.489                    21504288.585  
     -1857.516       -1447.359          40.000          42.000  
 109687637.434 7  85470943.787 7  20872864.482                    20872880.010  
     -1837.531       -1431.695          45.000          44.000  
 127924593.933 5  99681628.550 2  24343248.485    24343272.290                  
     -2287.031       -1782.066          35.000          17.000  
 107495797.096 8  83763026.690 7  20455771.649                    20455787.586  
        48.086          37.434          48.000          44.000  
 127050121.481 5  99000169.741 6  24176836.496                    24176855.253  
     -3375.656       -2630.305          35.000          38.000  
 115191169.005 7  89759439.706 6  21920150.241                    21920169.224  
      2802.297        2183.719          46.000          41.000  
 24  1 10  3 21  1.3000000  0  8G08G24G18G23G16G10G15G32
 128617632.643 5 100221616.139 5  24475135.335                    24475154.556  
      2811.551        2190.902          35.000          34.000  
 127996068.977 6  99737288.991 6  24356841.061                    24356863.904  
       220.258         171.609          36.000          40.000  
 113005896.284 6  88056606.562 7  21504308.864                    21504323.940  
     -1858.113       -1447.797          40.000          42.000  
 109687821.219 7  85471086.966 7  20872899.455                    20872914.976  
     -1837.848       -1432.004          45.000          44.000  
 127924822.664 6  99681806.774 2  24343292.011    24343315.815                  
     -2287.105       -1782.125          36.000          17.000  
 107495792.340 8  83763022.974 7  20455770.744                    20455786.678  
        47.867          37.062          48.000          44.000  
 127050459.071 5  99000432.788 6  24176900.737                    24176919.492  
     -3375.746       -2630.586          35.000          38.000  
 115190888.771 7  89759221.383 6  21920096.914                    21920115.908  
      2802.199        2183.273          47.000          41.000  
 24  1 10  3 21  1.4000000  0  8G08G24G18G23G16G10G15G32
 128617351.548 5 100221397.077 5  24475081.376                    24475101.356  
      2811.367        2190.672          35.000          34.000  
 127996047.015 6  99737271.860 6  24356837.171                    24356860.033  
       220.027         171.598          36.000          41.000  
 113006082.025 6  88056751.301 7  21504343.858                    21504359.552  
     -1857.633       -1447.539          40.000          42.000  
 109688004.990 7  85471230.189 7  20872934.667                    20872950.116  
     -1837.715       -1432.106          45.000          44.000  
 127925051.421 5  99681985.023 3  24343336.034    24343359.298                  
     -2287.320       -1782.348          35.000          18.000  
 107495787.559 7  83763019.228 7  20455769.561                    20455785.647  
        47.746          37.297          47.000          44.000  
 127050796.640 5  99000695.856 6  24176964.560                    24176984.213  
     -3375.758       -2630.535          35.000          38.000  
 115190608.589 7  89759003.072 6  21920044.676                    21920062.500  
      2802.121        2183.484          47.000          41.000  
 24  1 10  3 21  1.5000000  0  8G08G24G18G23G16G10G15G32
 128617070.431 5 100221178.034 5  24475027.881                    24475047.863  
      2811.262        2190.688          35.000          35.000  
 127996025.032 5  99737254.691 6  24356832.988                    24356855.841  
       219.875         171.648          35.000          41.000  
 113006267.752 6  88056896.076 7  21504379.201                    21504394.908  
     -1857.555       -1447.606          40.000          42.000  
 109688188.765 7  85471373.387 7  20872969.639                    20872985.087  
     -1837.824       -1432.266          45.000          44.000  
 127925280.111 5  99682163.211 3  24343379.552    24343402.813                  
     -2287.059       -1781.930          35.000          18.000  
 107495782.786 7  83763015.511 7  20455768.653                    20455784.739  
        47.633          37.074          47.000          44.000  
 127051134.291 5  99000958.904 6  24177028.813                    24177048.452  
     -3376.047       -2630.535          35.000          38.000  
 115190328.417 7  89758784.715 6  21919991.361                    21920009.175  
      2801.770        2183.469          46.000          41.000  
 24  1 10  3 21  1.6000000  0  8G08G24G18G23G16G10G15G32
 128616789.274 5 100220958.963 5  24474974.082                    24474994.426  
      2811.453        2190.500          35.000          35.000  
 127996003.089 5  99737237.551 6  24356828.672                    24356851.881  
       219.727         171.242          34.000          41.000  
 113006453.622 6  88057040.845 7  21504414.008                    21504429.777  
     -1858.160       -1447.789          40.000          42.000  
 109688372.566 7  85471516.648 7  20873004.248                    20873019.744  
     -1837.820       -1432.172          45.000          44.000  
 127925508.872 5  99682341.462 2  24343423.514    24343446.266                  
     -2287.457       -1782.539          35.000          17.000  
 107495778.031 7  83763011.816 7  20455767.443                    20455783.961  
        47.668          37.152          47.000          44.000  
 127051471.790 6  99001221.960 6  24177093.217                    24177112.989  
     -3375.613       -2630.633          36.000          38.000  
 115190048.254 7  89758566.398 7  21919937.844                    21919956.094  
      2801.730        2183.062          46.000          42.000  
 24  1 10  3 21  1.7000000  0  8G08G24G18G23G16G10G15G32
 128616508.176 6 100220739.932 5  24474920.590                    24474940.937  
      2811.121        2190.609          36.000          35.000  
 127995981.024 5  99737220.411 6  24356824.473                    24356847.695  
       220.078         171.504          34.000          41.000  
 113006639.372 6  88057185.605 7  21504449.355                    21504465.129  
     -1857.766       -1447.508          40.000          42.000  
 109688556.350 7  85471659.797 7  20873039.220                    20873054.703  
     -1837.887       -1431.602          45.000          44.000  
 127925737.623 5  99682519.717 2  24343467.044    24343489.798                  
     -2287.395       -1782.457          35.000          17.000  
 107495773.256 7  83763008.113 7  20455766.535                    20455783.057  
        47.695          36.988          47.000          44.000  
 127051809.414 6  99001485.051 6  24177157.465                    24177177.239  
     -3375.750       -2630.637          36.000          38.000  
 115189768.046 7  89758348.038 7  21919884.522                    21919902.769  
      2801.910        2183.430          46.000          42.000  
 24  1 10  3 21  1.8000000  0  8G08G24G18G23G16G10G15G32
 128616227.114 5 100220520.872 5  24474866.716                    24474887.823  
      2810.910        2190.320          35.000          35.000  
 127995959.007 6  99737203.254 6  24356820.237                    24356843.482  
       220.168         171.520          36.000          40.000  
 113006825.091 6  88057330.342 7  21504484.993                    21504500.483  
     -1857.434       -1447.531          41.000          42.000  
 109688740.122 7  85471802.985 7  20873074.082                    20873089.155  
     -1837.773       -1432.195          44.000          44.000  
 127925966.367 5  99682697.974 2  24343510.775    24343533.314                  
     -2287.441       -1782.570          35.000          17.000  
 107495768.480 7  83763004.410 7  20455765.618                    20455782.387  
        47.828          37.262          47.000          44.000  
 127052146.988 5  99001748.062 6  24177222.461                    24177241.102  
     -3375.844       -2630.238          35.000          38.000  
 115189487.847 7  89758129.715 7  21919830.085                    21919849.803  
      2801.973        2183.258          45.000          42.000  
 24  1 10  3 21  1.9000000  0  8G08G24G18G23G16G10G15G32
 128615945.978 5 100220301.874 5  24474813.217                    24474834.341  
      2811.082        2190.258          35.000          35.000  
 127995936.928 6  99737186.117 6  24356816.035                    24356839.297  
       220.551         171.547          37.000          40.000  
 113007010.864 6  88057475.125 7  21504520.345                    21504535.841  
     -1857.477       -1447.426          41.000          42.000  
 109688923.885 7  85471946.217 7  20873109.051                    20873124.134  
     -1837.664       -1431.805          45.000          44.000  
 127926195.057 5  99682876.174 3  24343554.294    24343576.832                  
     -2287.191       -1782.203          35.000          18.000  
 107495763.703 7  83763000.664 7  20455764.709                    20455781.472  
        47.773          37.406          47.000          44.000  
 127052484.592 5  99002011.095 6  24177286.705                    24177305.337  
     -3375.840       -2630.488          34.000          37.000  
 115189207.649 7  89757911.366 7  21919776.765                    21919796.480  
      2802.082        2183.684          45.000          42.000  
 24  1 10  3 21  2.0000000  0  8G08G24G18G23G16G10G15G32
 128615664.894 5 100220082.780 5  24474759.721                    24474781.086  
      2810.918        2190.617          35.000          35.000  
 127995914.893 6  99737168.934 6  24356812.498                    24356835.023  
       220.277         171.723          38.000          40.000  
 113007196.609 6  88057619.772 7  21504556.214                    21504571.688  
     -1857.617       -1447.062          41.000          42.000  
 109689107.613 7  85472089.327 7  20873144.372                    20873158.981  
     -1837.449       -1431.688          45.000          43.000  
 127926423.821 5  99683054.436 3  24343597.513    24343620.389                  
     -2287.410       -1782.512          35.000          18.000  
 107495758.901 7  83762996.909 7  20455764.209                    20455780.313  
        47.914          37.414          47.000          44.000  
 127052822.085 5  99002274.126 6  24177350.881                    24177369.525  
     -3375.609       -2630.250          34.000          38.000  
 115188927.406 7  89757692.983 7  21919722.530                    21919743.188  
      2802.180        2183.477          44.000          42.000  
 24  1 10  3 21  2.1000000  0  8G08G24G18G23G16G10G15G32
 128615383.784 5 100219863.763 5  24474706.227                    24474727.600  
      2811.094        2190.105          34.000          34.000  
 127995892.878 6  99737151.807 6  24356808.309                    24356830.840  
       220.344         171.375          38.000          39.000  
 113007382.290 6  88057764.533 7  21504591.548                    21504607.041  
     -1857.121       -1447.246          41.000          42.000  
 109689291.353 7  85472232.541 7  20873179.337                    20873193.955  
     -1837.438       -1431.797          45.000          43.000  
 127926652.577 6  99683232.688 3  24343641.044    24343663.920                  
     -2287.508       -1782.562          36.000          18.000  
 107495754.110 7  83762993.201 7  20455763.297                    20455779.408  
        47.934          37.289          47.000          44.000  
 127053159.701 5  99002537.178 6  24177415.127                    24177433.765  
     -3375.770       -2630.516          34.000          38.000  
 115188647.176 7  89757474.642 7  21919669.205                    21919689.867  
      2802.371        2183.789          45.000          42.000  
 24  1 10  3 21  2.2000000  0  8G08G24G18G23G16G10G15G32
 128615102.713 5 100219644.774 5  24474652.398                    24474674.801  
      2810.816        2189.906          34.000          34.000  
 127995870.829 6  99737134.616 6  24356804.379                    24356825.923  
       220.301         171.562          37.000          39.000  
 113007568.052 6  88057909.233 7  21504626.968                    21504642.425  
     -1857.422       -1447.363          41.000          42.000  
 109689475.110 7  85472375.726 7  20873214.313                    20873228.462  
     -1837.457       -1432.012          45.000          43.000  
 127926881.349 5  99683410.953 3  24343684.578    24343707.423                  
     -2287.645       -1782.688          35.000          18.000  
 107495749.352 8  83762989.479 7  20455762.517                    20455778.592  
        47.703          37.203          48.000          44.000  
 127053497.300 5  99002800.233 6  24177478.932                    24177498.311  
     -3375.894       -2630.594          34.000          38.000  
 115188366.966 7  89757256.290 7  21919615.640                    21919636.348  
      2802.254        2183.523          45.000          42.000  
 24  1 10  3 21  2.3000000  0  8G08G24G18G23G16G10G15G32
 128614821.697 5 100219425.757 5  24474598.922                    24474621.314  
      2810.562        2190.164          35.000          34.000  
 127995848.871 6  99737117.497 6  24356800.200                    24356821.742  
       219.922         171.277          36.000          39.000  
 113007753.809 6  88058053.982 7  21504662.316                    21504677.774  
     -1857.508       -1447.312          40.000          42.000  
 109689658.873 7  85472518.921 7  20873249.281                    20873263.431  
     -1837.633       -1432.066          45.000          44.000  
 127927110.120 6  99683589.211 3  24343728.112    24343750.956                  
     -2287.652       -1782.574          36.000          18.000  
 107495744.579 8  83762985.746 7  20455761.609                    20455777.681  
        47.684          37.090          48.000          44.000  
 127053834.960 5  99003063.312 6  24177543.187                    24177562.557  
     -3376.293       -2630.602          34.000          38.000  
 115188086.708 7  89757037.913 7  21919562.309                    21919583.018  
      2802.301        2183.719          45.000          42.000  
 24  1 10  3 21  2.4000000  0  8G08G24G18G23G16G10G15G32
 128614540.671 5 100219206.743 5  24474545.226                    24474568.087  
      2810.410        2190.434          35.000          34.000  
 127995826.884 5  99737100.371 6  24356795.579                    24356817.560  
       219.848         171.465          35.000          39.000  
 113007939.531 6  88058198.718 7  21504697.017                    21504713.206  
     -1857.031       -1447.199          40.000          42.000  
 109689842.638 7  85472662.119 7  20873284.290                    20873299.324  
     -1837.664       -1431.891          45.000          44.000  
 127927338.881 6  99683767.462 3  24343771.644    24343794.471                  
     -2287.562       -1782.426          36.000          18.000  
 107495739.791 8  83762982.028 7  20455760.948                    20455776.656  
        47.801          37.215          48.000          44.000  
 127054172.465 5  99003326.397 6  24177607.779                    24177627.086  
     -3375.797       -2630.848          34.000          38.000  
 115187806.461 7  89756819.551 6  21919509.433                    21919529.379  
      2802.492        2183.594          45.000          41.000  
 24  1 10  3 21  2.5000000  0  8G08G24G18G23G16G10G15G32
 128614259.585 5 100218987.769 5  24474491.737                    24474514.611  
      2810.520        2189.723          35.000          35.000  
 127995804.909 5  99737083.221 6  24356791.397                    24356813.372  
       219.762         171.348          35.000          39.000  
 113008125.286 6  88058343.494 7  21504732.365                    21504748.562  
     -1857.359       -1447.406          41.000          42.000  
 109690026.397 7  85472805.296 7  20873319.258                    20873334.289  
     -1837.668       -1431.934          45.000          44.000  
 127927567.676 6  99683945.750 2  24343815.182    24343838.010                  
     -2287.844       -1782.949          36.000          17.000  
 107495735.031 8  83762978.324 7  20455760.042                    20455775.751  
        47.754          37.305          48.000          44.000  
 127054510.137 5  99003589.429 6  24177672.036                    24177691.321  
     -3376.051       -2630.340          34.000          38.000  
 115187526.261 7  89756601.231 6  21919456.113                    21919476.063  
      2802.266        2183.414          45.000          41.000  
 24  1 10  3 21  2.6000000  0  8G08G24G18G23G16G10G15G32
 128613978.564 5 100218768.733 5  24474438.495                    24474460.995  
      2810.359        2190.344          35.000          34.000  
 127995783.055 5  99737066.139 6  24356787.035                    24356808.575  
       219.227         170.953          34.000          39.000  
 113008311.065 6  88058488.247 7  21504768.288                    21504784.123  
     -1857.789       -1447.633          41.000          42.000  
 109690210.208 7  85472948.524 7  20873354.494                    20873369.985  
     -1837.879       -1432.340          45.000          44.000  
 127927796.441 6  99684124.020 2  24343859.035    24343881.538                  
     -2287.684       -1782.641          36.000          17.000  
 107495730.296 7  83762974.633 7  20455758.945                    20455774.553  
        47.469          36.664          47.000          44.000  
 127054847.725 5  99003852.547 6  24177736.542                    24177755.921  
     -3376.141       -2630.965          34.000          38.000  
 115187246.074 7  89756382.910 6  21919402.756                    21919422.599  
      2801.918        2183.164          46.000          41.000  
 24  1 10  3 21  2.7000000  0  8G08G24G18G23G16G10G15G32
 128613697.490 5 100218549.798 5  24474385.008                    24474407.529  
      2810.594        2189.629          35.000          34.000  
 127995761.017 5  99737048.994 6  24356782.841                    24356804.388  
       220.020         171.316          33.000          38.000  
 113008496.812 7  88058632.969 7  21504803.634                    21504819.465  
     -1857.715       -1447.484          42.000          42.000  
 109690393.995 7  85473091.780 7  20873389.467                    20873404.970  
     -1837.902       -1432.352          46.000          44.000  
 127928025.229 6  99684302.287 2  24343902.572    24343925.073                  
     -2287.859       -1782.781          36.000          17.000  
 107495725.564 7  83762970.942 7  20455758.045                    20455773.651  
        47.387          37.027          47.000          44.000  
 127055185.309 5  99004115.609 6  24177800.782                    24177820.164  
     -3376.031       -2630.848          34.000          38.000  
 115186965.866 7  89756164.535 6  21919349.434                    21919369.269  
      2801.938        2183.711          46.000          41.000  
 24  1 10  3 21  2.8000000  0  8G08G24G18G23G16G10G15G32
 128613416.491 5 100218330.801 5  24474331.286                    24474353.634  
      2810.234        2189.801          35.000          34.000  
 127995738.913 5  99737031.875 6  24356778.346                    24356800.395  
       220.504         171.246          31.000          38.000  
 113008682.677 7  88058777.766 7  21504839.527                    21504854.514  
     -1858.086       -1447.723          42.000          42.000  
 109690577.829 7  85473234.991 7  20873424.755                    20873439.662  
     -1838.070       -1432.156          45.000          44.000  
 127928254.078 6  99684480.603 2  24343946.214    24343968.603                  
     -2288.016       -1782.785          36.000          17.000  
 107495720.861 7  83762967.263 7  20455756.251                    20455772.573  
        47.172          36.590          47.000          44.000  
 127055522.983 5  99004378.707 6  24177864.704                    24177884.337  
     -3376.438       -2630.895          34.000          38.000  
 115186685.718 7  89755946.219 6  21919297.069                    21919315.579  
      2801.762        2183.152          46.000          41.000  
 24  1 10  3 21  2.9000000  0  8G08G24G18G23G16G10G15G32
 128613135.487 5 100218111.840 5  24474277.813                    24474300.161  
      2810.293        2189.816          35.000          34.000  
 127995717.071 5  99737014.813 6  24356774.190                    24356796.229  
       218.969         170.695          31.000          38.000  
 113008868.459 6  88058922.563 7  21504874.880                    21504889.875  
     -1858.070       -1448.207          41.000          42.000  
 109690761.648 7  85473378.231 7  20873459.734                    20873474.643  
     -1838.234       -1432.508          45.000          44.000  
 127928482.802 5  99684658.827 2  24343989.738    24344012.128                  
     -2287.801       -1782.680          35.000          17.000  
 107495716.174 8  83762963.640 7  20455755.360                    20455771.689  
        47.012          36.383          48.000          44.000  
 127055860.616 5  99004641.793 6  24177928.953                    24177948.585  
     -3376.332       -2630.828          34.000          38.000  
 115186405.584 7  89755727.953 6  21919243.761                    21919262.276  
      2801.605        2183.105          46.000          41.000  
 24  1 10  3 21  3.0000000  0  8G08G24G18G23G16G10G15G32
 128612854.456 5 100217892.923 5  24474224.756                    24474246.192  
      2810.207        2189.551          35.000          34.000  
 127995695.221 5  99736997.727 6  24356769.563                    24356792.040  
       219.031         170.891          34.000          38.000  
 113009054.301 7  88059067.361 6  21504910.588                    21504925.197  
     -1858.352       -1448.180          42.000          41.000  
 109690945.509 7  85473521.530 7  20873494.292                    20873508.701  
     -1838.395       -1432.762          45.000          44.000  
 127928711.687 5  99684837.175 2  24344033.192    24344055.682                  
     -2288.219       -1783.160          35.000          17.000  
 107495711.515 7  83762959.981 7  20455754.739                    20455771.147  
        46.727          36.430          47.000          44.000  
 127056198.326 5  99004904.897 6  24177993.030                    24178012.596  
     -3376.734       -2630.926          34.000          38.000  
 115186125.452 7  89755509.650 6  21919190.352                    21919208.801  
      2801.281        2182.703          46.000          40.000  
 24  1 10  3 21  3.1000000  0  8G08G24G18G23G16G10G15G32
 128612573.448 5 100217673.869 5  24474171.282                    24474192.696  
      2810.312        2190.031          35.000          34.000  
 127995673.263 6  99736980.649 6  24356765.385                    24356787.870  
       219.320         170.832          36.000          38.000  
 113009240.114 7  88059212.165 6  21504945.947                    21504960.559  
     -1858.078       -1447.856          42.000          41.000  
 109691129.348 7  85473664.733 7  20873529.276                    20873543.672  
     -1838.391       -1432.082          45.000          44.000  
 127928940.419 5  99685015.405 2  24344076.719    24344099.208                  
     -2287.871       -1782.680          35.000          17.000  
 107495706.815 7  83762956.312 7  20455753.844                    20455770.250  
        46.875          36.660          47.000          45.000  
 127056535.852 5  99005167.993 6  24178057.259                    24178076.846  
     -3375.980       -2631.117          34.000          39.000  
 115185845.296 7  89755291.368 6  21919137.040                    21919155.494  
      2801.559        2183.012          46.000          40.000  
 24  1 10  3 21  3.2000000  0  8G08G24G18G23G16G10G15G32
 128612292.387 5 100217454.911 5  24474117.954                    24474139.217  
      2810.316        2189.609          35.000          34.000  
 127995651.291 6  99736963.522 6  24356761.813                    24356783.453  
       219.629         171.113          38.000          39.000  
 113009425.957 7  88059356.982 6  21504981.859                    21504995.300  
     -1858.316       -1448.145          42.000          41.000  
 109691313.175 7  85473807.985 7  20873564.061                    20873578.398  
     -1838.277       -1432.734          45.000          44.000  
 127929169.185 6  99685193.660 2  24344120.111    24344142.763                  
     -2287.754       -1782.609          36.000          17.000  
 107495702.130 7  83762952.669 7  20455753.062                    20455769.916  
        46.938          36.516          47.000          45.000  
 127056873.517 5  99005431.083 6  24178121.530                    24178140.916  
     -3376.308       -2630.980          34.000          39.000  
 115185565.185 7  89755073.086 6  21919083.698                    21919102.171  
      2801.414        2182.758          46.000          41.000  
 24  1 10  3 21  3.3000000  0  8G08G24G18G23G16G10G15G32
 128612011.422 5 100217235.938 5  24474064.488                    24474085.741  
      2810.082        2189.754          35.000          34.000  
 127995629.361 6  99736946.460 6  24356757.640                    24356779.286  
       219.363         170.820          38.000          39.000  
 113009611.758 7  88059501.777 6  21505017.216                    21505030.660  
     -1858.199       -1448.242          42.000          41.000  
 109691497.032 7  85473951.234 7  20873599.048                    20873613.381  
     -1838.496       -1432.578          45.000          44.000  
 127929398.018 6  99685371.982 2  24344163.656    24344186.311                  
     -2288.074       -1783.129          36.000          17.000  
 107495697.455 8  83762949.009 7  20455752.173                    20455769.022  
        46.828          36.457          48.000          45.000  
 127057211.174 5  99005694.181 6  24178185.784                    24178205.167  
     -3376.219       -2630.887          34.000          38.000  
 115185285.035 7  89754854.800 6  21919030.387                    21919048.864  
      2801.312        2182.719          46.000          40.000  
 24  1 10  3 21  3.4000000  0  8G08G24G18G23G16G10G15G32
 128611730.406 5 100217016.955 5  24474010.927                    24474032.326  
      2810.184        2189.902          35.000          35.000  
 127995607.489 6  99736929.370 6  24356754.439                    24356774.972  
       219.121         170.941          39.000          39.000  
 113009797.650 6  88059646.631 6  21505052.324                    21505066.285  
     -1858.539       -1447.898          41.000          41.000  
 109691680.880 7  85474094.512 7  20873633.916                    20873648.371  
     -1838.457       -1432.488          45.000          43.000  
 127929626.820 6  99685550.281 3  24344207.118    24344229.822                  
     -2288.000       -1782.969          36.000          18.000  
 107495692.756 8  83762945.347 7  20455751.856                    20455768.534  
        46.914          36.691          48.000          45.000  
 127057548.785 5  99005957.273 6  24178250.240                    24178269.737  
     -3376.453       -2630.977          34.000          38.000  
 115185004.897 7  89754636.521 6  21918977.688                    21918995.792  
      2801.414        2182.781          47.000          40.000  
 24  1 10  3 21  3.5000000  0  8G08G24G18G23G16G10G15G32
 128611449.295 5 100216797.928 5  24473957.433                    24473978.837  
      2810.652        2190.129          35.000          35.000  
 127995585.532 6  99736912.291 6  24356750.260                    24356770.801  
       219.254         170.844          39.000          39.000  
 113009983.536 6  88059791.427 7  21505087.697                    21505101.646  
     -1858.762       -1448.223          41.000          42.000  
 109691864.712 7  85474237.735 7  20873668.898                    20873683.347  
     -1838.301       -1432.254          45.000          43.000  
 127929855.604 6  99685728.560 3  24344250.654    24344273.359                  
     -2287.828       -1782.621          36.000          18.000  
 107495688.075 8  83762941.714 7  20455750.966                    20455767.646  
        46.914          36.371          48.000          45.000  
 127057886.486 5  99006220.372 6  24178314.502                    24178333.989  
     -3376.633       -2630.723          33.000          38.000  
 115184724.824 7  89754418.270 6  21918924.392                    21918942.493  
      2801.086        2182.812          46.000          40.000  
 24  1 10  3 21  3.6000000  0  8G08G24G18G23G16G10G15G32
 128611168.323 5 100216579.018 5  24473904.364                    24473925.088  
      2810.102        2189.137          35.000          35.000  
 127995563.681 6  99736895.252 6  24356746.751                    24356766.843  
       218.914         170.387          40.000          40.000  
 113010169.449 6  88059936.295 7  21505122.356                    21505137.274  
     -1858.875       -1448.731          40.000          42.000  
 109692048.579 7  85474381.018 7  20873704.059                    20873718.432  
     -1838.613       -1433.039          45.000          43.000  
 127930084.471 6  99685906.894 3  24344294.190    24344316.871                  
     -2288.445       -1783.520          36.000          18.000  
 107495683.418 8  83762938.092 7  20455750.001                    20455766.731  
        46.727          36.293          48.000          45.000  
 127058224.163 5  99006483.485 6  24178378.690                    24178398.290  
     -3376.684       -2631.145          34.000          38.000  
 115184444.751 7  89754199.988 6  21918871.221                    21918888.811  
      2800.742        2182.109          46.000          40.000  
 24  1 10  3 21  3.7000000  0  8G08G24G18G23G16G10G15G32
 128610887.243 5 100216359.996 5  24473850.877                    24473871.601  
      2810.520        2190.164          35.000          35.000  
 127995541.785 6  99736878.176 6  24356742.584                    24356762.673  
       218.922         170.840          39.000          40.000  
 113010355.315 6  88060081.167 7  21505157.725                    21505172.653  
     -1858.730       -1448.398          41.000          42.000  
 109692232.413 7  85474524.279 7  20873739.041                    20873753.418  
     -1838.461       -1432.391          45.000          43.000  
 127930313.295 6  99686085.191 3  24344337.734    24344360.413                  
     -2288.234       -1782.996          36.000          18.000  
 107495678.722 8  83762934.452 7  20455749.108                    20455765.842  
        46.805          36.277          48.000          45.000  
 127058561.787 5  99006746.551 6  24178442.938                    24178462.534  
     -3376.500       -2630.660          34.000          38.000  
 115184164.657 7  89753981.718 6  21918817.920                    21918835.508  
      2800.750        2182.566          46.000          40.000  
 24  1 10  3 21  3.8000000  0  8G08G24G18G23G16G10G15G32
 128610606.189 5 100216141.028 5  24473797.339                    24473817.877  
      2810.398        2189.762          35.000          35.000  
 127995519.908 6  99736861.089 6  24356738.523                    24356759.437  
       218.871         170.867          39.000          40.000  
 113010541.223 6  88060226.050 7  21505192.892                    21505208.020  
     -1858.590       -1448.227          41.000          42.000  
 109692416.218 7  85474667.485 7  20873774.018                    20873788.390  
     -1838.211       -1432.207          45.000          43.000  
 127930542.041 6  99686263.434 3  24344381.161    24344403.981                  
     -2287.855       -1782.562          36.000          18.000  
 107495674.035 8  83762930.785 7  20455748.356                    20455764.384  
        46.867          36.633          48.000          45.000  
 127058899.391 5  99007009.665 6  24178507.431                    24178526.508  
     -3376.176       -2631.105          34.000          38.000  
 115183884.581 7  89753763.508 6  21918763.905                    21918782.078  
      2801.055        2182.703          46.000          40.000  
 24  1 10  3 21  3.9000000  0  8G08G24G18G23G16G10G15G32
 128610325.151 5 100215922.010 5  24473743.859                    24473764.390  
      2810.684        2190.227          34.000          35.000  
 127995498.030 6  99736844.031 6  24356734.359                    24356755.272  
       218.805         170.875          39.000          40.000  
 113010726.977 6  88060370.737 7  21505228.239                    21505243.354  
     -1858.328       -1447.664          40.000          42.000  
 109692599.997 7  85474810.688 7  20873808.990                    20873823.362  
     -1837.945       -1432.074          45.000          43.000  
 127930770.863 6  99686441.734 3  24344424.705    24344447.524                  
     -2288.066       -1782.918          36.000          18.000  
 107495669.304 8  83762927.080 7  20455747.456                    20455763.479  
        47.141          37.051          48.000          45.000  
 127059237.001 5  99007272.720 6  24178571.677                    24178590.748  
     -3376.058       -2630.508          34.000          38.000  
 115183604.421 7  89753545.178 6  21918710.592                    21918728.759  
      2801.250        2182.871          46.000          40.000  
 24  1 10  3 21  4.0000000  0  8G08G24G18G23G16G10G15G32
 128610044.078 5 100215702.974 5  24473690.826                    24473711.251  
      2810.551        2190.070          35.000          35.000  
 127995476.109 6  99736826.916 6  24356730.063                    24356751.827  
       219.051         170.707          38.000          40.000  
 113010912.786 6  88060515.519 7  21505263.121                    21505278.578  
     -1858.074       -1447.801          41.000          42.000  
 109692783.771 7  85474953.921 7  20873844.195                    20873858.560  
     -1837.777       -1432.094          45.000          43.000  
 127930999.672 6  99686620.021 3  24344467.964    24344491.040                  
     -2287.859       -1782.516          36.000          19.000  
 107495664.542 8  83762923.388 7  20455746.339                    20455761.976  
        47.418          36.918          48.000          44.000  
 127059574.607 5  99007535.802 6  24178635.991                    24178654.785  
     -3376.254       -2630.562          34.000          38.000  
 115183324.285 7  89753326.936 6  21918656.956                    21918675.775  
      2801.270        2182.594          45.000          41.000  
 24  1 10  3 21  4.1000000  0  8G08G24G18G23G16G10G15G32
 128609763.061 5 100215484.035 5  24473637.350                    24473657.784  
      2810.496        2189.758          35.000          35.000  
 127995454.104 6  99736809.833 6  24356725.875                    24356747.655  
       219.773         170.914          37.000          40.000  
 113011098.571 6  88060660.305 7  21505298.475                    21505313.937  
     -1857.949       -1447.715          41.000          42.000  
 109692967.506 7  85475097.071 7  20873879.159                    20873893.518  
     -1837.539       -1431.606          45.000          43.000  
 127931228.464 6  99686798.309 3  24344511.502    24344534.580                  
     -2288.078       -1783.039          36.000          18.000  
 107495659.797 7  83762919.704 7  20455745.436                    20455761.076  
        47.445          37.125          47.000          44.000  
 127059912.180 5  99007798.797 6  24178700.229                    24178719.011  
     -3375.742       -2630.238          34.000          38.000  
 115183044.138 7  89753108.658 6  21918603.646                    21918622.469  
      2801.457        2182.832          45.000          41.000  
 24  1 10  3 21  4.2000000  0  8G08G24G18G23G16G10G15G32
 128609481.988 5 100215264.983 5  24473584.028                    24473604.242  
      2810.633        2189.957          35.000          35.000  
 127995432.135 6  99736792.755 6  24356721.312                    24356743.773  
       219.395         170.859          36.000          40.000  
 113011284.316 6  88060805.055 7  21505334.266                    21505348.887  
     -1857.941       -1447.773          41.000          42.000  
 109693151.295 7  85475240.276 7  20873914.047                    20873928.678  
     -1837.680       -1431.977          45.000          43.000  
 127931457.275 5  99686976.606 3  24344554.723    24344578.137                  
     -2287.945       -1782.781          35.000          18.000  
 107495655.088 7  83762916.032 7  20455743.962                    20455760.359  
        47.238          36.719          47.000          44.000  
 127060249.726 5  99008061.838 6  24178764.626                    24178783.217  
     -3375.801       -2630.383          35.000          38.000  
 115182764.037 7  89752890.411 7  21918550.048                    21918569.999  
      2801.285        2182.660          45.000          42.000  
 24  1 10  3 21  4.3000000  0  8G08G24G18G23G16G10G15G32
 128609200.999 5 100215046.034 5  24473530.558                    24473550.773  
      2810.191        2189.848          34.000          35.000  
 127995410.224 6  99736775.676 6  24356717.142                    24356739.602  
       219.547         170.848          36.000          41.000  
 113011470.210 6  88060949.896 7  21505369.641                    21505384.259  
     -1858.195       -1448.113          41.000          42.000  
 109693335.102 7  85475383.518 7  20873949.024                    20873963.659  
     -1838.027       -1432.434          45.000          43.000  
 127931686.131 6  99687154.935 3  24344598.273    24344621.687                  
     -2288.348       -1783.328          36.000          18.000  
 107495650.401 7  83762912.369 7  20455743.070                    20455759.464  
        46.992          36.477          47.000          44.000  
 127060587.375 5  99008324.957 6  24178828.879                    24178847.473  
     -3375.980       -2631.020          35.000          38.000  
 115182483.943 7  89752672.149 7  21918496.748                    21918516.698  
      2800.992        2182.492          45.000          42.000  
 24  1 10  3 21  4.4000000  0  8G08G24G18G23G16G10G15G32
 128608919.987 5 100214827.067 5  24473477.208                    24473497.595  
      2810.148        2189.375          34.000          35.000  
 127995388.248 6  99736758.625 6  24356712.937                    24356735.462  
       219.445         170.375          37.000          40.000  
 113011656.016 6  88061094.685 7  21505404.936                    21505420.009  
     -1858.352       -1448.453          41.000          42.000  
 109693518.915 7  85475526.738 7  20873983.847                    20873998.260  
     -1838.109       -1432.285          45.000          43.000  
 127931914.964 6  99687333.244 3  24344641.951    24344665.255                  
     -2288.344       -1783.176          36.000          18.000  
 107495645.733 7  83762908.742 7  20455742.291                    20455758.266  
        46.844          36.383          47.000          44.000  
 127060924.997 5  99008588.021 6  24178893.517                    24178911.841  
     -3376.195       -2630.609          35.000          38.000  
 115182203.837 7  89752453.879 7  21918443.789                    21918463.597  
      2800.902        2182.301          46.000          42.000  
 24  1 10  3 21  4.5000000  0  8G08G24G18G23G16G10G15G32
 128608638.984 5 100214608.102 5  24473423.735                    24473444.122  
      2810.180        2189.551          34.000          35.000  
 127995366.399 6  99736741.566 6  24356708.780                    24356731.296  
       218.957         170.684          38.000          40.000  
 113011841.904 6  88061239.543 7  21505440.309                    21505455.385  
     -1858.465       -1448.238          41.000          42.000  
 109693702.766 7  85475669.996 7  20874018.832                    20874033.245  
     -1838.293       -1432.566          45.000          44.000  
 127932143.839 6  99687511.585 3  24344685.504    24344708.808                  
     -2288.461       -1783.215          36.000          18.000  
 107495641.105 7  83762905.116 7  20455741.410                    20455757.381  
        46.473          36.180          47.000          44.000  
 127061262.595 6  99008851.061 6  24178957.759                    24178976.078  
     -3376.199       -2630.574          36.000          38.000  
 115181923.828 7  89752235.702 7  21918390.505                    21918410.316  
      2800.559        2182.191          46.000          42.000  
 24  1 10  3 21  4.6000000  0  8G08G24G18G23G16G10G15G32
 128608358.038 5 100214389.176 5  24473370.054                    24473390.970  
      2809.676        2189.254          35.000          35.000  
 127995344.566 6  99736724.497 6  24356705.195                    24356726.698  
       218.617         170.758          39.000          40.000  
 113012027.847 6  88061384.398 6  21505475.521                    21505490.759  
     -1859.172       -1448.531          41.000          41.000  
 109693886.608 7  85475813.268 7  20874053.980                    20874068.249  
     -1838.395       -1432.785          45.000          44.000  
 127932372.775 6  99687689.970 3  24344729.171    24344752.317                  
     -2288.965       -1783.797          36.000          18.000  
 107495636.473 8  83762901.518 7  20455740.826                    20455756.768  
        46.379          35.867          48.000          44.000  
 127061600.217 5  99009114.194 6  24179022.061                    24179040.158  
     -3376.152       -2631.184          35.000          38.000  
 115181643.789 7  89752017.477 7  21918337.489                    21918356.859  
      2800.375        2181.836          46.000          42.000  
 24  1 10  3 21  4.7000000  0  8G08G24G18G23G16G10G15G32
 128608077.054 5 100214170.228 5  24473316.584                    24473337.501  
      2809.969        2189.363          35.000          35.000  
 127995322.703 6  99736707.482 6  24356701.035                    24356722.542  
       218.723         170.160          39.000          39.000  
