     2.11           OBSERVATION DATA    M (MIXED)           RINEX VERSION / TYPE
GPP.DLL V3.2.21                         18 - MAR - 24 07:43 PGM / RUN BY / DATE 
                                                            MARKER NAME         
                                                            MARKER NUMBER       
                                                            OBSERVER / AGENCY   
6028C00128          APX-15v3 AV         5.50                REC # / TYPE / VERS 
                    E                                       ANT # / TYPE        
 -4667746.9314  2554596.9339 -3505000.2709                  APPROX POSITION XYZ 
        0.0000       -0.0000       -0.0000                  ANTENNA: DELTA H/E/N
     1     1                                                WAVELENGTH FACT L1/2
     8    L1    L2    C1    C2    D1    D2    S1    S2      # / TYPES OF OBSERV 
     0.100                                                  INTERVAL            
  2024     1    10     3    23    0.0000000     GPS         TIME OF FIRST OBS   
  2024     1    10     3    23   59.9000000     GPS         TIME OF LAST OBS    
    18                                                      LEAP SECONDS        
     7                                                      # OF SATELLITES     
   G08   600   600   600   600   600   600   600   600      PRN / # OF OBS      
   G10   600   600   600   600   600   600   600   600      PRN / # OF OBS      
   G15   600   600   600   600   600   600   600   600      PRN / # OF OBS      
   G18   600   600   600   600   600   600   600   600      PRN / # OF OBS      
   G23   600   600   600   600   600   600   600   600      PRN / # OF OBS      
   G24   600   600   600   600   600   600   600   600      PRN / # OF OBS      
   G32   600   600   600   600   600   600   600   600      PRN / # OF OBS      
                                                            END OF HEADER       
 24  1 10  3 23  0.0000000  0  7G08G24G18G23G10G32G15
 128286870.421 6  99963879.680 6  24412192.080    24412212.649        2743.105  
      2137.352          36.000          36.000  
 127972518.35125  99718938.936 6  24352360.112    24352381.516         174.527  
       135.789          31.000          38.000  
 113228652.818 7  88230182.907 7  21546697.961    21546712.939       -1891.684  
     -1474.340          43.000          43.000  
 109907408.089 7  85642193.536 7  20914685.892    20914700.737       -1872.762  
     -1459.324          44.000          44.000  
 107493164.997 8  83760975.682 7  20455270.441    20455285.959          -9.980  
        -7.805          48.000          44.000  
 114861662.276 7  89502681.872 6  21857446.985    21857465.995        2763.805  
      2153.355          47.000          41.000  
 127451979.669 6  99313305.407 6  24253307.887    24253327.048       -3403.891  
     -2652.574          37.000          39.000  
 24  1 10  3 23  0.1000000  0  7G08G24G18G23G10G32G15
 128286596.142 6  99963665.959 6  24412139.887    24412160.456        2742.969  
      2137.359          37.000          36.000  
 127972500.97325  99718925.339 6  24352356.805    24352378.196         174.281  
       136.086          32.000          38.000  
 113228841.977 7  88230330.333 7  21546733.956    21546748.942       -1891.723  
     -1474.289          42.000          42.000  
 109907595.390 7  85642339.471 7  20914721.534    20914736.375       -1872.836  
     -1459.426          44.000          45.000  
 107493166.010 8  83760976.485 7  20455270.634    20455286.155         -10.023  
        -7.996          48.000          44.000  
 114861385.904 7  89502466.489 6  21857394.393    21857413.396        2763.730  
      2153.562          47.000          41.000  
 127452320.104 6  99313570.697 6  24253372.669    24253391.835       -3404.016  
     -2652.824          38.000          39.000  
 24  1 10  3 23  0.2000000  0  7G08G24G18G23G10G32G15
 128286321.816 6  99963452.216 6  24412087.872    24412107.914        2743.156  
      2137.484          37.000          37.000  
 127972483.49125  99718911.717 6  24352353.182    24352375.002         174.695  
       136.207          31.000          38.000  
 113229031.159 7  88230477.752 7  21546769.675    21546784.794       -1891.824  
     -1474.055          43.000          42.000  
 109907782.618 7  85642485.383 7  20914757.436    20914772.274       -1872.602  
     -1459.094          44.000          45.000  
 107493166.984 8  83760977.230 7  20455270.859    20455286.720          -9.832  
        -7.363          48.000          44.000  
 114861109.534 7  89502251.112 6  21857341.614    21857360.705        2763.812  
      2153.941          47.000          41.000  
 127452660.522 6  99313835.964 6  24253437.894    24253456.772       -3404.098  
     -2652.547          38.000          38.000  
 24  1 10  3 23  0.3000000  0  7G08G24G18G23G10G32G15
 128286047.498 6  99963238.439 6  24412035.671    24412055.708        2743.133  
      2137.410          37.000          37.000  
 127972466.05925  99718898.123 6  24352349.865    24352371.682         174.227  
       135.816          30.000          38.000  
 113229220.368 7  88230625.178 7  21546805.681    21546820.798       -1891.875  
     -1474.387          42.000          42.000  
 109907969.909 7  85642631.324 7  20914793.076    20914807.915       -1872.637  
     -1459.352          45.000          45.000  
 107493167.988 8  83760978.023 7  20455271.050    20455286.913          -9.926  
        -7.918          48.000          44.000  
 114860833.185 7  89502035.764 6  21857289.026    21857308.115        2763.566  
      2153.352          47.000          40.000  
 127453000.939 6  99314101.197 6  24253502.674    24253521.545       -3404.184  
     -2652.566          39.000          38.000  
 24  1 10  3 23  0.4000000  0  7G08G24G18G23G10G32G15
 128285773.209 6  99963024.756 6  24411983.210    24412003.595        2742.988  
      2136.977          37.000          37.000  
 127972448.75924  99718884.614 6  24352346.533    24352367.899         173.691  
       135.312          29.000          39.000  
 113229409.616 7  88230772.649 7  21546841.631    21546857.210       -1892.395  
     -1474.676          42.000          42.000  
 109908157.225 7  85642777.305 7  20914828.635    20914843.244       -1872.973  
     -1459.570          45.000          45.000  
 107493169.003 8  83760978.802 7  20455271.360    20455286.955         -10.059  
        -7.867          48.000          44.000  
 114860556.846 7  89501820.443 6  21857236.659    21857255.125        2763.395  
      2153.254          47.000          40.000  
 127453341.398 6  99314366.491 6  24253568.445    24253586.192       -3404.363  
     -2652.727          40.000          38.000  
 24  1 10  3 23  0.5000000  0  7G08G24G18G23G10G32G15
 128285498.931 6  99962810.983 6  24411931.016    24411951.389        2742.977  
      2137.488          37.000          37.000  
 127972431.36624  99718871.092 6  24352343.224    24352364.596         173.961  
       135.164          28.000          39.000  
 113229598.909 7  88230920.126 7  21546877.652    21546893.225       -1892.684  
     -1474.723          43.000          42.000  
 109908344.525 7  85642923.229 7  20914864.277    20914878.880       -1872.992  
     -1459.457          45.000          44.000  
 107493170.020 8  83760979.599 7  20455271.554    20455287.150         -10.137  
        -8.020          48.000          44.000  
 114860280.552 7  89501605.128 6  21857184.082    21857202.543        2763.148  
      2153.023          47.000          40.000  
 127453681.835 6  99314631.767 6  24253633.228    24253650.975       -3404.457  
     -2652.887          40.000          38.000  
 24  1 10  3 23  0.6000000  0  7G08G24G18G23G10G32G15
 128285224.553 6  99962597.206 6  24411878.937    24411899.362        2743.352  
      2137.652          37.000          37.000  
 127972413.93824  99718857.553 6  24352339.970    24352361.704         174.047  
       135.305          27.000          39.000  
 113229788.208 7  88231067.601 7  21546914.401    21546929.670       -1892.691  
     -1474.883          43.000          43.000  
 109908531.817 7  85643069.178 7  20914899.699    20914914.616       -1872.922  
     -1459.328          45.000          45.000  
 107493171.037 8  83760980.389 7  20455271.677    20455287.663         -10.133  
        -7.848          48.000          44.000  
 114860004.243 7  89501389.822 6  21857131.346    21857149.893        2763.102  
      2152.828          47.000          40.000  
 127454022.296 6  99314897.023 6  24253699.117    24253715.987       -3404.406  
     -2652.219          40.000          38.000  
 24  1 10  3 23  0.7000000  0  7G08G24G18G23G10G32G15
 128284950.231 6  99962383.438 6  24411826.735    24411847.158        2743.301  
      2137.785          37.000          37.000  
 127972396.73824  99718844.015 6  24352336.697    24352358.398         173.062  
       135.406          28.000          39.000  
 113229977.458 7  88231215.079 7  21546950.414    21546965.686       -1892.613  
     -1474.824          43.000          43.000  
 109908719.103 7  85643215.108 7  20914935.338    20914950.254       -1872.926  
     -1459.438          45.000          45.000  
 107493172.031 8  83760981.173 7  20455271.866    20455287.855         -10.086  
        -8.008          48.000          44.000  
 114859727.965 7  89501174.558 6  21857078.772    21857097.323        2762.875  
      2152.898          47.000          40.000  
 127454362.717 6  99315162.269 6  24253763.897    24253780.763       -3404.356  
     -2652.859          40.000          38.000  
 24  1 10  3 23  0.8000000  0  7G08G24G18G23G10G32G15
 128284675.895 6  99962169.680 6  24411774.288    24411794.925        2743.340  
      2137.750          37.000          37.000  
 127972379.23934  99718830.478 6  24352333.789    24352355.326         174.055  
       135.273          29.000          39.000  
 113230166.638 7  88231362.576 7  21546986.734    21547002.073       -1892.125  
     -1474.719          42.000          43.000  
 109908906.383 7  85643361.056 7  20914971.047    20914985.662       -1872.777  
     -1459.293          45.000          45.000  
 107493173.024 8  83760981.945 7  20455271.727    20455288.309          -9.875  
        -7.629          48.000          44.000  
 114859451.679 7  89500959.276 6  21857026.056    21857044.804        2762.965  
      2152.746          47.000          41.000  
 127454703.124 6  99315427.568 6  24253828.542    24253845.505       -3404.000  
     -2652.941          38.000          38.000  
 24  1 10  3 23  0.9000000  0  7G08G24G18G23G10G32G15
 128284401.512 6  99961955.894 6  24411722.075    24411742.716        2743.516  
      2137.723          37.000          37.000  
 127972361.954 4  99718816.967 6  24352330.499    24352352.027         173.465  
       134.973          28.000          39.000  
 113230355.939 6  88231510.083 7  21547022.757    21547038.096       -1892.621  
     -1474.762          41.000          43.000  
 109909093.665 7  85643506.968 7  20915006.686    20915021.295       -1872.812  
     -1459.203          45.000          45.000  
 107493174.016 8  83760982.728 7  20455271.915    20455288.500          -9.910  
        -7.699          48.000          45.000  
 114859175.411 7  89500744.020 6  21856973.484    21856992.236        2762.730  
      2152.633          47.000          41.000  
 127455043.521 6  99315692.838 6  24253893.317    24253910.287       -3404.117  
     -2652.688          37.000          38.000  
 24  1 10  3 23  1.0000000  0  7G08G24G18G23G10G32G15
 128284127.177 6  99961742.116 6  24411669.777    24411690.712        2743.449  
      2137.719          37.000          37.000  
 127972344.604 4  99718803.431 6  24352327.221    24352348.753         173.695  
       135.359          27.000          39.000  
 113230545.213 7  88231657.512 7  21547057.907    21547073.943       -1892.828  
     -1474.738          42.000          42.000  
 109909280.930 7  85643652.892 7  20915042.477    20915056.564       -1872.777  
     -1459.215          45.000          44.000  
 107493175.009 8  83760983.492 7  20455272.409    20455288.858          -9.926  
        -7.617          48.000          45.000  
 114858899.164 7  89500528.769 6  21856920.658    21856939.732        2762.621  
      2152.539          47.000          41.000  
 127455383.872 6  99315958.128 6  24253957.381    24253975.175       -3403.867  
     -2652.895          36.000          38.000  
 24  1 10  3 23  1.1000000  0  7G08G24G18G23G10G32G15
 128283852.830 6  99961528.291 6  24411617.570    24411638.494        2743.492  
      2138.148          37.000          37.000  
 127972327.196 4  99718789.935 6  24352323.909    24352345.457         173.562  
       135.004          28.000          39.000  
 113230734.528 7  88231805.039 7  21547093.933    21547109.971       -1892.879  
     -1475.051          43.000          42.000  
 109909468.196 7  85643798.814 7  20915078.113    20915092.199       -1872.688  
     -1459.301          45.000          44.000  
 107493176.017 8  83760984.277 7  20455272.601    20455289.050         -10.008  
        -7.859          48.000          45.000  
 114858622.939 7  89500313.513 6  21856868.094    21856887.165        2762.465  
      2152.590          47.000          41.000  
 127455724.280 5  99316223.343 6  24254022.158    24254039.943       -3403.922  
     -2652.281          35.000          38.000  
 24  1 10  3 23  1.2000000  0  7G08G24G18G23G10G32G15
 128283578.448 6  99961314.541 6  24411565.545    24411586.404        2743.668  
      2137.574          37.000          37.000  
 127972309.908 4  99718776.411 6  24352320.549    24352341.935         173.199  
       135.168          29.000          39.000  
 113230923.824 7  88231952.541 7  21547130.634    21547144.945       -1892.984  
     -1474.992          44.000          42.000  
 109909655.493 7  85643944.755 7  20915113.098    20915127.269       -1872.734  
     -1459.383          44.000          44.000  
 107493177.033 8  83760985.063 7  20455273.208    20455289.297         -10.105  
        -7.852          48.000          45.000  
 114858346.721 7  89500098.306 6  21856815.735    21856834.867        2762.332  
      2152.188          47.000          41.000  
 127456064.682 6  99316488.618 6  24254086.387    24254104.765       -3404.004  
     -2652.672          36.000          38.000  
 24  1 10  3 23  1.3000000  0  7G08G24G18G23G10G32G15
 128283304.107 6  99961100.754 6  24411513.339    24411534.195        2743.539  
      2137.883          37.000          37.000  
 127972292.578 5  99718762.938 6  24352317.251    24352338.645         173.289  
       134.832          31.000          39.000  
 113231113.137 7  88232100.057 7  21547166.660    21547180.970       -1893.098  
     -1475.414          44.000          43.000  
 109909842.798 7  85644090.729 7  20915148.741    20915162.918       -1873.031  
     -1459.680          44.000          44.000  
 107493178.084 8  83760985.885 7  20455273.408    20455289.498         -10.402  
        -8.293          48.000          45.000  
 114858070.537 7  89499883.094 6  21856763.179    21856782.310        2761.949  
      2152.000          47.000          41.000  
 127456405.097 6  99316753.902 6  24254151.166    24254169.550       -3404.070  
     -2652.730          37.000          38.000  
 24  1 10  3 23  1.4000000  0  7G08G24G18G23G10G32G15
 128283029.742 6  99960886.988 6  24411461.044    24411481.999        2743.461  
      2137.711          37.000          37.000  
 127972275.228 5  99718749.439 6  24352314.402    24352335.669         173.234  
       134.867          31.000          39.000  
 113231302.472 7  88232247.651 7  21547203.103    21547217.288       -1893.246  
     -1475.656          44.000          43.000  
 109910030.144 7  85644236.705 7  20915184.376    20915198.777       -1873.258  
     -1459.836          44.000          44.000  
 107493179.159 8  83760986.724 7  20455273.574    20455289.851         -10.590  
        -8.520          48.000          45.000  
 114857794.384 7  89499667.887 6  21856710.824    21856729.957        2761.758  
      2152.039          47.000          41.000  
 127456745.533 6  99317019.155 6  24254215.863    24254234.835       -3404.215  
     -2652.672          37.000          38.000  
 24  1 10  3 23  1.5000000  0  7G08G24G18G23G10G32G15
 128282755.452 6  99960673.224 6  24411408.848    24411429.795        2743.266  
      2137.574          37.000          37.000  
 127972257.933 5  99718735.928 6  24352311.111    24352332.369         173.371  
       135.176          32.000          39.000  
 113231491.888 7  88232395.197 7  21547239.148    21547253.320       -1893.656  
     -1475.391          43.000          43.000  
 109910217.499 7  85644382.699 7  20915220.028    20915234.431       -1873.398  
     -1459.879          44.000          44.000  
 107493180.242 8  83760987.569 7  20455273.780    20455290.057         -10.691  
        -8.457          48.000          44.000  
 114857518.217 7  89499452.719 6  21856658.271    21856677.411        2761.691  
      2151.680          47.000          41.000  
 127457085.922 6  99317284.418 6  24254280.637    24254299.615       -3404.051  
     -2652.559          38.000          38.000  
 24  1 10  3 23  1.6000000  0  7G08G24G18G23G10G32G15
 128282481.113 6  99960459.465 6  24411356.823    24411377.288        2743.305  
      2137.414          37.000          37.000  
 127972240.652 5  99718722.440 6  24352307.745    24352328.833         173.008  
       134.965          32.000          39.000  
 113231681.231 7  88232542.736 7  21547275.092    21547289.968       -1893.664  
     -1475.594          44.000          43.000  
 109910404.824 7  85644528.652 7  20915255.660    20915270.472       -1873.379  
     -1459.746          44.000          44.000  
 107493181.318 8  83760988.402 7  20455273.875    20455289.862         -10.754  
        -8.465          48.000          45.000  
 114857242.064 7  89499237.518 6  21856605.534    21856624.888        2761.609  
      2151.934          47.000          41.000  
 127457426.396 6  99317549.675 6  24254345.997    24254364.190       -3404.461  
     -2652.504          38.000          38.000  
 24  1 10  3 23  1.7000000  0  7G08G24G18G23G10G32G15
 128282206.751 6  99960245.688 6  24411304.613    24411325.082        2743.508  
      2137.820          37.000          37.000  
 127972223.318 5  99718708.978 6  24352304.446    24352325.546         173.277  
       134.680          32.000          39.000  
 113231870.557 7  88232690.291 7  21547311.120    21547326.002       -1893.371  
     -1475.488          44.000          43.000  
 109910592.141 7  85644674.609 7  20915291.305    20915306.116       -1873.230  
     -1459.582          44.000          44.000  
 107493182.368 8  83760989.236 7  20455274.075    20455290.066         -10.562  
        -8.133          48.000          45.000  
 114856965.863 7  89499022.315 6  21856552.974    21856572.333        2761.793  
      2152.156          47.000          41.000  
 127457766.853 6  99317814.935 6  24254410.784    24254428.970       -3404.442  
     -2652.816          38.000          37.000  
 24  1 10  3 23  1.8000000  0  7G08G24G18G23G10G32G15
 128281932.396 6  99960031.894 6  24411252.405    24411273.059        2743.543  
      2138.008          37.000          37.000  
 127972205.866 5  99718695.451 6  24352300.906    24352321.484         173.832  
       135.238          31.000          39.000  
 113232059.902 7  88232837.826 7  21547346.948    21547361.235       -1893.344  
     -1475.184          44.000          42.000  
 109910779.434 7  85644820.566 7  20915326.985    20915341.761       -1873.031  
     -1459.379          44.000          44.000  
 107493183.409 8  83760990.029 7  20455274.008    20455290.267         -10.477  
        -8.020          48.000          45.000  
 114856689.688 7  89498807.096 6  21856500.318    21856519.727        2761.859  
      2151.988          47.000          41.000  
 127458107.232 6  99318080.205 6  24254475.658    24254492.978       -3404.176  
     -2652.496          38.000          37.000  
 24  1 10  3 23  1.9000000  0  7G08G24G18G23G10G32G15
 128281658.059 6  99959818.122 6  24411200.201    24411220.853        2743.477  
      2137.711          37.000          37.000  
 127972188.657 5  99718681.969 6  24352297.632    24352318.192         172.922  
       134.586          30.000          39.000  
 113232249.239 7  88232985.313 7  21547382.978    21547397.253       -1893.254  
     -1474.879          43.000          42.000  
 109910966.721 7  85644966.506 7  20915362.624    20915377.401       -1872.883  
     -1459.266          44.000          44.000  
 107493184.429 8  83760990.834 7  20455274.202    20455290.464         -10.309  
        -7.930          48.000          44.000  
 114856413.479 7  89498591.875 6  21856447.758    21856467.168        2762.020  
      2152.289          47.000          41.000  
 127458447.667 6  99318345.420 6  24254540.440    24254557.746       -3404.230  
     -2652.473          38.000          37.000  
 24  1 10  3 23  2.0000000  0  7G08G24G18G23G10G32G15
 128281383.725 6  99959604.367 6  24411148.043    24411169.059        2743.375  
      2137.488          37.000          37.000  
 127972171.298 5  99718668.489 6  24352294.141    24352314.533         173.340  
       134.766          30.000          39.000  
 113232438.571 7  88233132.805 7  21547418.311    21547433.287       -1893.363  
     -1475.121          43.000          43.000  
 109911154.027 7  85645112.447 7  20915398.377    20915413.478       -1872.980  
     -1459.469          44.000          45.000  
 107493185.469 8  83760991.635 7  20455274.314    20455290.456         -10.297  
        -8.020          48.000          45.000  
 114856137.302 7  89498376.667 6  21856395.148    21856414.558        2761.930  
      2152.086          47.000          41.000  
 127458788.082 6  99318610.707 6  24254605.321    24254622.055       -3404.297  
     -2652.812          39.000          36.000  
 24  1 10  3 23  2.1000000  0  7G08G24G18G23G10G32G15
 128281109.360 6  99959390.601 6  24411095.834    24411116.855        2743.566  
      2137.895          37.000          37.000  
 127972154.070 5  99718655.003 6  24352290.862    24352311.239         172.750  
       134.887          30.000          39.000  
 113232627.891 7  88233280.341 7  21547454.337    21547469.317       -1893.395  
     -1475.359          43.000          43.000  
 109911341.315 7  85645258.389 7  20915434.016    20915449.119       -1872.914  
     -1459.410          44.000          45.000  
 107493186.487 8  83760992.441 7  20455274.508    20455290.653         -10.262  
        -8.062          48.000          45.000  
 114855861.082 7  89498161.465 6  21856342.585    21856362.003        2761.934  
      2152.062          47.000          41.000  
 127459128.539 6  99318875.973 6  24254670.108    24254686.836       -3404.383  
     -2652.457          39.000          36.000  
 24  1 10  3 23  2.2000000  0  7G08G24G18G23G10G32G15
 128280835.060 6  99959176.816 6  24411043.683    24411064.998        2743.262  
      2137.738          37.000          37.000  
 127972136.706 5  99718641.529 6  24352287.167    24352307.644         173.223  
       134.977          30.000          38.000  
 113232817.204 7  88233427.932 7  21547490.644    21547505.423       -1893.109  
     -1475.719          43.000          43.000  
 109911528.617 7  85645404.346 7  20915469.432    20915485.193       -1873.004  
     -1459.441          44.000          45.000  
 107493187.541 8  83760993.267 7  20455274.903    20455290.863         -10.406  
        -8.191          48.000          45.000  
 114855584.920 7  89497946.249 6  21856290.213    21856309.406        2761.746  
      2152.012          47.000          41.000  
 127459468.995 6  99319141.214 6  24254735.230    24254751.845       -3404.445  
     -2652.695          40.000          36.000  
 24  1 10  3 23  2.3000000  0  7G08G24G18G23G10G32G15
 128280560.725 6  99958963.073 6  24410991.479    24411012.800        2743.375  
      2137.547          37.000          37.000  
 127972119.562 5  99718628.054 6  24352283.905    24352304.353         172.574  
       134.652          31.000          38.000  
 113233006.540 7  88233575.473 7  21547526.673    21547541.454       -1893.340  
     -1475.289          43.000          43.000  
 109911715.923 7  85645550.298 7  20915505.075    20915520.836       -1873.066  
     -1459.695          44.000          45.000  
 107493188.590 8  83760994.073 7  20455275.103    20455291.060         -10.477  
        -8.160          48.000          45.000  
 114855308.751 7  89497731.062 6  21856237.660    21856256.855        2761.766  
      2151.820          47.000          41.000  
 127459809.422 6  99319406.495 6  24254800.011    24254816.629       -3404.422  
     -2652.887          41.000          36.000  
 24  1 10  3 23  2.4000000  0  7G08G24G18G23G10G32G15
 128280286.349 6  99958749.282 6  24410938.743    24410960.582        2743.445  
      2137.613          37.000          37.000  
 127972102.180 5  99718614.603 6  24352280.566    24352300.795         173.066  
       134.730          31.000          38.000  
 113233195.928 7  88233722.998 7  21547562.580    21547577.465       -1893.652  
     -1475.512          43.000          43.000  
 109911903.248 7  85645696.268 7  20915540.902    20915556.226       -1873.074  
     -1459.609          44.000          45.000  
 107493189.642 8  83760994.896 7  20455275.537    20455291.300         -10.516  
        -8.227          48.000          45.000  
 114855032.599 7  89497515.874 6  21856185.266    21856204.445        2761.738  
      2151.926          47.000          41.000  
 127460149.854 6  99319671.768 6  24254865.184    24254881.310       -3404.238  
     -2652.773          41.000          37.000  
 24  1 10  3 23  2.5000000  0  7G08G24G18G23G10G32G15
 128280011.996 6  99958535.516 6  24410886.536    24410908.378        2743.398  
      2137.953          37.000          37.000  
 127972084.898 5  99718601.120 6  24352277.278    24352297.503         173.004  
       134.668          31.000          38.000  
 113233385.307 7  88233870.573 7  21547598.617    21547613.504       -1893.750  
     -1475.805          43.000          43.000  
 109912090.583 7  85645842.251 7  20915576.550    20915591.876       -1873.215  
     -1459.797          44.000          45.000  
 107493190.738 8  83760995.745 7  20455275.746    20455291.507         -10.715  
        -8.406          48.000          44.000  
 114854756.459 7  89497300.696 6  21856132.718    21856151.896        2761.453  
      2151.688          47.000          40.000  
 127460490.291 6  99319937.028 6  24254929.967    24254946.089       -3404.488  
     -2652.582          41.000          37.000  
 24  1 10  3 23  2.6000000  0  7G08G24G18G23G10G32G15
 128279737.711 6  99958321.744 6  24410834.247    24410855.727        2743.242  
      2137.598          36.000          37.000  
 127972067.615 5  99718587.660 6  24352274.309    24352294.262         172.801  
       134.727          31.000          38.000  
 113233574.700 7  88234018.169 7  21547634.720    21547649.346       -1893.820  
     -1475.859          43.000          43.000  
 109912277.950 7  85645988.224 7  20915612.408    20915627.204       -1873.617  
     -1459.859          43.000          45.000  
 107493191.833 8  83760996.598 7  20455276.040    20455292.028         -10.906  
        -8.570          48.000          44.000  
 114854480.327 7  89497085.555 6  21856079.946    21856099.192        2761.406  
      2151.707          47.000          41.000  
 127460830.728 6  99320202.289 6  24254995.164    24255011.173       -3404.320  
     -2652.633          41.000          37.000  
 24  1 10  3 23  2.7000000  0  7G08G24G18G23G10G32G15
 128279463.376 6  99958107.996 6  24410782.043    24410803.528        2743.379  
      2137.586          36.000          37.000  
 127972050.435 5  99718574.213 6  24352271.040    24352290.978         172.469  
       134.418          31.000          38.000  
 113233764.073 7  88234165.714 7  21547670.756    21547685.378       -1893.859  
     -1475.590          44.000          43.000  
 109912465.292 7  85646134.199 7  20915648.058    20915662.852       -1873.527  
     -1459.918          44.000          44.000  
 107493192.941 8  83760997.467 7  20455276.251    20455292.240         -10.957  
        -8.586          48.000          44.000  
 114854204.194 7  89496870.349 6  21856027.399    21856046.637        2761.320  
      2151.680          47.000          41.000  
 127461171.174 6  99320467.555 6  24255059.949    24255075.954       -3404.414  
     -2652.664          41.000          37.000  
 24  1 10  3 23  2.8000000  0  7G08G24G18G23G10G32G15
 128279189.060 6  99957894.262 6  24410729.975    24410750.949        2743.262  
      2137.223          36.000          37.000  
 127972033.126 5  99718560.748 6  24352267.894    24352288.206         172.500  
       134.684          30.000          39.000  
 113233953.470 7  88234313.297 7  21547707.313    21547722.067       -1893.746  
     -1475.594          44.000          43.000  
 109912652.635 7  85646280.194 7  20915683.560    20915698.068       -1873.434  
     -1459.801          44.000          44.000  
 107493194.045 8  83760998.321 7  20455276.297    20455292.613         -11.047  
        -8.652          48.000          44.000  
 114853928.066 7  89496655.203 6  21855974.901    21855994.299        2761.281  
      2151.492          47.000          41.000  
 127461511.605 6  99320732.819 6  24255125.067    24255140.742       -3404.426  
     -2652.711          41.000          36.000  
 24  1 10  3 23  2.9000000  0  7G08G24G18G23G10G32G15
 128278914.759 6  99957680.502 6  24410677.777    24410698.747        2743.051  
      2137.348          36.000          37.000  
 127972015.881 5  99718547.267 6  24352264.613    24352284.913         172.652  
       134.547          30.000          38.000  
 113234142.874 7  88234460.865 7  21547743.356    21547758.105       -1894.059  
     -1475.887          44.000          43.000  
 109912839.984 7  85646426.190 7  20915719.211    20915733.722       -1873.426  
     -1460.016          44.000          44.000  
 107493195.163 8  83760999.198 7  20455276.510    20455292.827         -11.070  
        -8.754          48.000          44.000  
 114853651.939 7  89496440.029 6  21855922.356    21855941.752        2761.305  
      2151.746          47.000          41.000  
 127461852.056 6  99320998.152 6  24255189.852    24255205.539       -3404.352  
     -2653.258          41.000          36.000  
 24  1 10  3 23  3.0000000  0  7G08G24G18G23G10G32G15
 128278640.489 6  99957466.768 6  24410625.797    24410646.566        2742.895  
      2137.094          36.000          37.000  
 127971998.570 5  99718533.847 6  24352261.694    24352281.988         172.777  
       134.285          30.000          38.000  
 113234332.282 7  88234608.472 7  21547779.203    21547794.652       -1893.965  
     -1475.844          43.000          43.000  
 109913027.339 7  85646572.210 7  20915755.067    20915769.538       -1873.434  
     -1459.934          44.000          44.000  
 107493196.287 8  83761000.079 7  20455276.529    20455292.620         -11.141  
        -8.680          48.000          44.000  
 114853375.832 7  89496224.873 6  21855869.892    21855889.154        2761.281  
      2151.641          47.000          40.000  
 127462192.472 6  99321263.399 6  24255255.131    24255269.745       -3404.344  
     -2652.801          41.000          36.000  
 24  1 10  3 23  3.1000000  0  7G08G24G18G23G10G32G15
 128278366.183 6  99957253.043 6  24410573.598    24410594.372        2742.977  
      2137.469          36.000          37.000  
 127971981.439 5  99718520.425 6  24352258.434    24352278.710         172.156  
       134.348          30.000          38.000  
 113234521.658 7  88234756.051 7  21547815.240    21547830.693       -1893.844  
     -1475.867          43.000          43.000  
 109913214.711 7  85646718.206 7  20915790.723    20915805.192       -1873.559  
     -1459.922          44.000          44.000  
 107493197.414 8  83761000.937 7  20455276.743    20455292.830         -11.223  
        -8.648          48.000          44.000  
 114853099.711 7  89496009.733 6  21855817.348    21855836.614        2761.250  
      2151.504          47.000          41.000  
 127462532.929 6  99321528.764 6  24255319.918    24255334.550       -3404.375  
     -2653.418          41.000          36.000  
 24  1 10  3 23  3.2000000  0  7G08G24G18G23G10G32G15
 128278091.947 6  99957039.342 6  24410521.202    24410542.458        2742.699  
      2136.957          36.000          36.000  
 127971964.205 4  99718506.999 6  24352255.240    24352276.033         172.359  
       134.176          29.000          38.000  
 113234711.045 7  88234903.626 7  21547850.975    21547866.224       -1893.875  
     -1475.856          44.000          43.000  
 109913402.090 7  85646864.176 7  20915826.630    20915841.284       -1873.863  
     -1459.941          44.000          44.000  
 107493198.550 8  83761001.822 7  20455276.670    20455292.780         -11.301  
        -8.965          48.000          44.000  
 114852823.584 7  89495794.548 6  21855765.092    21855783.790        2761.145  
      2151.703          47.000          41.000  
 127462873.413 6  99321794.020 6  24255384.202    24255398.703       -3404.644  
     -2652.457          41.000          36.000  
 24  1 10  3 23  3.3000000  0  7G08G24G18G23G10G32G15
 128277817.674 6  99956825.625 6  24410469.009    24410490.266        2742.723  
      2137.266          36.000          37.000  
 127971946.848 4  99718493.569 6  24352251.937    24352272.753         172.789  
       134.336          29.000          38.000  
 113234900.460 7  88235051.216 7  21547887.019    21547902.267       -1894.043  
     -1475.785          44.000          43.000  
 109913589.464 7  85647010.187 7  20915862.286    20915876.942       -1873.793  
     -1460.102          45.000          44.000  
 107493199.675 8  83761002.727 7  20455276.884    20455293.001         -11.336  
        -8.898          48.000          44.000  
 114852547.469 7  89495579.421 6  21855712.549    21855731.254        2761.188  
      2151.461          47.000          40.000  
 127463213.899 6  99322059.346 6  24255448.995    24255463.498       -3404.734  
     -2652.988          40.000          36.000  
 24  1 10  3 23  3.4000000  0  7G08G24G18G23G10G32G15
 128277543.404 6  99956611.913 6  24410416.903    24410438.271        2742.727  
      2137.023          36.000          37.000  
 127971929.588 4  99718480.103 6  24352248.442    24352269.754         172.758  
       134.414          29.000          39.000  
 113235089.853 7  88235198.773 7  21547923.060    21547938.302       -1894.074  
     -1475.856          44.000          43.000  
 109913776.816 7  85647156.199 7  20915898.422    20915912.576       -1873.531  
     -1459.922          45.000          44.000  
 107493200.798 8  83761003.579 7  20455277.262    20455292.936         -11.172  
        -8.637          48.000          44.000  
 114852271.350 7  89495364.246 6  21855660.130    21855678.511        2761.281  
      2151.641          47.000          40.000  
 127463554.329 6  99322324.657 5  24255513.214    24255527.751       -3404.500  
     -2652.875          39.000          35.000  
 24  1 10  3 23  3.5000000  0  7G08G24G18G23G10G32G15
 128277269.139 6  99956398.197 6  24410364.712    24410386.079        2742.695  
      2137.246          36.000          37.000  
 127971912.400 4  99718466.705 6  24352245.171    24352266.482         172.270  
       134.051          29.000          39.000  
 113235279.255 7  88235346.385 7  21547959.102    21547974.350       -1893.977  
     -1475.953          44.000          43.000  
 109913964.189 7  85647302.189 7  20915934.078    20915948.228       -1873.605  
     -1459.828          45.000          45.000  
 107493201.925 8  83761004.454 7  20455277.476    20455293.149         -11.273  
        -8.922          48.000          44.000  
 114851995.221 7  89495149.108 6  21855607.585    21855625.972        2761.223  
      2151.652          47.000          40.000  
 127463894.811 6  99322589.935 6  24255578.005    24255592.534       -3404.660  
     -2653.016          39.000          36.000  
 24  1 10  3 23  3.6000000  0  7G08G24G18G23G10G32G15
 128276994.895 6  99956184.497 6  24410312.814    24410333.891        2742.574  
      2137.137          36.000          37.000  
 127971895.129 5  99718453.264 6  24352241.853    24352263.496         172.703  
       134.352          30.000          39.000  
 113235468.642 7  88235493.977 7  21547994.899    21548009.698       -1893.883  
     -1475.824          44.000          42.000  
 109914151.557 7  85647448.188 7  20915969.920    20915983.937       -1873.680  
     -1460.047          45.000          45.000  
 107493203.051 8  83761005.341 7  20455277.644    20455293.647         -11.270  
        -8.711          48.000          44.000  
 114851719.103 7  89494933.911 6  21855554.760    21855572.981        2761.180  
      2151.445          47.000          40.000  
 127464235.271 6  99322855.253 6  24255642.199    24255657.328       -3404.562  
     -2652.906          39.000          36.000  
 24  1 10  3 23  3.7000000  0  7G08G24G18G23G10G32G15
 128276720.621 6  99955970.785 6  24410260.622    24410281.701        2742.641  
      2136.859          36.000          37.000  
 127971877.914 5  99718439.848 6  24352238.577    24352260.220         172.238  
       134.273          31.000          39.000  
 113235658.057 7  88235641.565 7  21548030.943    21548045.741       -1894.016  
     -1475.856          44.000          42.000  
 109914338.912 7  85647594.183 7  20916005.573    20916019.591       -1873.590  
     -1459.992          44.000          45.000  
 107493204.193 8  83761006.222 7  20455277.861    20455293.862         -11.305  
        -8.855          48.000          44.000  
 114851442.997 7  89494718.795 6  21855502.219    21855520.448        2761.137  
      2151.469          47.000          40.000  
 127464575.736 6  99323120.547 6  24255706.987    24255722.115       -3404.641  
     -2653.004          39.000          37.000  
 24  1 10  3 23  3.8000000  0  7G08G24G18G23G10G32G15
 128276446.366 6  99955757.060 6  24410208.363    24410229.546        2742.562  
      2137.031          36.000          37.000  
 127971860.690 5  99718426.411 6  24352235.190    24352256.938         172.410  
       134.285          31.000          39.000  
 113235847.459 7  88235789.138 7  21548067.219    21548081.608       -1893.984  
     -1475.801          43.000          42.000  
 109914526.275 7  85647740.196 7  20916040.563    20916055.506       -1873.594  
     -1459.984          44.000          45.000  
 107493205.326 8  83761007.104 7  20455278.186    20455294.023         -11.336  
        -8.809          48.000          44.000  
 114851166.895 7  89494503.622 6  21855449.686    21855467.564        2761.098  
      2151.523          47.000          40.000  
 127464916.147 6  99323385.828 6  24255771.406    24255787.111       -3404.383  
     -2652.750          39.000          37.000  
 24  1 10  3 23  3.9000000  0  7G08G24G18G23G10G32G15
 128276172.102 6  99955543.396 6  24410156.172    24410177.367        2742.648  
      2136.785          36.000          36.000  
 127971843.406 5  99718412.990 6  24352231.901    24352253.661         172.645  
       134.098          31.000          39.000  
 113236036.862 7  88235936.735 7  21548103.262    21548117.653       -1893.988  
     -1475.930          43.000          42.000  
 109914713.638 7  85647886.166 7  20916076.217    20916091.154       -1873.664  
     -1459.844          44.000          45.000  
 107493206.464 8  83761008.009 7  20455278.403    20455294.244         -11.289  
        -8.828          48.000          44.000  
 114850890.783 7  89494288.486 6  21855397.144    21855415.026        2761.043  
      2151.484          47.000          40.000  
 127465256.644 6  99323651.126 6  24255836.200    24255851.899       -3404.692  
     -2652.879          39.000          37.000  
 24  1 10  3 23  4.0000000  0  7G08G24G18G23G10G32G15
 128275897.890 6  99955329.644 6  24410104.100    24410125.307        2742.371  
      2137.164          36.000          36.000  
 127971826.268 5  99718399.573 6  24352228.812    24352250.392         171.969  
       134.301          31.000          39.000  
 113236226.315 7  88236084.341 7  21548139.235    21548154.254       -1894.281  
     -1476.051          43.000          43.000  
 109914901.003 7  85648032.176 7  20916111.410    20916126.936       -1873.730  
     -1460.215          44.000          45.000  
 107493207.628 8  83761008.913 7  20455278.538    20455294.473         -11.535  
        -9.098          48.000          44.000  
 114850614.704 7  89494073.352 6  21855344.639    21855362.707        2760.898  
      2151.215          47.000          41.000  
 127465597.096 6  99323916.412 6  24255900.791    24255917.106       -3404.547  
     -2653.023          38.000          38.000  
 24  1 10  3 23  4.1000000  0  7G08G24G18G23G10G32G15
 128275623.650 6  99955116.022 6  24410051.914    24410073.139        2742.371  
      2136.566          36.000          36.000  
 127971809.023 5  99718386.182 6  24352225.530    24352247.122         172.145  
       134.004          31.000          39.000  
 113236415.728 7  88236231.932 7  21548175.279    21548190.297       -1894.332  
     -1476.090          42.000          43.000  
 109915088.397 7  85648178.218 7  20916147.070    20916162.601       -1873.828  
     -1460.219          44.000          45.000  
 107493208.792 8  83761009.801 7  20455278.760    20455294.690         -11.648  
        -9.160          48.000          44.000  
 114850338.649 7  89493858.244 6  21855292.107    21855310.175        2760.789  
      2151.312          47.000          41.000  
 127465937.578 6  99324181.730 6  24255965.582    24255981.900       -3404.797  
     -2653.051          38.000          38.000  
 24  1 10  3 23  4.2000000  0  7G08G24G18G23G10G32G15
 128275349.435 6  99954902.336 6  24409999.873    24410021.118        2742.355  
      2136.879          37.000          37.000  
 127971791.843 5  99718372.738 6  24352221.855    24352243.675         171.996  
       134.234          32.000          39.000  
 113236605.159 7  88236379.535 7  21548211.085    21548226.938       -1894.293  
     -1475.914          42.000          43.000  
 109915275.784 7  85648324.218 7  20916183.033    20916198.052       -1873.824  
     -1460.203          44.000          45.000  
 107493209.959 8  83761010.727 7  20455278.951    20455294.916         -11.621  
        -9.086          48.000          44.000  
 114850062.555 7  89493643.115 6  21855239.483    21855258.357        2760.820  
      2151.066          47.000          41.000  
 127466278.038 6  99324447.036 6  24256029.870    24256046.987       -3404.524  
     -2652.980          38.000          38.000  
 24  1 10  3 23  4.3000000  0  7G08G24G18G23G10G32G15
 128275075.181 6  99954688.606 6  24409947.685    24409968.923        2742.348  
      2137.121          37.000          37.000  
 127971774.671 5  99718359.349 6  24352218.587    24352240.405         171.930  
       134.004          31.000          39.000  
 113236794.615 7  88236527.147 7  21548247.137    21548262.986       -1894.344  
     -1476.215          42.000          43.000  
 109915463.179 7  85648470.222 7  20916218.694    20916233.708       -1873.926  
     -1460.043          45.000          45.000  
 107493211.117 8  83761011.619 7  20455279.171    20455295.133         -11.613  
        -9.039          48.000          44.000  
 114849786.486 7  89493427.971 6  21855186.948    21855205.817        2760.734  
      2151.438          47.000          41.000  
 127466618.510 6  99324712.328 6  24256094.659    24256111.774       -3404.680  
     -2652.820          37.000          38.000  
 24  1 10  3 23  4.4000000  0  7G08G24G18G23G10G32G15
 128274800.942 6  99954474.940 6  24409895.616    24409916.713        2742.512  
      2136.809          37.000          37.000  
 127971757.396 5  99718345.945 6  24352215.206    24352236.811         172.207  
       133.828          31.000          39.000  
 113236984.012 7  88236674.772 7  21548283.248    21548299.444       -1894.230  
     -1476.293          43.000          43.000  
 109915650.552 7  85648616.229 7  20916254.756    20916269.271       -1873.777  
     -1460.137          45.000          44.000  
 107493212.285 8  83761012.534 7  20455279.698    20455295.240         -11.641  
        -9.020          48.000          44.000  
 114849510.386 7  89493212.831 6  21855134.283    21855153.113        2760.840  
      2151.148          47.000          41.000  
 127466958.995 6  99324977.629 6  24256159.084    24256177.368       -3404.688  
     -2653.184          36.000          38.000  
 24  1 10  3 23  4.5000000  0  7G08G24G18G23G10G32G15
 128274526.659 6  99954261.186 6  24409843.422    24409864.512        2742.605  
      2137.145          36.000          37.000  
 127971740.162 5  99718332.546 6  24352211.926    24352233.539         172.352  
       134.086          31.000          39.000  
 113237173.414 7  88236822.361 7  21548319.290    21548335.486       -1894.062  
     -1475.773          43.000          43.000  
 109915837.916 7  85648762.247 7  20916290.410    20916304.930       -1873.629  
     -1459.914          45.000          44.000  
 107493213.416 8  83761013.407 7  20455279.913    20455295.453         -11.430  
        -8.805          48.000          44.000  
 114849234.298 7  89492997.716 6  21855081.745    21855100.580        2760.961  
      2151.410          47.000          41.000  
 127467299.408 6  99325242.922 6  24256223.863    24256242.155       -3404.406  
     -2652.664          36.000          38.000  
 24  1 10  3 23  4.6000000  0  7G08G24G18G23G10G32G15
 128274252.387 6  99954047.498 6  24409791.042    24409812.296        2742.684  
      2136.902          37.000          37.000  
 127971723.082 5  99718319.120 6  24352208.254    24352230.323         171.445  
       134.109          30.000          39.000  
 113237362.852 7  88236969.957 7  21548355.542    21548371.242       -1894.086  
     -1475.883          43.000          43.000  
 109916025.297 7  85648908.246 7  20916326.325    20916340.561       -1873.668  
     -1460.078          45.000          44.000  
 107493214.567 8  83761014.316 7  20455279.827    20455295.823         -11.434  
        -9.062          48.000          44.000  
 114848958.223 7  89492782.580 6  21855029.171    21855048.448        2760.816  
      2151.180          47.000          40.000  
 127467639.866 6  99325508.193 6  24256288.564    24256306.929       -3404.520  
     -2652.820          36.000          38.000  
 24  1 10  3 23  4.7000000  0  7G08G24G18G23G10G32G15
 128273978.147 6  99953833.812 6  24409738.856    24409760.111        2742.477  
      2136.789          37.000          37.000  
 127971705.837 4  99718305.718 6  24352204.973    24352227.050         172.117  
       134.285          29.000          39.000  
 113237552.314 7  88237117.599 7  21548391.596    21548407.297       -1894.387  
     -1476.324          43.000          43.000  
 109916212.662 7  85649054.250 7  20916361.980    20916376.216       -1873.703  
     -1460.070          45.000          44.000  
 107493215.716 8  83761015.215 7  20455280.046    20455296.043         -11.539  
        -8.973          48.000          44.000  
 114848682.152 7  89492567.461 6  21854976.637    21854995.914        2760.809  
      2151.270          47.000          40.000  
 127467980.322 6  99325773.518 6  24256353.351    24256371.724       -3404.535  
     -2653.152          36.000          38.000  
 24  1 10  3 23  4.8000000  0  7G08G24G18G23G10G32G15
 128273703.935 6  99953620.117 6  24409686.323    24409708.112        2742.445  
      2136.867          37.000          37.000  
 127971688.630 5  99718292.368 6  24352201.526    24352223.751         172.102  
       133.504          30.000          38.000  
 113237741.760 7  88237265.202 7  21548427.255    21548442.273       -1894.566  
     -1476.375          42.000          43.000  
 109916400.048 7  85649200.271 7  20916397.325    20916411.368       -1873.789  
     -1460.141          44.000          45.000  
 107493216.888 8  83761016.124 7  20455280.597    20455296.577         -11.574  
        -9.027          48.000          45.000  
 114848406.087 7  89492352.337 6  21854924.361    21854943.394        2760.730  
      2151.145          47.000          40.000  
 127468320.802 6  99326038.810 6  24256417.743    24256436.410       -3404.774  
     -2652.824          36.000          38.000  
 24  1 10  3 23  4.9000000  0  7G08G24G18G23G10G32G15
 128273429.698 6  99953406.409 6  24409634.138    24409655.923        2742.285  
      2136.816          37.000          37.000  
 127971671.476 5  99718278.990 6  24352198.262    24352220.484         171.855  
       133.742          30.000          38.000  
 113237931.218 7  88237412.838 7  21548463.308    21548478.327       -1894.609  
     -1476.461          42.000          43.000  
 109916587.433 7  85649346.277 7  20916432.984    20916447.025       -1873.859  
     -1460.320          44.000          44.000  
 107493218.078 8  83761017.025 7  20455280.824    20455296.797         -11.746  
        -9.172          48.000          45.000  
 114848130.042 7  89492137.271 6  21854871.831    21854890.873        2760.484  
      2150.898          47.000          40.000  
 127468661.316 6  99326304.124 6  24256482.541    24256501.202       -3404.953  
     -2653.270          36.000          38.000  
 24  1 10  3 23  5.0000000  0  7G08G24G18G23G10G32G15
 128273155.438 6  99953192.753 6  24409582.378    24409603.410        2742.453  
      2136.688          36.000          37.000  
 127971654.324 5  99718265.646 6  24352195.155    24352216.905         171.656  
       133.379          30.000          38.000  
 113238120.691 7  88237560.499 7  21548499.598    21548514.700       -1894.527  
     -1476.414          43.000          43.000  
 109916774.841 7  85649492.345 7  20916468.419    20916483.172       -1873.895  
     -1460.359          44.000          44.000  
 107493219.248 8  83761017.959 7  20455281.109    20455296.994         -11.738  
        -9.305          48.000          45.000  
 114847853.998 7  89491922.167 6  21854819.177    21854837.748        2760.500  
      2150.996          47.000          40.000  
 127469001.844 6  99326569.480 6  24256547.240    24256566.544       -3405.078  
     -2653.297          36.000          38.000  
 24  1 10  3 23  5.1000000  0  7G08G24G18G23G10G32G15
 128272881.238 6  99952979.053 6  24409530.199    24409551.222        2742.223  
      2136.883          36.000          37.000  
 127971637.175 5  99718252.287 6  24352191.891    24352213.642         171.570  
       133.500          30.000          38.000  
 113238310.164 7  88237708.150 7  21548535.654    21548550.758       -1894.801  
     -1476.551          43.000          43.000  
 109916962.265 7  85649638.358 7  20916504.085    20916518.830       -1874.184  
     -1460.211          44.000          45.000  
 107493220.436 8  83761018.888 7  20455281.335    20455297.221         -11.910  
        -9.301          48.000          45.000  
 114847577.949 7  89491707.064 6  21854766.647    21854785.218        2760.473  
      2150.945          47.000          40.000  
 127469342.340 6  99326834.816 6  24256612.034    24256631.342       -3405.031  
     -2653.242          37.000          38.000  
 24  1 10  3 23  5.2000000  0  7G08G24G18G23G10G32G15
 128272606.969 6  99952765.354 6  24409478.000    24409499.081        2742.430  
      2137.055          36.000          37.000  
 127971620.008 5  99718238.899 6  24352188.702    24352210.552         171.750  
       133.945          30.000          38.000  
 113238499.653 7  88237855.757 7  21548572.095    21548586.915       -1894.895  
     -1476.449          43.000          43.000  
 109917149.668 7  85649784.379 7  20916539.145    20916554.873       -1874.066  
     -1460.266          44.000          44.000  
 107493221.627 8  83761019.810 7  20455281.468    20455297.321         -11.840  
        -9.270          48.000          45.000  
 114847301.909 7  89491491.956 6  21854714.219    21854732.881        2760.402  
      2151.113          47.000          40.000  
 127469682.837 6  99327100.137 6  24256677.024    24256696.589       -3404.988  
     -2653.238          37.000          38.000  
 24  1 10  3 23  5.3000000  0  7G08G24G18G23G10G32G15
 128272332.794 6  99952551.690 6  24409425.826    24409446.903        2742.176  
      2136.551          36.000          37.000  
 127971602.953 5  99718225.554 6  24352185.457    24352207.293         171.129  
       133.398          30.000          38.000  
 113238689.138 7  88238003.453 7  21548608.153    21548622.984       -1894.770  
     -1476.602          43.000          43.000  
 109917337.083 7  85649930.429 7  20916574.809    20916590.540       -1874.137  
     -1460.559          44.000          44.000  
 107493222.834 8  83761020.743 7  20455281.697    20455297.549         -11.996  
        -9.344          48.000          45.000  
 114847025.890 7  89491276.887 6  21854661.695    21854680.359        2760.336  
      2150.727          47.000          40.000  
 127470023.334 6  99327365.434 6  24256741.818    24256761.377       -3404.953  
     -2652.887          37.000          37.000  
 24  1 10  3 23  5.4000000  0  7G08G24G18G23G10G32G15
 128272058.547 6  99952338.043 6  24409373.529    24409394.603        2742.340  
      2136.730          37.000          37.000  
 127971585.729 4  99718212.220 6  24352182.328    24352204.162         171.621  
       133.617          29.000          38.000  
 113238878.665 7  88238151.082 7  21548643.890    21548659.020       -1895.031  
     -1476.301          43.000          43.000  
 109917524.507 7  85650076.477 7  20916610.623    20916625.714       -1874.129  
     -1460.477          44.000          44.000  
 107493224.039 8  83761021.695 7  20455281.692    20455297.821         -11.977  
        -9.434          48.000          45.000  
 114846749.866 7  89491061.792 6  21854608.825    21854627.800        2760.250  
      2150.926          47.000          40.000  
 127470363.851 6  99327630.793 6  24256806.452    24256826.626       -3404.969  
     -2653.613          37.000          37.000  
 24  1 10  3 23  5.5000000  0  7G08G24G18G23G10G32G15
 128271784.344 6  99952124.349 6  24409321.350    24409342.416        2742.203  
      2136.680          36.000          37.000  
 127971568.697 4  99718198.876 6  24352179.087    24352200.903         171.203  
       133.410          29.000          38.000  
 113239068.146 7  88238298.710 7  21548679.947    21548695.073       -1894.957  
     -1476.543          43.000          43.000  
 109917711.923 7  85650222.516 7  20916646.287    20916661.378       -1874.164  
     -1460.281          44.000          44.000  
 107493225.247 8  83761022.641 7  20455281.922    20455298.052         -12.066  
        -9.383          48.000          45.000  
 114846473.849 7  89490846.712 6  21854556.301    21854575.275        2760.277  
      2151.047          47.000          39.000  
 127470704.312 6  99327896.104 6  24256871.240    24256891.417       -3404.922  
     -2653.156          37.000          37.000  
 24  1 10  3 23  5.6000000  0  7G08G24G18G23G10G32G15
 128271510.185 6  99951910.692 6  24409268.913    24409290.669        2741.816  
      2136.672          36.000          37.000  
 127971551.570 4  99718185.548 6  24352175.531    24352197.109         170.984  
       133.199          29.000          38.000  
 113239257.619 7  88238446.399 7  21548715.519    21548731.406       -1894.875  
     -1476.863          42.000          43.000  
 109917899.357 7  85650368.552 7  20916682.423    20916696.956       -1874.270  
     -1460.465          45.000          44.000  
 107493226.454 8  83761023.558 7  20455282.043    20455298.612         -12.094  
        -9.465          48.000          45.000  
 114846197.827 7  89490631.658 6  21854503.838    21854522.515        2760.238  
      2150.641          47.000          39.000  
 127471044.926 6  99328161.479 6  24256936.463    24256956.147       -3405.356  
     -2653.746          36.000          37.000  
 24  1 10  3 23  5.7000000  0  7G08G24G18G23G10G32G15
 128271235.956 6  99951696.992 6  24409216.729    24409238.481        2742.199  
      2136.840          36.000          37.000  
 127971534.446 4  99718172.218 6  24352172.272    24352193.854         171.219  
       133.359          29.000          38.000  
 113239447.132 7  88238594.110 7  21548751.582    21548767.478       -1894.770  
     -1476.680          42.000          43.000  
 109918086.737 7  85650514.582 7  20916718.081    20916732.618       -1874.027  
     -1460.180          45.000          45.000  
 107493227.635 8  83761024.497 7  20455282.267    20455298.841         -11.836  
        -9.242          48.000          45.000  
 114845921.789 7  89490416.547 6  21854451.310    21854469.982        2760.266  
      2150.832          47.000          39.000  
 127471385.405 6  99328426.724 6  24257001.254    24257020.922       -3405.164  
     -2652.910          36.000          37.000  
 24  1 10  3 23  5.8000000  0  7G08G24G18G23G10G32G15
 128270961.602 6  99951483.254 6  24409164.420    24409186.589        2742.848  
      2137.395          36.000          37.000  
 127971517.455 4  99718158.910 6  24352169.094    24352190.565         170.375  
       132.820          29.000          38.000  
 113239636.678 7  88238741.794 7  21548787.425    21548802.880       -1895.191  
     -1476.895          42.000          42.000  
 109918274.151 7  85650660.609 7  20916753.877    20916768.748       -1874.000  
     -1460.219          45.000          45.000  
 107493228.795 8  83761025.375 7  20455282.715    20455299.188         -11.746  
        -8.879          48.000          45.000  
 114845645.789 7  89490201.463 6  21854398.953    21854417.519        2760.207  
      2150.914          47.000          39.000  
 127471725.831 6  99328692.061 6  24257065.941    24257085.587       -3404.774  
     -2653.211          36.000          37.000  
 24  1 10  3 23  5.9000000  0  7G08G24G18G23G10G32G15
 128270687.275 6  99951269.442 6  24409112.217    24409134.374        2743.016  
      2138.168          36.000          37.000  
 127971500.325 4  99718145.611 6  24352165.834    24352187.317         170.965  
       133.000          29.000          38.000  
 113239826.187 7  88238889.436 7  21548823.487    21548838.936       -1895.359  
     -1476.812          43.000          42.000  
 109918461.516 7  85650806.608 7  20916789.531    20916804.402       -1873.891  
     -1460.125          45.000          45.000  
 107493229.917 8  83761026.258 7  20455282.928    20455299.404         -11.410  
        -8.703          48.000          45.000  
 114845369.792 7  89489986.385 6  21854346.433    21854364.995        2759.996  
      2150.695          47.000          39.000  
 127472066.351 6  99328957.373 6  24257130.740    24257150.379       -3404.953  
     -2653.191          37.000          37.000  
 24  1 10  3 23  6.0000000  0  7G08G24G18G23G10G32G15
 128270412.801 5  99951055.559 6  24409060.627    24409081.758        2743.961  
      2138.555          35.000          37.000  
