     2.11           OBSERVATION DATA    M (MIXED)           RINEX VERSION / TYPE
GPP.DLL V3.2.21                         18 - MAR - 24 07:42 PGM / RUN BY / DATE 
                                                            MARKER NAME         
                                                            MARKER NUMBER       
                                                            OBSERVER / AGENCY   
6028C00128          APX-15v3 AV         5.50                REC # / TYPE / VERS 
                    E                                       ANT # / TYPE        
 -4668096.3691  2554474.5283 -3504571.8551                  APPROX POSITION XYZ 
        0.0000       -0.0000       -0.0000                  ANTENNA: DELTA H/E/N
     1     1                                                WAVELENGTH FACT L1/2
     9    L1    L2    C1    P2    C2    D1    D2    S1    S2# / TYPES OF OBSERV 
     0.100                                                  INTERVAL            
  2024     1    10     3    15    0.0000000     GPS         TIME OF FIRST OBS   
  2024     1    10     3    15   59.9000000     GPS         TIME OF LAST OBS    
    18                                                      LEAP SECONDS        
     7                                                      # OF SATELLITES     
   G10   600   600   600     0   600   600   600   600   600PRN / # OF OBS      
   G15   596   596   596     0   596   596   596   596   596PRN / # OF OBS      
   G16   112   112   112   112     0   112   112   112   112PRN / # OF OBS      
   G18   600   600   600     0   600   600   600   600   600PRN / # OF OBS      
   G23   600   600   600     0   600   600   600   600   600PRN / # OF OBS      
   G24   574   574   574     0   574   574   574   574   574PRN / # OF OBS      
   G32   600   600   600     0   600   600   600   600   600PRN / # OF OBS      
                                                            END OF HEADER       
 24  1 10  3 15  0.0000000  0  6G24G10G18G23G32G15
 129701877.996 6 101066490.185 6  24681446.576                    24681468.458  
       560.375         436.879          40.000          40.000  
 109126798.467 7  85033937.044 7  20766140.336                    20766157.289  
       339.914         264.430          44.000          43.000  
 113955383.121 7  88796467.357 7  21684988.952                    21685004.315  
     -1549.523       -1207.375          45.000          44.000  
 110629809.535 7  86205104.645 7  21052154.012                    21052168.605  
     -1592.102       -1240.293          44.000          42.000  
 117827164.789 6  91813460.902 6  22421764.404                    22421784.445  
      3121.930        2432.504          41.000          41.000  
 127435222.622 7  99300251.410 6  24250119.393                    24250137.285  
     -3138.066       -2444.742          44.000          41.000  
 24  1 10  3 15  0.1000000  0  6G24G10G18G23G32G15
 129701821.887 6 101066446.501 6  24681435.899                    24681457.790  
       560.719         436.609          39.000          40.000  
 109126764.553 7  85033910.606 7  20766133.882                    20766150.833  
       339.367         264.242          44.000          43.000  
 113955538.048 7  88796588.080 7  21685018.433                    21685033.797  
     -1549.406       -1207.184          45.000          44.000  
 110629968.742 7  86205228.637 7  21052184.308                    21052198.885  
     -1592.141       -1240.062          43.000          42.000  
 117826852.630 6  91813217.705 6  22421705.002                    22421725.053  
      3121.633        2431.812          41.000          41.000  
 127435536.361 7  99300495.924 6  24250179.095                    24250196.998  
     -3137.645       -2445.000          44.000          41.000  
 24  1 10  3 15  0.2000000  0  6G24G10G18G23G32G15
 129701765.777 6 101066402.783 6  24681425.058                    24681447.630  
       561.020         437.473          39.000          40.000  
 109126730.631 7  85033884.124 7  20766127.560                    20766144.186  
       339.152         264.434          44.000          43.000  
 113955692.947 7  88796708.783 7  21685048.191                    21685063.235  
     -1549.203       -1206.973          45.000          44.000  
 110630127.891 7  86205352.632 7  21052213.898                    21052228.752  
     -1591.809       -1240.340          43.000          42.000  
 117826540.562 6  91812974.538 6  22421645.813                    22421665.552  
      3121.227        2431.910          41.000          41.000  
 127435850.075 7  99300740.369 6  24250238.699                    24250256.780  
     -3137.355       -2444.551          44.000          41.000  
 24  1 10  3 15  0.3000000  0  6G24G10G18G23G32G15
 129701709.639 6 101066358.991 6  24681414.375                    24681436.935  
       561.082         437.391          38.000          40.000  
 109126696.736 7  85033857.718 7  20766121.110                    20766137.737  
       339.195         264.422          44.000          43.000  
 113955847.836 7  88796829.450 7  21685077.665                    21685092.703  
     -1549.020       -1206.828          45.000          44.000  
 110630287.022 7  86205476.676 7  21052244.179                    21052259.045  
     -1591.637       -1240.242          42.000          42.000  
 117826228.498 6  91812731.352 6  22421586.429                    22421606.164  
      3120.762        2431.535          41.000          41.000  
 127436163.717 7  99300984.760 6  24250298.383                    24250316.463  
     -3136.965       -2444.125          44.000          41.000  
 24  1 10  3 15  0.4000000  0  6G24G10G18G23G32G15
 129701653.490 6 101066315.285 6  24681403.979                    24681426.277  
       561.277         437.477          38.000          41.000  
 109126662.780 7  85033831.304 7  20766114.546                    20766131.161  
       339.422         264.008          43.000          43.000  
 113956002.711 7  88796950.145 7  21685107.473                    21685122.482  
     -1548.922       -1207.059          45.000          44.000  
 110630446.158 7  86205600.682 7  21052274.134                    21052289.414  
     -1591.320       -1239.945          42.000          42.000  
 117825916.505 6  91812488.267 6  22421526.996                    22421546.675  
      3120.398        2431.176          41.000          41.000  
 127436477.382 7  99301229.175 7  24250358.369                    24250376.112  
     -3136.688       -2444.008          44.000          42.000  
 24  1 10  3 15  0.5000000  0  6G24G10G18G23G32G15
 129701597.363 6 101066271.516 6  24681393.299                    24681415.588  
       561.359         437.406          39.000          41.000  
 109126628.957 7  85033804.963 7  20766108.110                    20766124.729  
       338.859         263.922          43.000          43.000  
 113956157.624 7  88797070.864 7  21685136.952                    21685151.963  
     -1548.992       -1207.008          45.000          44.000  
 110630605.330 7  86205724.682 7  21052304.423                    21052319.697  
     -1591.691       -1240.293          42.000          42.000  
 117825604.536 6  91812245.132 6  22421467.631                    22421487.299  
      3120.102        2431.027          41.000          41.000  
 127436791.024 7  99301473.546 7  24250418.053                    24250435.790  
     -3136.605       -2443.805          44.000          42.000  
 24  1 10  3 15  0.6000000  0  6G24G10G18G23G32G15
 129701541.218 6 101066227.798 6  24681382.513                    24681405.139  
       561.395         437.145          39.000          40.000  
 109126595.148 7  85033778.540 7  20766101.458                    20766118.846  
       338.172         263.477          44.000          43.000  
 113956312.558 7  88797191.596 7  21685166.771                    21685181.346  
     -1549.246       -1207.481          45.000          44.000  
 110630764.540 7  86205848.748 7  21052334.977                    21052350.174  
     -1591.672       -1239.957          43.000          42.000  
 117825292.627 7  91812002.116 6  22421408.347                    22421428.046  
      3119.473        2430.500          42.000          41.000  
 127437104.686 7  99301717.939 7  24250477.834                    24250495.677  
     -3136.547       -2443.883          44.000          42.000  
 24  1 10  3 15  0.7000000  0  6G24G10G18G23G32G15
 129701485.121 6 101066184.090 6  24681371.838                    24681394.465  
       561.121         437.227          39.000          40.000  
 109126561.416 7  85033752.258 7  20766095.039                    20766112.428  
       337.730         263.023          44.000          43.000  
 113956467.535 7  88797312.359 7  21685196.262                    21685210.837  
     -1549.496       -1207.582          45.000          44.000  
 110630923.712 7  86205972.764 7  21052365.267                    21052380.460  
     -1591.898       -1240.852          44.000          42.000  
 117824980.748 7  91811759.088 6  22421348.998                    22421368.696  
      3118.938        2429.691          42.000          41.000  
 127437418.331 7  99301962.348 6  24250537.519                    24250555.364  
     -3136.562       -2444.160          44.000          41.000  
 24  1 10  3 15  0.8000000  0  6G24G10G18G23G32G15
 129701428.999 6 101066140.384 6  24681360.971                    24681383.627  
       561.262         437.246          40.000          40.000  
 109126527.601 7  85033725.964 7  20766088.526                    20766105.936  
       337.996         262.957          44.000          43.000  
 113956622.496 7  88797433.100 7  21685225.531                    21685240.979  
     -1549.641       -1207.461          46.000          45.000  
 110631082.902 7  86206096.849 7  21052396.114                    21052410.193  
     -1591.887       -1240.570          44.000          42.000  
 117824668.912 7  91811516.119 6  22421289.908                    22421309.704  
      3118.715        2429.910          42.000          41.000  
 127437731.961 7  99302206.761 6  24250597.404                    24250614.950  
     -3136.434       -2444.117          43.000          41.000  
 24  1 10  3 15  0.9000000  0  6G24G10G18G23G32G15
 129701372.825 6 101066096.655 6  24681350.282                    24681372.948  
       561.617         437.582          40.000          40.000  
 109126493.846 7  85033699.662 7  20766082.103                    20766099.513  
       337.891         263.113          45.000          43.000  
 113956777.429 7  88797553.806 7  21685255.014                    21685270.457  
     -1549.434       -1207.219          46.000          45.000  
 110631242.061 7  86206220.911 7  21052426.401                    21052440.490  
     -1591.660       -1240.398          44.000          42.000  
 117824357.078 7  91811273.112 7  22421230.568                    22421250.359  
      3118.344        2429.785          42.000          42.000  
 127438045.573 7  99302451.129 6  24250657.082                    24250674.628  
     -3136.152       -2443.633          42.000          41.000  
 24  1 10  3 15  1.0000000  0  6G24G10G18G23G32G15
 129701316.684 6 101066052.890 6  24681339.926                    24681362.487  
       561.445         437.555          40.000          40.000  
 109126460.136 7  85033673.350 7  20766075.907                    20766092.759  
       337.379         262.984          45.000          43.000  
 113956932.437 7  88797674.591 7  21685284.761                    21685300.157  
     -1549.695       -1207.625          45.000          45.000  
 110631401.272 7  86206344.937 7  21052457.066                    21052470.630  
     -1592.000       -1240.586          44.000          42.000  
 117824045.341 7  91811030.222 7  22421171.355                    22421190.785  
      3118.145        2429.199          42.000          42.000  
 127438359.205 6  99302695.511 6  24250716.639                    24250733.832  
     -3136.223       -2443.805          41.000          41.000  
 24  1 10  3 15  1.1000000  0  6G24G10G18G23G32G15
 129701260.628 6 101066009.129 6  24681329.259                    24681351.800  
       560.852         437.203          40.000          40.000  
 109126426.406 7  85033647.080 7  20766069.488                    20766086.344  
       337.246         262.633          44.000          43.000  
 113957087.394 7  88797795.371 7  21685314.248                    21685329.653  
     -1549.828       -1207.992          45.000          45.000  
 110631560.510 7  86206469.011 7  21052487.368                    21052500.930  
     -1592.402       -1240.738          44.000          43.000  
 117823733.570 6  91810787.270 7  22421112.027                    22421131.454  
      3117.695        2429.355          41.000          42.000  
 127438672.888 6  99302939.917 6  24250776.331                    24250793.518  
     -3136.738       -2443.969          39.000          41.000  
 24  1 10  3 15  1.2000000  0  6G24G10G18G23G32G15
 129701204.531 6 101065965.405 6  24681318.694                    24681341.364  
       560.812         437.312          39.000          40.000  
 109126392.705 7  85033620.835 7  20766063.137                    20766079.927  
       337.223         262.609          45.000          43.000  
 113957242.421 7  88797916.187 7  21685343.718                    21685358.486  
     -1549.859       -1208.051          45.000          44.000  
 110631719.774 7  86206593.109 7  21052517.237                    21052531.603  
     -1592.223       -1240.820          43.000          42.000  
 117823421.779 7  91810544.330 7  22421052.602                    22421071.883  
      3117.848        2429.270          42.000          42.000  
 127438987.42536  99303184.322 6  24250835.256                    24250853.212  
     -3138.574       -2444.301          36.000          40.000  
 24  1 10  3 15  1.3000000  0  6G24G10G18G23G32G15
 129701148.512 6 101065921.718 6  24681308.034                    24681330.695  
       560.523         436.746          38.000          40.000  
 109126359.024 7  85033594.621 7  20766056.728                    20766073.525  
       336.988         262.211          45.000          43.000  
 113957397.474 7  88798037.003 7  21685373.223                    21685387.990  
     -1550.309       -1208.109          45.000          44.000  
 110631879.048 7  86206717.193 7  21052547.546                    21052561.906  
     -1592.777       -1241.016          43.000          42.000  
 117823110.007 7  91810301.415 6  22420993.273                    22421012.561  
      3117.797        2429.309          43.000          41.000  
 127439301.10825  99303428.785 6  24250894.948                    24250912.912  
     -3137.324       -2444.531          35.000          40.000  
 24  1 10  3 15  1.4000000  0  6G24G10G18G23G32G15
 129701092.549 6 101065878.087 6  24681297.408                    24681320.376  
       559.875         436.387          38.000          40.000  
 109126325.383 7  85033568.382 7  20766050.209                    20766066.750  
       336.453         262.219          45.000          43.000  
 113957552.611 7  88798157.883 7  21685402.284                    21685417.510  
     -1551.606       -1208.883          45.000          44.000  
 110632038.422 7  86206841.389 7  21052577.538                    21052592.080  
     -1593.570       -1241.648          43.000          42.000  
 117822798.275 7  91810058.479 6  22420933.601                    22420953.366  
      3117.227        2429.152          42.000          41.000  
 127439614.73926  99303673.316 6  24250954.458                    24250972.504  
     -3136.969       -2444.977          38.000          39.000  
 24  1 10  3 15  1.5000000  0  6G24G10G18G23G32G15
 129701036.619 6 101065834.515 6  24681286.765                    24681309.736  
       559.273         435.770          39.000          39.000  
 109126291.753 7  85033542.174 7  20766043.810                    20766060.350  
       336.281         262.004          45.000          43.000  
 113957707.793 7  88798278.785 7  21685431.814                    21685447.036  
     -1551.582       -1209.231          45.000          44.000  
 110632197.778 7  86206965.559 7  21052607.862                    21052622.403  
     -1593.707       -1242.113          43.000          43.000  
 117822486.585 7  91809815.587 6  22420874.289                    22420894.050  
      3116.961        2429.125          42.000          41.000  
 127439928.57126  99303917.890 6  24251014.178                    24251032.232  
     -3137.875       -2445.910          40.000          39.000  
 24  1 10  3 15  1.6000000  0  6G24G10G18G23G32G15
 129700980.721 6 101065791.011 6  24681276.338                    24681299.088  
       559.273         435.164          40.000          39.000  
 109126258.119 7  85033515.965 7  20766037.355                    20766053.957  
       336.348         262.184          45.000          43.000  
 113957863.035 7  88798399.797 7  21685461.418                    21685476.580  
     -1551.949       -1209.676          45.000          44.000  
 110632357.231 7  86207089.837 7  21052638.502                    21052653.097  
     -1593.867       -1242.137          43.000          43.000  
 117822174.833 7  91809572.646 6  22420814.511                    22420835.073  
      3117.320        2429.012          43.000          41.000  
 127440242.39727  99304162.601 6  24251074.819                    24251091.407  
     -3138.082       -2446.719          42.000          38.000  
 24  1 10  3 15  1.7000000  0  6G24G10G18G23G32G15
 129700924.874 6 101065747.559 6  24681265.711                    24681288.477  
       558.859         434.652          40.000          38.000  
 109126224.460 7  85033489.740 7  20766030.950                    20766047.553  
       336.543         262.184          45.000          43.000  
 113958018.235 7  88798520.674 7  21685490.952                    21685506.100  
     -1552.152       -1209.648          44.000          44.000  
 110632516.650 7  86207214.005 7  21052668.838                    21052683.420  
     -1594.258       -1242.191          43.000          43.000  
 117821863.088 7  91809329.768 6  22420755.188                    22420775.759  
      3117.648        2429.195          43.000          41.000  
 127440556.26727  99304407.158 6  24251134.547                    24251151.130  
     -3138.359       -2445.832          43.000          38.000  
 24  1 10  3 15  1.8000000  0  6G24G10G18G23G32G15
 129700869.071 6 101065704.124 6  24681255.006                    24681277.955  
       558.316         434.340          40.000          38.000  
 109126190.817 7  85033463.545 7  20766024.610                    20766041.140  
       336.480         262.109          45.000          43.000  
 113958173.523 7  88798641.720 7  21685520.440                    21685535.785  
     -1552.301       -1209.856          44.000          44.000  
 110632676.078 7  86207338.239 7  21052698.966                    21052713.830  
     -1594.180       -1242.395          43.000          43.000  
 117821551.327 7  91809086.869 6  22420696.479                    22420716.175  
      3117.504        2429.094          43.000          41.000  
 127440870.20027  99304651.780 6  24251194.864                    24251210.830  
     -3138.902       -2446.355          44.000          38.000  
 24  1 10  3 15  1.9000000  0  6G24G10G18G23G32G15
 129700813.393 6 101065660.659 6  24681244.411                    24681267.341  
       557.613         434.512          39.000          38.000  
 109126157.130 7  85033437.294 7  20766018.200                    20766034.729  
       336.668         262.352          45.000          43.000  
 113958328.765 7  88798762.688 7  21685549.981                    21685565.327  
     -1552.641       -1210.066          45.000          44.000  
 110632835.499 7  86207462.504 7  21052729.302                    21052744.176  
     -1594.215       -1242.492          44.000          43.000  
 117821239.546 7  91808843.925 6  22420637.149                    22420656.846  
      3117.773        2429.473          43.000          41.000  
 127441183.651 7  99304896.410 6  24251254.512                    24251270.571  
     -3139.355       -2446.375          44.000          39.000  
 24  1 10  3 15  2.0000000  0  6G24G10G18G23G32G15
 129700757.726 6 101065617.270 6  24681233.693                    24681256.659  
       557.043         434.027          38.000          38.000  
 109126123.459 7  85033411.059 7  20766011.948                    20766028.291  
       336.809         262.566          45.000          43.000  
 113958484.127 7  88798883.725 7  21685579.655                    21685595.182  
     -1553.008       -1209.984          44.000          44.000  
 110632994.975 7  86207586.789 7  21052759.829                    21052774.778  
     -1594.324       -1242.629          44.000          43.000  
 117820927.764 7  91808600.915 6  22420577.741                    22420597.547  
      3117.723        2429.672          43.000          41.000  
 127441497.642 7  99305141.086 6  24251314.536                    24251330.878  
     -3139.590       -2446.797          43.000          40.000  
 24  1 10  3 15  2.1000000  0  6G24G10G18G23G32G15
 129700702.125 6 101065573.866 6  24681223.113                    24681246.059  
       556.535         434.086          37.000          38.000  
 109126089.767 7  85033384.772 7  20766005.537                    20766021.872  
       336.758         262.574          45.000          43.000  
 113958639.457 7  88799004.708 7  21685609.213                    21685624.728  
     -1553.231       -1210.352          44.000          44.000  
 110633154.502 7  86207711.077 7  21052790.186                    21052805.130  
     -1594.910       -1242.656          44.000          43.000  
 117820615.952 7  91808357.982 6  22420518.405                    22420538.220  
      3118.023        2429.625          43.000          41.000  
 127441811.716 7  99305385.847 6  24251374.302                    24251390.652  
     -3140.066       -2447.203          43.000          41.000  
 24  1 10  3 15  2.2000000  0  6G24G10G18G23G32G15
 129700646.506 6 101065530.549 6  24681212.130                    24681234.973  
       556.352         433.363          37.000          38.000  
 109126056.094 7  85033358.551 7  20765999.364                    20766015.304  
       336.898         262.473          46.000          43.000  
 113958794.798 7  88799125.802 7  21685638.422                    21685653.917  
     -1553.312       -1210.652          45.000          44.000  
 110633314.009 7  86207835.307 7  21052820.774                    21052835.258  
     -1595.074       -1242.938          43.000          43.000  
 117820304.132 7  91808115.002 6  22420459.396                    22420478.124  
      3118.152        2429.848          43.000          41.000  
 127442125.850 6  99305630.571 6  24251433.986                    24251451.197  
     -3140.777       -2447.492          41.000          41.000  
 24  1 10  3 15  2.3000000  0  6G24G10G18G23G32G15
 129700590.948 6 101065487.282 6  24681201.558                    24681224.407  
       555.871         432.625          38.000          38.000  
 109126022.413 7  85033332.296 7  20765992.954                    20766008.892  
       336.707         262.473          45.000          43.000  
 113958950.178 7  88799246.924 7  21685667.990                    21685683.496  
     -1553.547       -1211.121          45.000          44.000  
 110633473.547 7  86207959.648 7  21052851.133                    21052865.623  
     -1595.320       -1243.152          43.000          43.000  
 117819992.310 7  91807872.011 6  22420400.058                    22420418.783  
      3118.180        2429.859          44.000          41.000  
 127442440.030 6  99305875.391 6  24251493.773                    24251510.984  
     -3141.297       -2448.156          39.000          41.000  
 24  1 10  3 15  2.4000000  0  6G24G10G18G23G32G15
 129700535.442 6 101065444.054 6  24681190.792                    24681213.561  
       555.496         432.516          38.000          38.000  
 109125988.707 7  85033306.037 7  20765986.407                    20766002.323  
       336.945         262.543          45.000          42.000  
 113959105.570 7  88799368.010 7  21685697.662                    21685712.872  
     -1553.793       -1210.945          45.000          43.000  
 110633633.085 7  86208083.957 7  21052881.453                    21052895.887  
     -1595.180       -1243.062          43.000          43.000  
 117819680.451 7  91807629.013 6  22420340.807                    22420359.785  
      3118.512        2429.996          44.000          41.000  
 127442754.293 6  99306120.234 7  24251552.747                    24251570.989  
     -3142.094       -2448.312          37.000          42.000  
 24  1 10  3 15  2.5000000  0  6G24G10G18G23G32G15
 129700479.944 6 101065400.801 6  24681180.231                    24681202.998  
       555.109         432.461          39.000          39.000  
 109125954.982 7  85033279.743 7  20765979.990                    20765995.902  
       337.172         262.852          46.000          42.000  
 113959260.993 7  88799489.108 7  21685727.238                    21685742.445  
     -1554.023       -1210.957          45.000          44.000  
 110633792.647 7  86208208.319 7  21052911.817                    21052926.257  
     -1595.383       -1243.250          44.000          43.000  
 117819368.549 7  91807385.982 6  22420281.454                    22420300.434  
      3118.848        2430.387          44.000          41.000  
 127443068.523 5  99306365.095 7  24251612.543                    24251630.786  
     -3142.137       -2448.703          35.000          42.000  
 24  1 10  3 15  2.6000000  0  6G24G10G18G23G32G15
 129700424.565 6 101065357.606 6  24681169.631                    24681192.543  
       554.500         431.727          39.000          39.000  
 109125921.291 7  85033253.490 7  20765973.680                    20765989.702  
       336.992         262.559          46.000          43.000  
 113959416.478 7  88799610.264 7  21685757.115                    21685772.407  
     -1554.527       -1211.492          45.000          43.000  
 110633952.252 7  86208332.663 7  21052942.180                    21052956.577  
     -1595.801       -1243.848          44.000          43.000  
 117819056.682 7  91807142.964 6  22420222.053                    22420241.368  
      3118.840        2430.242          44.000          41.000  
 127443382.879 5  99306610.022 7  24251671.488                    24251690.764  
     -3143.043       -2449.195          33.000          42.000  
 24  1 10  3 15  2.7000000  0  6G24G10G18G23G32G15
 129700369.206 6 101065314.507 6  24681159.096                    24681182.018  
       554.125         431.430          39.000          39.000  
 109125887.600 7  85033227.253 7  20765967.269                    20765983.294  
       336.969         262.383          46.000          43.000  
 113959571.973 7  88799731.408 7  21685786.704                    21685801.992  
     -1554.762       -1211.688          45.000          43.000  
 110634111.866 7  86208457.056 7  21052972.554                    21052986.955  
     -1596.031       -1243.856          44.000          43.000  
 117818744.761 7  91806899.916 7  22420162.696                    22420182.013  
      3118.852        2430.391          44.000          42.000  
 127443697.237 5  99306854.988 7  24251731.308                    24251750.587  
     -3142.996       -2449.590          32.000          42.000  
 24  1 10  3 15  2.8000000  0  6G24G10G18G23G32G15
 129700313.865 6 101065271.365 6  24681148.565                    24681171.506  
       553.668         431.137          39.000          39.000  
 109125853.903 7  85033200.996 7  20765960.849                    20765976.968  
       336.961         262.559          46.000          43.000  
 113959727.533 7  88799852.644 7  21685816.463                    21685831.287  
     -1555.121       -1211.902          45.000          44.000  
 110634271.503 7  86208581.459 7  21053003.291                    21053017.030  
     -1596.231       -1244.066          44.000          43.000  
 117818432.868 7  91806656.866 6  22420102.876                    22420122.822  
      3118.941        2430.375          43.000          41.000  
 127444011.641 5  99307099.958 7  24251790.551                    24251810.552  
     -3143.664       -2449.590          31.000          42.000  
 24  1 10  3 15  2.9000000  0  6G24G10G18G23G32G15
 129700258.585 6 101065228.261 6  24681138.046                    24681160.979  
       553.191         431.160          39.000          39.000  
 109125820.225 7  85033174.757 7  20765954.440                    20765970.560  
       336.828         262.281          46.000          43.000  
 113959883.084 7  88799973.814 7  21685846.063                    21685860.878  
     -1555.418       -1211.898          44.000          44.000  
 110634431.158 7  86208705.871 7  21053033.673                    21053047.413  
     -1596.531       -1244.352          45.000          42.000  
 117818120.976 7  91806413.831 6  22420043.525                    22420063.470  
      3118.965        2430.176          43.000          41.000  
 127444326.049 5  99307344.944 7  24251850.381                    24251870.380  
     -3144.098       -2449.969          32.000          42.000  
 24  1 10  3 15  3.0000000  0  6G24G10G18G23G32G15
 129700203.288 6 101065185.201 6  24681127.140                    24681150.752  
       553.121         430.773          39.000          39.000  
 109125786.587 7  85033148.546 7  20765948.172                    20765964.066  
       336.582         262.164          46.000          43.000  
 113960038.652 7  88800095.036 7  21685875.503                    21685890.755  
     -1555.531       -1212.273          45.000          44.000  
 110634590.880 7  86208830.347 7  21053064.301                    21053077.725  
     -1596.754       -1244.336          44.000          42.000  
 117817809.108 7  91806170.812 6  22419984.108                    22420003.724  
      3118.746        2430.285          42.000          41.000  
 127444640.610 5  99307589.993 7  24251909.951                    24251930.552  
     -3144.637       -2450.328          33.000          42.000  
 24  1 10  3 15  3.1000000  0  6G24G10G18G23G32G15
 129700148.046 6 101065142.087 6  24681116.628                    24681140.224  
       552.746         430.996          39.000          40.000  
 109125752.949 7  85033122.346 7  20765941.771                    20765957.667  
       336.441         261.977          45.000          43.000  
 113960194.253 7  88800216.279 7  21685905.113                    21685920.363  
     -1555.695       -1212.289          45.000          44.000  
 110634750.560 7  86208954.792 7  21053094.687                    21053108.116  
     -1596.930       -1244.512          44.000          42.000  
 117817497.277 7  91805927.824 6  22419924.769                    22419944.384  
      3118.688        2429.930          42.000          41.000  
 127444955.021 5  99307835.004 7  24251969.782                    24251990.386  
     -3144.453       -2450.121          35.000          42.000  
 24  1 10  3 15  3.2000000  0  6G24G10G18G23G32G15
 129700092.770 6 101065099.044 6  24681106.258                    24681129.689  
       552.758         430.527          39.000          40.000  
 109125719.341 7  85033096.152 7  20765935.446                    20765951.520  
       336.316         261.953          45.000          43.000  
 113960349.835 7  88800337.505 7  21685934.602                    21685950.156  
     -1555.828       -1212.324          45.000          44.000  
 110634910.303 7  86209079.252 7  21053124.960                    21053138.464  
     -1597.074       -1244.648          44.000          42.000  
 117817185.436 7  91805684.872 6  22419865.334                    22419885.138  
      3118.449        2429.688          42.000          41.000  
 127445269.525 6  99308080.040 7  24252030.216                    24252050.179  
     -3144.801       -2450.348          36.000          42.000  
 24  1 10  3 15  3.3000000  0  6G24G10G18G23G32G15
 129700037.512 6 101065056.002 6  24681095.742                    24681119.177  
       552.652         430.465          40.000          40.000  
 109125685.758 7  85033069.970 7  20765929.055                    20765945.126  
       335.992         261.668          45.000          43.000  
 113960505.436 7  88800458.754 7  21685964.211                    21685979.766  
     -1555.965       -1212.481          45.000          45.000  
 110635070.025 7  86209203.731 7  21053155.354                    21053168.863  
     -1597.234       -1244.812          44.000          42.000  
 117816873.640 7  91805441.892 6  22419806.001                    22419825.800  
      3118.137        2429.699          42.000          41.000  
 127445584.013 6  99308325.092 7  24252090.061                    24252110.023  
     -3144.809       -2450.520          36.000          42.000  
 24  1 10  3 15  3.4000000  0  6G24G10G18G23G32G15
 129699982.230 6 101065012.937 6  24681085.559                    24681108.457  
       552.688         430.496          41.000          39.000  
 109125652.140 7  85033043.790 7  20765922.416                    20765938.889  
       336.125         261.988          45.000          43.000  
 113960661.006 7  88800579.969 7  21685993.714                    21686009.258  
     -1555.766       -1212.219          45.000          45.000  
 110635229.706 7  86209328.164 7  21053185.694                    21053199.407  
     -1597.039       -1244.406          43.000          42.000  
 117816561.808 7  91805198.892 6  22419746.763                    22419767.035  
      3118.191        2429.707          42.000          41.000  
 127445898.478 6  99308570.117 6  24252149.776                    24252169.330  
     -3144.707       -2450.273          36.000          41.000  
 24  1 10  3 15  3.5000000  0  6G24G10G18G23G32G15
 129699926.975 6 101064969.892 6  24681075.044                    24681097.945  
       552.785         430.586          41.000          39.000  
 109125618.531 7  85033017.604 7  20765916.020                    20765932.494  
       336.195         262.000          45.000          43.000  
 113960816.579 7  88800701.207 7  21686023.318                    21686038.866  
     -1555.633       -1212.129          45.000          45.000  
 110635389.414 7  86209452.609 7  21053216.085                    21053229.798  
     -1596.816       -1244.086          43.000          42.000  
 117816250.008 7  91804955.947 6  22419687.429                    22419707.706  
      3118.219        2429.594          42.000          41.000  
 127446212.889 5  99308815.137 6  24252209.607                    24252229.166  
     -3144.277       -2450.203          35.000          41.000  
 24  1 10  3 15  3.6000000  0  6G24G10G18G23G32G15
 129699871.695 6 101064926.832 6  24681064.806                    24681087.406  
       552.742         430.566          41.000          39.000  
 109125584.923 7  85032991.412 7  20765909.523                    20765925.848  
       336.102         261.793          45.000          43.000  
 113960972.127 7  88800822.415 7  21686053.035                    21686067.974  
     -1555.641       -1212.102          45.000          45.000  
 110635549.101 7  86209577.029 7  21053246.238                    21053260.198  
     -1596.953       -1244.297          43.000          42.000  
 117815938.220 7  91804712.987 6  22419628.207                    22419648.247  
      3117.930        2429.645          42.000          41.000  
 127446527.336 5  99309060.177 6  24252269.249                    24252288.664  
     -3144.473       -2450.305          35.000          41.000  
 24  1 10  3 15  3.7000000  0  6G24G10G18G23G32G15
 129699816.426 6 101064883.799 6  24681054.288                    24681076.897  
       552.703         430.438          41.000          39.000  
 109125551.324 7  85032965.231 7  20765903.129                    20765919.454  
       335.934         261.793          45.000          43.000  
 113961127.686 7  88800943.639 7  21686082.637                    21686097.578  
     -1555.594       -1212.285          44.000          45.000  
 110635708.796 7  86209701.442 7  21053276.627                    21053290.581  
     -1596.961       -1244.309          44.000          42.000  
 117815626.433 7  91804470.035 6  22419568.876                    22419588.916  
      3117.934        2429.344          42.000          41.000  
 127446841.713 5  99309305.188 6  24252329.073                    24252348.498  
     -3144.035       -2450.195          34.000          41.000  
 24  1 10  3 15  3.8000000  0  6G24G10G18G23G32G15
 129699761.116 6 101064840.659 6  24681043.857                    24681065.706  
       552.949         431.230          41.000          39.000  
 109125517.675 7  85032939.018 7  20765896.531                    20765912.873  
       336.289         262.273          45.000          43.000  
 113961283.171 7  88801064.803 7  21686112.069                    21686127.550  
     -1555.086       -1211.484          44.000          44.000  
 110635868.457 7  86209825.844 7  21053306.994                    21053320.914  
     -1596.656       -1243.520          44.000          42.000  
 117815314.641 7  91804227.074 6  22419509.146                    22419529.051  
      3117.992        2429.695          42.000          41.000  
 127447156.001 5  99309550.194 7  24252388.458                    24252408.589  
     -3143.398       -2450.043          34.000          42.000  
 24  1 10  3 15  3.9000000  0  6G24G10G18G23G32G15
 129699705.826 6 101064797.573 6  24681033.336                    24681055.184  
       552.926         430.871          40.000          38.000  
 109125484.027 7  85032912.773 7  20765890.128                    20765906.464  
       336.461         262.500          45.000          43.000  
 113961438.673 7  88801185.959 7  21686141.660                    21686157.138  
     -1555.020       -1211.422          45.000          44.000  
 110636028.059 7  86209950.152 7  21053337.365                    21053351.271  
     -1596.453       -1243.617          44.000          42.000  
 117815002.825 7  91803984.100 6  22419449.809                    22419469.714  
      3118.152        2429.797          43.000          41.000  
 127447470.396 6  99309795.205 7  24252448.285                    24252468.423  
     -3143.879       -2450.141          36.000          42.000  
 24  1 10  3 15  4.0000000  0  6G24G10G18G23G32G15
 129699650.519 6 101064754.472 6  24681022.623                    24681044.353  
       553.223         430.969          40.000          38.000  
 109125450.319 7  85032886.489 7  20765883.924                    20765899.998  
       337.047         262.605          45.000          43.000  
 113961594.105 7  88801307.061 7  21686171.363                    21686186.923  
     -1554.453       -1211.199          45.000          44.000  
 110636187.593 7  86210074.516 7  21053368.075                    21053381.658  
     -1594.941       -1243.387          43.000          42.000  
 117814690.980 7  91803741.089 6  22419390.897                    22419410.392  
      3118.109        2429.781          43.000          41.000  
 127447784.868 6  99310040.219 7  24252508.198                    24252528.344  
     -3144.527       -2450.148          40.000          42.000  
 24  1 10  3 15  4.1000000  0  6G24G10G18G23G32G15
 129699595.162 6 101064711.342 6  24681012.089                    24681033.820  
       553.406         431.430          39.000          38.000  
 109125416.550 7  85032860.176 7  20765877.499                    20765893.572  
       337.645         263.168          45.000          43.000  
 113961749.455 7  88801428.134 7  21686200.925                    21686216.491  
     -1553.609       -1210.879          45.000          45.000  
 110636347.161 7  86210198.875 7  21053398.440                    21053412.028  
     -1595.383       -1243.055          44.000          42.000  
 117814379.087 7  91803498.094 6  22419331.546                    22419351.050  
      3119.250        2430.453          43.000          41.000  
 127448099.297 7  99310285.197 7  24252568.031                    24252588.170  
     -3144.305       -2449.742          42.000          42.000  
 24  1 10  3 15  4.2000000  0  6G24G10G18G23G32G15
 129699539.865 6 101064668.193 6  24681001.504                    24681023.127  
       553.055         431.199          39.000          38.000  
 109125382.787 7  85032833.905 7  20765871.159                    20765886.993  
       337.938         262.930          45.000          43.000  
 113961904.885 7  88801549.254 7  21686230.432                    21686246.319  
     -1553.996       -1210.902          45.000          44.000  
 110636506.593 7  86210323.096 7  21053428.466                    21053442.879  
     -1594.750       -1242.875          43.000          42.000  
 117814067.235 7  91803255.063 6  22419272.124                    22419291.356  
      3118.598        2430.406          43.000          41.000  
 127448413.705 7  99310530.075 6  24252628.986                    24252647.589  
     -3144.035       -2448.691          42.000          41.000  
 24  1 10  3 15  4.3000000  0  6G24G10G18G23G32G15
 129699484.601 6 101064625.198 6  24680990.988                    24681012.627  
       552.754         430.117          40.000          39.000  
 109125349.095 7  85032807.650 7  20765864.748                    20765880.581  
       336.910         262.664          45.000          43.000  
 113962060.299 7  88801670.335 7  21686260.006                    21686275.888  
     -1554.195       -1210.957          45.000          44.000  
 110636666.193 7  86210447.438 7  21053458.837                    21053473.245  
     -1595.992       -1243.094          44.000          42.000  
 117813755.377 7  91803012.047 6  22419212.779                    22419232.009  
      3118.363        2429.891          43.000          41.000  
 127448728.093 6  99310775.002 6  24252688.812                    24252707.402  
     -3143.793       -2449.637          41.000          40.000  
 24  1 10  3 15  4.4000000  0  6G24G10G18G23G32G15
 129699429.397 6 101064582.186 6  24680980.491                    24681002.584  
       551.738         429.992          40.000          40.000  
 109125315.495 7  85032781.415 7  20765858.370                    20765873.908  
       335.391         262.211          46.000          43.000  
 113962215.830 7  88801791.528 7  21686289.361                    21686304.688  
     -1555.809       -1211.766          45.000          44.000  
 110636825.833 7  86210571.805 7  21053489.083                    21053503.038  
     -1596.231       -1244.102          44.000          42.000  
 117813443.597 7  91802769.161 6  22419153.153                    22419172.826  
      3117.359        2429.152          43.000          41.000  
 127449042.494 6  99311020.122 6  24252749.039                    24252766.505  
     -3144.441       -2450.977          40.000          40.000  
 24  1 10  3 15  4.5000000  0  6G24G10G18G23G32G15
 129699374.184 6 101064539.201 6  24680969.984                    24680992.086  
       551.883         429.934          40.000          40.000  
 109125281.983 7  85032755.303 7  20765851.993                    20765867.531  
       334.617         260.711          46.000          43.000  
 113962371.422 7  88801912.750 7  21686318.969                    21686334.292  
     -1556.477       -1212.668          45.000          44.000  
 110636985.511 7  86210696.302 7  21053519.469                    21053533.442  
     -1597.445       -1244.703          43.000          42.000  
 117813131.889 7  91802526.271 6  22419093.837                    22419113.510  
      3116.676        2429.000          42.000          41.000  
 127449357.013 6  99311265.253 6  24252808.890                    24252826.369  
     -3145.203       -2451.121          39.000          40.000  
 24  1 10  3 15  4.6000000  0  6G24G10G18G23G32G15
 129699319.005 6 101064496.197 6  24680959.726                    24680982.123  
       551.957         430.004          40.000          40.000  
 109125248.531 7  85032729.283 7  20765845.971                    20765861.466  
       334.215         260.426          45.000          43.000  
 113962527.070 7  88802034.041 7  21686348.884                    21686363.498  
     -1556.676       -1212.988          45.000          44.000  
 110637145.372 7  86210820.861 7  21053549.631                    21053563.595  
     -1599.090       -1245.332          43.000          42.000  
 117812820.195 7  91802283.372 6  22419034.453                    22419054.903  
      3116.250        2428.504          42.000          41.000  
 127449671.573 6  99311510.348 6  24252868.507                    24252886.716  
     -3145.801       -2451.199          39.000          40.000  
 24  1 10  3 15  4.7000000  0  6G24G10G18G23G32G15
 129699263.837 6 101064453.229 6  24680949.228                    24680971.630  
       551.707         429.836          40.000          40.000  
 109125215.134 7  85032703.271 7  20765839.616                    20765855.114  
       333.840         260.094          45.000          43.000  
 113962682.732 7  88802155.360 7  21686378.506                    21686393.125  
     -1556.922       -1213.156          45.000          44.000  
 110637305.227 7  86210945.388 7  21053580.051                    21053594.006  
     -1598.422       -1245.676          44.000          42.000  
 117812508.573 7  91802040.540 6  22418975.153                    22418995.601  
      3116.453        2428.344          42.000          41.000  
 127449986.156 6  99311755.493 6  24252928.370                    24252946.583  
     -3145.973       -2451.363          40.000          40.000  
 24  1 10  3 15  4.8000000  0  6G24G10G18G23G32G15
 129699208.697 6 101064410.246 6  24680938.766                    24680961.118  
       551.340         429.637          39.000          39.000  
 109125181.796 7  85032677.287 7  20765832.865                    20765849.073  
       333.035         259.820          44.000          43.000  
 113962838.484 7  88802276.707 7  21686408.144                    21686422.830  
     -1557.391       -1213.426          45.000          44.000  
 110637465.106 7  86211069.969 7  21053610.631                    21053624.578  
     -1599.231       -1246.059          44.000          42.000  
 117812196.979 7  91801797.740 6  22418916.078                    22418936.299  
      3115.961        2428.121          42.000          41.000  
 127450300.751 6  99312000.587 6  24252987.939                    24253007.086  
     -3145.902       -2451.004          40.000          40.000  
 24  1 10  3 15  4.9000000  0  6G24G10G18G23G32G15
 129699153.584 6 101064367.313 6  24680928.279                    24680950.633  
       550.867         429.613          40.000          39.000  
 109125148.527 7  85032651.343 7  20765826.534                    20765842.737  
       332.633         259.215          44.000          43.000  
 113962994.223 7  88802398.078 7  21686437.781                    21686452.470  
     -1557.699       -1213.645          45.000          44.000  
 110637625.044 7  86211194.654 7  21053641.066                    21053655.027  
     -1599.582       -1246.465          44.000          42.000  
 117811885.394 7  91801554.952 6  22418856.785                    22418877.007  
      3115.590        2427.859          42.000          41.000  
 127450615.378 6  99312245.770 6  24253047.810                    24253066.962  
     -3146.578       -2451.801          40.000          40.000  
 24  1 10  3 15  5.0000000  0  6G24G10G18G23G32G15
 129699098.493 6 101064324.400 6  24680917.522                    24680940.052  
       550.445         428.836          39.000          39.000  
 109125115.288 7  85032625.444 7  20765819.991                    20765836.194  
       332.383         259.215          44.000          43.000  
 113963150.058 7  88802519.490 7  21686467.380                    21686482.722  
     -1558.570       -1214.129          45.000          44.000  
 110637785.037 7  86211319.308 7  21053672.082                    21053685.407  
     -1600.258       -1246.777          44.000          42.000  
 117811573.855 7  91801312.175 6  22418797.837                    22418817.539  
      3115.297        2427.730          42.000          41.000  
 127450930.051 6  99312490.957 6  24253107.714                    24253126.933  
     -3146.840       -2451.770          39.000          41.000  
 24  1 10  3 15  5.1000000  0  6G24G10G18G23G32G15
 129699043.472 6 101064281.512 6  24680907.052                    24680929.578  
       550.324         428.977          39.000          38.000  
 109125082.073 7  85032599.548 7  20765813.670                    20765829.870  
       332.121         258.816          44.000          43.000  
 113963305.897 7  88802640.930 7  21686497.036                    21686512.378  
     -1558.395       -1214.414          45.000          44.000  
 110637945.088 7  86211444.024 7  21053702.539                    21053715.864  
     -1600.383       -1246.941          44.000          42.000  
 117811262.294 7  91801069.417 6  22418738.549                    22418758.255  
      3115.398        2427.629          42.000          41.000  
 127451244.749 6  99312736.141 6  24253167.599                    24253186.809  
     -3146.957       -2452.043          38.000          41.000  
 24  1 10  3 15  5.2000000  0  6G24G10G18G23G32G15
 129698988.443 6 101064238.626 6  24680896.205                    24680918.784  
       550.297         428.895          38.000          38.000  
 109125048.871 7  85032573.677 7  20765807.172                    20765823.802  
       332.098         258.906          44.000          43.000  
 113963461.731 7  88802762.378 7  21686526.830                    21686542.217  
     -1558.371       -1214.547          45.000          44.000  
 110638105.120 7  86211568.723 7  21053733.062                    21053746.324  
     -1600.481       -1247.102          44.000          42.000  
 117810950.740 7  91800826.660 6  22418679.317                    22418699.010  
      3115.582        2427.375          43.000          41.000  
 127451559.511 6  99312981.376 6  24253227.605                    24253246.846  
     -3147.441       -2452.223          37.000          41.000  
 24  1 10  3 15  5.3000000  0  6G24G10G18G23G32G15
 129698933.469 6 101064195.779 6  24680885.744                    24680908.321  
       549.812         428.406          38.000          38.000  
 109125015.669 7  85032547.803 7  20765800.854                    20765817.483  
       332.121         258.738          44.000          43.000  
 113963617.628 7  88802883.845 7  21686556.497                    21686571.881  
     -1558.812       -1214.539          45.000          44.000  
 110638265.224 7  86211693.460 7  21053763.529                    21053776.786  
     -1600.797       -1247.203          43.000          42.000  
 117810639.255 7  91800583.943 6  22418620.043                    22418639.736  
      3115.246        2427.676          43.000          41.000  
 127451874.280 6  99313226.627 6  24253287.504                    24253306.739  
     -3147.594       -2452.582          36.000          40.000  
 24  1 10  3 15  5.4000000  0  6G24G10G18G23G32G15
 129698878.473 6 101064152.953 6  24680875.185                    24680897.644  
       550.062         428.363          38.000          39.000  
 109124982.458 7  85032521.922 7  20765794.644                    20765811.014  
       332.113         258.797          44.000          43.000  
 113963773.510 7  88803005.315 7  21686586.394                    21686601.428  
     -1558.770       -1214.668          45.000          44.000  
 110638425.307 7  86211818.191 7  21053793.226                    21053807.223  
     -1600.812       -1247.207          43.000          43.000  
 117810327.692 7  91800341.161 6  22418560.755                    22418580.759  
      3115.445        2427.512          43.000          41.000  
 127452189.043 5  99313471.930 6  24253347.323                    24253366.520  
     -3147.543       -2452.805          35.000          40.000  
 24  1 10  3 15  5.5000000  0  6G24G10G18G23G32G15
 129698823.565 6 101064110.119 6  24680864.736                    24680887.183  
       549.145         428.051          38.000          39.000  
 109124949.310 7  85032496.097 7  20765788.336                    20765804.707  
       331.637         258.301          45.000          43.000  
 113963929.456 7  88803126.834 7  21686616.070                    21686631.104  
     -1559.316       -1215.231          45.000          44.000  
 110638585.420 7  86211942.936 7  21053823.695                    21053837.687  
     -1601.113       -1247.594          43.000          43.000  
 117810016.216 7  91800098.449 6  22418501.483                    22418521.486  
      3114.871        2427.246          42.000          41.000  
 127452503.844 6  99313717.192 6  24253407.228                    24253426.415  
     -3148.215       -2452.695          36.000          40.000  
 24  1 10  3 15  5.6000000  0  6G24G10G18G23G32G15
 129698768.659 6 101064067.360 6  24680854.272                    24680877.655  
       548.961         427.543          39.000          39.000  
 109124916.191 7  85032470.314 7  20765782.189                    20765797.708  
       330.879         257.930          45.000          43.000  
 113964085.462 7  88803248.397 7  21686645.898                    21686660.423  
     -1560.156       -1215.633          46.000          44.000  
 110638745.568 7  86212067.733 7  21053854.115                    21053868.914  
     -1601.547       -1248.035          43.000          43.000  
 117809704.747 7  91799855.728 6  22418442.228                    22418461.774  
      3114.367        2426.875          43.000          41.000  
 127452818.754 6  99313962.533 6  24253466.684                    24253485.955  
     -3148.879       -2453.371          37.000          40.000  
 24  1 10  3 15  5.7000000  0  6G24G10G18G23G32G15
 129698713.794 6 101064024.613 6  24680843.832                    24680867.216  
       548.766         427.586          40.000          39.000  
 109124883.030 7  85032444.457 7  20765775.879                    20765791.393  
       331.570         258.336          45.000          43.000  
 113964241.466 7  88803369.954 7  21686675.584                    21686690.109  
     -1560.055       -1215.629          45.000          44.000  
 110638905.708 7  86212192.514 7  21053884.589                    21053899.387  
     -1601.371       -1248.000          44.000          43.000  
 117809393.293 7  91799613.053 6  22418382.960                    22418402.510  
      3114.824        2427.059          43.000          41.000  
 127453133.626 6  99314207.902 6  24253526.603                    24253545.877  
     -3148.598       -2453.566          38.000          40.000  
 24  1 10  3 15  5.8000000  0  6G24G18G23G10G32G15
 129698658.922 6 101063981.849 6  24680834.093                    24680856.827  
       548.680         427.609          40.000          39.000  
 113964397.445 7  88803491.483 7  21686704.868                    21686720.006  
     -1559.836       -1215.477          45.000          44.000  
 110639065.828 7  86212317.309 7  21053915.231                    21053929.894  
     -1601.273       -1247.914          44.000          43.000  
 109124849.872 7  85032418.642 7  20765769.749                    20765785.245  
       331.789         258.473          46.000          43.000  
 117809081.809 7  91799370.321 6  22418323.562                    22418343.350  
      3114.746        2427.199          43.000          41.000  
 127453448.451 6  99314453.234 6  24253586.738                    24253605.133  
     -3148.395       -2453.312          39.000          39.000  
 24  1 10  3 15  5.9000000  0  6G24G18G23G10G32G15
 129698604.077 6 101063939.104 6  24680823.656                    24680846.388  
       548.617         427.551          40.000          39.000  
 113964553.446 7  88803613.050 7  21686734.553                    21686749.694  
     -1559.844       -1215.523          45.000          44.000  
 110639225.987 7  86212442.112 7  21053945.708                    21053960.372  
     -1601.449       -1247.934          43.000          42.000  
 109124816.715 7  85032392.791 7  20765763.440                    20765778.932  
       331.477         258.340          46.000          43.000  
 117808770.355 7  91799127.639 6  22418264.294                    22418284.084  
      3114.605        2427.086          43.000          41.000  
 127453763.325 6  99314698.577 6  24253646.657                    24253665.048  
     -3148.625       -2453.320          40.000          39.000  
 24  1 10  3 15  6.0000000  0  6G24G18G23G10G32G15
 129698549.254 6 101063896.391 6  24680813.372                    24680835.238  
       548.328         427.184          39.000          39.000  
 113964709.483 7  88803734.628 7  21686764.317                    21686779.619  
     -1560.102       -1215.676          45.000          44.000  
 110639386.137 7  86212566.904 7  21053976.339                    21053990.223  
     -1601.492       -1247.965          43.000          42.000  
 109124783.555 7  85032366.948 7  20765757.153                    20765773.293  
       331.590         258.465          46.000          43.000  
 117808458.901 7  91798884.954 6  22418205.206                    22418224.787  
      3114.578        2426.727          43.000          41.000  
 127454078.193 6  99314943.947 6  24253706.942                    24253724.181  
     -3148.668       -2453.664          41.000          38.000  
 24  1 10  3 15  6.1000000  0  6G24G18G23G10G32G15
 129698494.451 6 101063853.690 6  24680802.944                    24680824.810  
       548.223         426.914          38.000          39.000  
 113964865.498 7  88803856.205 7  21686794.005                    21686809.310  
     -1560.106       -1215.836          45.000          44.000  
 110639546.286 7  86212691.705 7  21054006.815                    21054020.701  
     -1601.414       -1247.922          43.000          42.000  
 109124750.404 7  85032341.135 7  20765750.844                    20765766.989  
       331.555         258.301          46.000          43.000  
 117808147.445 7  91798642.265 6  22418145.938                    22418165.520  
      3114.449        2426.887          43.000          41.000  
 127454393.080 7  99315189.307 6  24253766.863                    24253784.100  
     -3148.785       -2453.441          42.000          38.000  
 24  1 10  3 15  6.2000000  0  6G24G18G23G10G32G15
 129698439.682 6 101063810.988 6  24680792.490                    24680814.273  
       548.023         426.988          38.000          39.000  
 113965021.518 7  88803977.758 7  21686823.679                    21686838.892  
     -1560.203       -1215.586          45.000          44.000  
 110639706.426 7  86212816.486 7  21054037.257                    21054050.884  
     -1601.531       -1248.078          43.000          42.000  
 109124717.253 7  85032315.279 7  20765744.497                    20765761.456  
