     2.11           OBSERVATION DATA    M (MIXED)           RINEX VERSION / TYPE
GPP.DLL V3.2.21                         18 - MAR - 24 07:42 PGM / RUN BY / DATE 
                                                            MARKER NAME         
                                                            MARKER NUMBER       
                                                            OBSERVER / AGENCY   
6028C00128          APX-15v3 AV         5.50                REC # / TYPE / VERS 
                    E                                       ANT # / TYPE        
 -4667996.3580  2554563.1982 -3504599.3873                  APPROX POSITION XYZ 
        0.0000       -0.0000       -0.0000                  ANTENNA: DELTA H/E/N
     1     1                                                WAVELENGTH FACT L1/2
     8    L1    L2    C1    C2    D1    D2    S1    S2      # / TYPES OF OBSERV 
     0.100                                                  INTERVAL            
  2024     1    10     3    14    0.0000000     GPS         TIME OF FIRST OBS   
  2024     1    10     3    14   59.9000000     GPS         TIME OF LAST OBS    
    18                                                      LEAP SECONDS        
     6                                                      # OF SATELLITES     
   G10   600   600   600   600   600   600   600   600      PRN / # OF OBS      
   G15   600   600   600   600   600   600   600   600      PRN / # OF OBS      
   G18   600   600   600   600   600   600   600   600      PRN / # OF OBS      
   G23   600   600   600   600   600   600   600   600      PRN / # OF OBS      
   G24   600   600   600   600   600   600   600   600      PRN / # OF OBS      
   G32   600   600   600   600   600   600   600   600      PRN / # OF OBS      
                                                            END OF HEADER       
 24  1 10  3 14  0.0000000  0  6G24G10G18G23G32G15
 129738230.425 6 101094816.527 6  24688364.081    24688387.119         654.168  
       509.668          40.000          41.000  
 109150038.711 7  85052046.264 7  20770562.581    20770579.269         434.102  
       338.074          46.000          44.000  
 113865081.299 7  88726102.392 7  21667805.696    21667820.722       -1459.180  
     -1137.109          47.000          46.000  
 110536778.151 7  86132612.681 7  21034450.212    21034464.983       -1507.973  
     -1175.121          43.000          44.000  
 118017343.660 7  91961651.910 7  22457954.755    22457974.695        3215.836  
      2505.965          44.000          44.000  
 127249288.600 5  99155368.029 7  24214736.332    24214754.245       -3057.125  
     -2382.188          35.000          43.000  
 24  1 10  3 14  0.1000000  0  6G24G10G18G23G32G15
 129738165.082 6 101094765.647 7  24688351.646    24688374.693         654.098  
       509.195          40.000          42.000  
 109149995.332 7  85052012.458 7  20770554.326    20770571.013         433.906  
       338.031          46.000          44.000  
 113865227.254 7  88726216.116 7  21667833.470    21667848.494       -1459.414  
     -1137.262          47.000          47.000  
 110536928.983 7  86132730.210 7  21034478.915    21034493.685       -1508.102  
     -1175.234          44.000          45.000  
 118017022.112 7  91961401.365 7  22457893.567    22457913.509        3215.676  
      2505.500          44.000          44.000  
 127249594.261 5  99155606.240 7  24214794.498    24214812.418       -3057.035  
     -2382.266          35.000          43.000  
 24  1 10  3 14  0.2000000  0  6G24G10G18G23G32G15
 129738099.693 6 101094714.662 7  24688339.289    24688362.172         653.816  
       509.559          40.000          42.000  
 109149951.966 7  85051978.664 7  20770545.972    20770562.448         433.715  
       337.852          46.000          44.000  
 113865373.200 7  88726329.831 7  21667861.133    21667876.374       -1459.598  
     -1137.473          46.000          46.000  
 110537079.832 7  86132847.771 7  21034507.706    21034522.411       -1508.250  
     -1175.504          44.000          45.000  
 118016700.572 7  91961150.832 7  22457832.208    22457852.240        3215.520  
      2505.477          44.000          44.000  
 127249900.012 6  99155844.490 7  24214852.657    24214870.336       -3057.254  
     -2382.316          36.000          43.000  
 24  1 10  3 14  0.3000000  0  6G24G10G18G23G32G15
 129738034.329 6 101094663.721 7  24688326.851    24688349.731         653.754  
       509.406          40.000          42.000  
 109149908.619 7  85051944.882 7  20770537.723    20770554.198         433.613  
       337.859          46.000          44.000  
 113865519.160 7  88726443.584 7  21667888.909    21667904.154       -1459.516  
     -1137.367          46.000          46.000  
 110537230.694 7  86132965.307 7  21034536.414    21034551.114       -1508.473  
     -1175.312          43.000          45.000  
 118016379.032 7  91960900.254 7  22457771.021    22457791.046        3215.426  
      2505.410          44.000          44.000  
 127250205.734 6  99156082.716 7  24214910.834    24214928.513       -3057.180  
     -2382.363          36.000          43.000  
 24  1 10  3 14  0.4000000  0  6G24G10G18G23G32G15
 129737968.982 6 101094612.834 6  24688314.330    24688337.007         653.645  
       509.086          40.000          41.000  
 109149865.277 7  85051911.116 7  20770529.374    20770545.780         433.527  
       337.785          47.000          44.000  
 113865665.165 7  88726557.346 7  21667916.880    21667932.279       -1459.777  
     -1137.488          47.000          46.000  
 110537381.557 7  86133082.872 7  21034565.068    21034579.738       -1508.539  
     -1175.645          43.000          44.000  
 118016057.510 7  91960649.737 7  22457709.986    22457729.743        3215.273  
      2505.352          44.000          44.000  
 127250511.479 6  99156320.989 7  24214968.867    24214986.858       -3057.438  
     -2382.543          36.000          43.000  
 24  1 10  3 14  0.5000000  0  6G24G10G18G23G32G15
 129737903.634 6 101094561.897 6  24688301.895    24688324.568         653.508  
       509.211          40.000          41.000  
 109149821.951 7  85051877.343 7  20770521.129    20770537.532         433.363  
       337.539          47.000          44.000  
 113865811.167 7  88726671.101 7  21667944.663    21667960.059       -1459.996  
     -1137.695          46.000          45.000  
 110537532.415 7  86133200.412 7  21034593.775    21034608.443       -1508.707  
     -1175.578          43.000          44.000  
 118015736.033 7  91960399.211 7  22457648.811    22457668.562        3215.078  
      2505.266          44.000          43.000  
 127250817.279 6  99156559.246 7  24215027.059    24215045.043       -3057.664  
     -2382.496          36.000          43.000  
 24  1 10  3 14  0.6000000  0  6G24G10G18G23G32G15
 129737838.332 6 101094511.000 6  24688289.788    24688312.006         653.285  
       509.109          41.000          41.000  
 109149778.628 7  85051843.594 7  20770512.901    20770529.400         433.281  
       337.418          47.000          44.000  
 113865957.177 7  88726784.895 7  21667972.385    21667987.802       -1459.906  
     -1137.742          46.000          45.000  
 110537683.305 7  86133317.998 7  21034622.317    21034637.151       -1508.688  
     -1175.680          43.000          44.000  
 118015414.545 7  91960148.687 7  22457587.579    22457607.639        3215.031  
      2505.195          44.000          43.000  
 127251123.070 6  99156797.486 7  24215085.030    24215103.661       -3057.773  
     -2382.582          36.000          42.000  
 24  1 10  3 14  0.7000000  0  6G24G10G18G23G32G15
 129737773.016 6 101094460.101 6  24688277.359    24688299.576         653.137  
       508.816          41.000          40.000  
 109149735.336 7  85051809.855 7  20770504.663    20770521.160         433.129  
       337.438          47.000          44.000  
 113866103.204 7  88726898.676 7  21668000.174    21668015.589       -1460.043  
     -1137.820          47.000          46.000  
 110537834.187 7  86133435.536 7  21034651.029    21034665.855       -1508.984  
     -1175.801          43.000          44.000  
 118015093.066 7  91959898.206 7  22457526.404    22457546.469        3214.965  
      2505.023          44.000          42.000  
 127251428.857 6  99157035.769 7  24215143.219    24215161.852       -3057.883  
     -2382.742          36.000          42.000  
 24  1 10  3 14  0.8000000  0  6G24G10G18G23G32G15
 129737707.701 6 101094409.251 6  24688264.750    24688287.095         653.258  
       508.707          41.000          40.000  
 109149692.033 7  85051776.126 7  20770496.664    20770513.212         433.094  
       337.105          47.000          44.000  
 113866249.222 7  88727012.455 7  21668028.233    21668043.343       -1460.266  
     -1137.820          47.000          46.000  
 110537985.087 7  86133553.128 7  21034679.744    21034694.478       -1508.891  
     -1175.742          43.000          43.000  
 118014771.586 7  91959647.702 7  22457465.478    22457485.223        3214.883  
      2505.164          44.000          42.000  
 127251734.633 6  99157274.049 7  24215201.188    24215220.035       -3057.730  
     -2382.730          36.000          42.000  
 24  1 10  3 14  0.9000000  0  6G24G10G18G23G32G15
 129737642.448 6 101094358.417 6  24688252.333    24688274.681         652.859  
       508.410          41.000          40.000  
 109149648.765 7  85051742.438 7  20770488.431    20770504.985         432.867  
       337.059          47.000          44.000  
 113866395.290 7  88727126.266 7  21668056.029    21668071.137       -1460.504  
     -1138.231          47.000          46.000  
 110538136.041 7  86133670.753 7  21034708.470    21034723.204       -1509.172  
     -1176.242          43.000          43.000  
 118014450.136 7  91959397.197 7  22457404.308    22457424.047        3214.543  
      2504.602          45.000          42.000  
 127252040.427 6  99157512.356 7  24215259.378    24215278.232       -3057.863  
     -2383.109          36.000          42.000  
 24  1 10  3 14  1.0000000  0  6G24G10G18G23G32G15
 129737577.211 6 101094307.587 6  24688239.896    24688262.479         652.664  
       508.324          40.000          40.000  
 109149605.514 7  85051708.727 7  20770480.255    20770496.855         432.617  
       336.949          46.000          44.000  
 113866541.376 7  88727240.119 7  21668083.789    21668099.121       -1460.684  
     -1138.352          47.000          46.000  
 110538286.975 7  86133788.384 7  21034737.199    21034751.711       -1509.316  
     -1176.199          43.000          43.000  
 118014128.709 7  91959146.783 6  22457343.307    22457363.089        3214.430  
      2504.363          45.000          41.000  
 127252346.287 5  99157750.670 6  24215317.582    24215336.594       -3058.297  
     -2383.039          35.000          41.000  
 24  1 10  3 14  1.1000000  0  6G24G10G18G23G32G15
 129737511.958 6 101094256.729 6  24688227.478    24688250.059         652.441  
       508.379          40.000          40.000  
 109149562.283 7  85051675.043 7  20770472.029    20770488.629         432.414  
       336.742          46.000          43.000  
 113866687.453 7  88727353.905 7  21668111.587    21668126.909       -1460.883  
     -1138.273          47.000          46.000  
 110538437.923 7  86133906.006 7  21034765.924    21034780.436       -1509.395  
     -1176.305          43.000          43.000  
 118013807.275 7  91958896.309 6  22457282.140    22457301.920        3214.336  
      2504.715          45.000          41.000  
 127252652.170 6  99157988.986 6  24215375.789    24215394.794       -3058.441  
     -2383.156          37.000          41.000  
 24  1 10  3 14  1.2000000  0  6G24G10G18G23G32G15
 129737446.693 6 101094205.863 6  24688215.356    24688237.668         652.641  
       508.617          41.000          40.000  
 109149519.046 7  85051641.343 7  20770463.863    20770480.477         432.430  
       336.930          47.000          42.000  
 113866833.549 7  88727467.765 7  21668139.286    21668154.621       -1460.789  
     -1138.356          47.000          45.000  
 110538588.897 7  86134023.659 7  21034794.911    21034809.316       -1509.492  
     -1176.383          43.000          43.000  
 118013485.858 7  91958645.844 6  22457220.906    22457240.864        3214.246  
      2504.520          45.000          41.000  
 127252958.017 6  99158227.320 6  24215433.959    24215453.052       -3058.496  
     -2383.273          37.000          41.000  
 24  1 10  3 14  1.3000000  0  6G24G10G18G23G32G15
 129737381.473 6 101094155.063 6  24688202.945    24688225.262         652.379  
       508.047          40.000          40.000  
 109149475.830 7  85051607.682 7  20770455.640    20770472.256         432.297  
       336.770          46.000          42.000  
 113866979.665 7  88727581.627 7  21668167.091    21668182.427       -1460.875  
     -1138.457          46.000          45.000  
 110538739.883 7  86134141.283 7  21034823.643    21034838.042       -1509.676  
     -1176.402          43.000          43.000  
 118013164.470 7  91958395.424 6  22457159.748    22457179.709        3214.020  
      2504.324          45.000          41.000  
 127253263.839 6  99158465.647 6  24215492.155    24215511.254       -3058.375  
     -2383.344          37.000          41.000  
 24  1 10  3 14  1.4000000  0  6G24G10G18G23G32G15
 129737316.284 6 101094104.240 6  24688190.321    24688212.538         652.152  
       508.102          40.000          40.000  
 109149432.643 7  85051574.038 7  20770447.586    20770464.392         432.078  
       336.723          46.000          42.000  
 113867125.790 7  88727695.482 7  21668194.796    21668209.763       -1461.145  
     -1138.695          46.000          45.000  
 110538890.850 7  86134258.946 7  21034852.160    21034867.120       -1509.707  
     -1176.555          43.000          43.000  
 118012843.087 7  91958144.982 6  22457098.583    22457118.337        3214.043  
      2504.297          45.000          41.000  
 127253569.749 6  99158703.979 6  24215550.469    24215568.863       -3058.770  
     -2383.398          37.000          40.000  
 24  1 10  3 14  1.5000000  0  6G24G10G18G23G32G15
 129737251.108 6 101094053.479 6  24688177.918    24688200.142         651.992  
       507.797          40.000          40.000  
 109149389.495 7  85051540.380 7  20770439.375    20770456.172         431.703  
       336.617          46.000          42.000  
 113867271.937 7  88727809.370 7  21668222.607    21668237.575       -1461.305  
     -1138.840          46.000          45.000  
 110539041.874 7  86134376.598 7  21034880.899    21034895.852       -1510.117  
     -1176.809          43.000          42.000  
 118012521.733 7  91957894.594 6  22457037.431    22457057.190        3213.746  
      2504.031          45.000          41.000  
 127253875.613 6  99158942.385 6  24215608.673    24215627.084       -3058.648  
     -2383.848          37.000          40.000  
 24  1 10  3 14  1.6000000  0  6G24G10G18G23G32G15
 129737185.941 6 101094002.656 6  24688165.369    24688187.543         651.676  
       507.988          41.000          39.000  
 109149346.301 7  85051506.699 6  20770430.968    20770447.501         431.836  
       336.352          46.000          41.000  
 113867418.083 7  88727923.258 7  21668250.371    21668265.411       -1461.453  
     -1138.934          46.000          45.000  
 110539192.889 7  86134494.299 7  21034909.698    21034924.541       -1510.191  
     -1177.000          43.000          42.000  
 118012200.347 7  91957644.158 6  22456976.063    22456996.117        3213.531  
      2504.070          45.000          41.000  
 127254181.610 6  99159180.753 6  24215666.871    24215685.070       -3059.430  
     -2383.703          37.000          40.000  
 24  1 10  3 14  1.7000000  0  6G24G10G18G23G32G15
 129737120.796 6 101093951.882 6  24688152.972    24688175.143         651.570  
       507.871          41.000          39.000  
 109149303.135 7  85051473.112 6  20770422.753    20770439.299         431.742  
       336.168          46.000          41.000  
 113867564.255 7  88728037.159 7  21668278.186    21668293.227       -1461.609  
     -1138.973          46.000          45.000  
 110539343.925 7  86134611.989 7  21034938.439    21034953.282       -1510.121  
     -1176.773          43.000          42.000  
 118011879.041 7  91957393.773 6  22456914.920    22456934.970        3213.465  
      2503.828          44.000          41.000  
 127254487.477 6  99159419.121 6  24215725.075    24215743.282       -3058.848  
     -2383.684          37.000          40.000  
 24  1 10  3 14  1.8000000  0  6G24G10G18G23G32G15
 129737055.657 6 101093901.131 6  24688140.725    24688162.890         651.539  
       507.516          41.000          39.000  
 109149260.005 7  85051439.508 6  20770414.554    20770430.921         431.520  
       336.125          46.000          41.000  
 113867710.421 7  88728151.047 7  21668306.071    21668321.126       -1461.684  
     -1138.984          46.000          45.000  
 110539494.973 7  86134729.664 7  21034967.074    21034981.738       -1510.301  
     -1176.840          42.000          42.000  
 118011557.703 7  91957143.408 6  22456853.943    22456873.844        3213.438  
      2503.848          44.000          41.000  
 127254793.375 6  99159657.505 6  24215783.395    24215801.583       -3059.098  
     -2383.750          36.000          40.000  
 24  1 10  3 14  1.9000000  0  6G24G10G18G23G32G15
 129736990.540 6 101093850.386 6  24688128.334    24688150.497         651.395  
       507.652          41.000          39.000  
 109149216.886 7  85051405.913 6  20770406.349    20770422.717         431.348  
       335.969          46.000          41.000  
 113867856.637 7  88728264.980 7  21668333.895    21668348.949       -1461.895  
     -1139.141          46.000          45.000  
 110539646.015 7  86134847.382 7  21034995.816    21035010.486       -1510.395  
     -1177.160          42.000          42.000  
 118011236.395 7  91956893.011 6  22456792.800    22456812.695        3213.137  
      2503.676          44.000          41.000  
 127255099.362 6  99159895.898 6  24215841.623    24215859.801       -3059.371  
     -2383.934          36.000          41.000  
 24  1 10  3 14  2.0000000  0  6G24G10G18G23G32G15
 129736925.439 6 101093799.677 6  24688116.125    24688137.520         651.164  
       507.043          40.000          39.000  
 109149173.785 7  85051372.314 6  20770398.108    20770414.527         431.113  
       335.895          46.000          41.000  
 113868002.859 7  88728378.920 7  21668361.603    21668376.564       -1462.055  
     -1139.559          46.000          45.000  
 110539797.115 7  86134965.124 7  21035024.429    21035039.154       -1510.731  
     -1177.371          43.000          42.000  
 118010915.128 7  91956642.680 6  22456731.400    22456751.522        3212.988  
      2503.551          45.000          41.000  
 127255405.294 6  99160134.338 6  24215899.777    24215917.843       -3059.500  
     -2384.312          36.000          41.000  
 24  1 10  3 14  2.1000000  0  6G24G10G18G23G32G15
 129736860.338 6 101093748.929 6  24688103.737    24688125.127         650.934  
       507.176          40.000          38.000  
 109149130.702 7  85051338.739 6  20770389.909    20770406.328         431.016  
       335.676          46.000          41.000  
 113868149.106 7  88728492.892 7  21668389.433    21668404.397       -1462.227  
     -1139.574          46.000          45.000  
 110539948.204 7  86135082.849 7  21035053.180    21035067.903       -1511.020  
     -1177.434          43.000          42.000  
 118010593.859 7  91956392.345 6  22456670.264    22456690.388        3212.828  
      2503.305          45.000          41.000  
 127255711.329 6  99160372.751 6  24215958.014    24215976.066       -3059.852  
     -2384.262          36.000          41.000  
 24  1 10  3 14  2.2000000  0  6G24G10G18G23G32G15
 129736795.276 6 101093698.265 6  24688091.255    24688112.793         650.797  
       506.871          40.000          38.000  
 109149087.627 7  85051305.185 6  20770381.798    20770398.040         430.824  
       335.734          46.000          41.000  
 113868295.343 7  88728606.824 7  21668417.199    21668432.549       -1462.305  
     -1139.449          46.000          45.000  
 110540099.305 7  86135200.578 7  21035081.855    21035096.826       -1510.938  
     -1177.316          43.000          42.000  
 118010272.621 7  91956142.032 6  22456609.072    22456628.853        3212.578  
      2503.254          45.000          41.000  
 127256017.296 6  99160611.167 6  24216016.026    24216034.048       -3059.750  
     -2384.215          36.000          41.000  
 24  1 10  3 14  2.3000000  0  6G24G10G18G23G32G15
 129736730.205 6 101093647.531 6  24688078.872    24688100.403         650.754  
       507.180          40.000          38.000  
 109149044.565 7  85051271.603 6  20770373.604    20770389.839         430.699  
       335.453          46.000          41.000  
 113868441.603 7  88728720.797 7  21668445.031    21668460.382       -1462.465  
     -1139.793          46.000          45.000  
 110540250.425 7  86135318.333 7  21035110.613    21035125.583       -1510.992  
     -1177.465          42.000          42.000  
 118009951.367 7  91955891.699 6  22456547.940    22456567.719        3212.527  
      2503.094          44.000          41.000  
 127256323.281 5  99160849.629 6  24216074.253    24216092.282       -3059.789  
     -2384.434          35.000          41.000  
 24  1 10  3 14  2.4000000  0  6G24G10G18G23G32G15
 129736665.129 6 101093596.858 6  24688066.613    24688087.747         650.758  
       507.047          40.000          38.000  
 109149001.521 7  85051238.073 6  20770365.515    20770381.689         430.562  
       335.387          45.000          41.000  
 113868587.861 7  88728834.780 7  21668473.074    21668488.264       -1462.551  
     -1139.734          46.000          45.000  
 110540401.540 7  86135436.096 7  21035139.447    21035154.459       -1511.055  
     -1177.562          42.000          42.000  
 118009630.133 7  91955641.391 7  22456487.045    22456506.685        3212.387  
      2503.121          44.000          42.000  
 127256629.316 6  99161088.055 6  24216132.365    24216150.579       -3060.156  
     -2384.266          36.000          41.000  
 24  1 10  3 14  2.5000000  0  6G24G10G18G23G32G15
 129736600.145 6 101093546.184 6  24688054.247    24688075.372         650.316  
       506.730          40.000          38.000  
 109148958.487 7  85051204.548 6  20770357.325    20770373.502         430.395  
       335.164          45.000          41.000  
 113868734.154 7  88728948.750 7  21668500.912    21668516.097       -1462.816  
     -1139.961          46.000          45.000  
 110540552.684 7  86135553.865 7  21035168.209    21035183.219       -1511.336  
     -1177.844          43.000          42.000  
 118009308.935 7  91955391.122 7  22456425.923    22456445.566        3212.203  
      2502.766          45.000          42.000  
 127256935.362 6  99161326.536 6  24216190.604    24216208.818       -3060.258  
     -2384.809          36.000          41.000  
 24  1 10  3 14  2.6000000  0  6G24G10G18G23G32G15
 129736535.126 6 101093495.560 6  24688041.867    24688063.033         650.293  
       506.352          40.000          38.000  
 109148915.485 7  85051171.050 6  20770349.103    20770365.040         430.223  
       335.113          45.000          41.000  
 113868880.476 7  88729062.781 7  21668528.600    21668543.905       -1462.953  
     -1140.055          46.000          45.000  
 110540703.839 7  86135671.648 7  21035197.074    21035211.999       -1511.539  
     -1177.941          42.000          42.000  
 118008987.754 7  91955140.843 7  22456365.078    22456384.743        3211.961  
      2502.785          44.000          42.000  
 127257241.438 6  99161565.031 6  24216248.824    24216267.139       -3060.539  
     -2384.953          37.000          41.000  
 24  1 10  3 14  2.7000000  0  6G24G10G18G23G32G15
 129736470.116 6 101093444.930 6  24688029.496    24688050.668         650.129  
       506.520          41.000          38.000  
 109148872.493 7  85051137.531 6  20770340.922    20770356.855         430.082  
       335.039          46.000          41.000  
 113869026.801 7  88729176.797 7  21668556.445    21668571.750       -1463.129  
     -1140.191          45.000          45.000  
 110540855.023 7  86135789.468 7  21035225.843    21035240.772       -1511.477  
     -1178.145          43.000          42.000  
 118008666.565 7  91954890.546 7  22456303.958    22456323.617        3211.816  
      2502.613          45.000          42.000  
 127257547.439 6  99161803.501 6  24216307.055    24216325.376       -3060.258  
     -2384.617          36.000          41.000  
 24  1 10  3 14  2.8000000  0  6G24G10G18G23G32G15
 129736405.132 6 101093394.247 6  24688017.052    24688038.010         649.914  
       506.438          41.000          38.000  
 109148829.513 7  85051104.037 6  20770332.775    20770348.894         429.957  
       334.945          46.000          41.000  
 113869173.108 7  88729290.794 7  21668584.021    21668599.472       -1463.273  
     -1140.234          45.000          45.000  
 110541006.234 7  86135907.306 7  21035254.610    21035269.510       -1511.695  
     -1178.035          42.000          42.000  
 118008345.411 7  91954640.320 7  22456242.766    22456262.283        3211.777  
      2502.656          44.000          42.000  
 127257853.509 6  99162041.999 6  24216365.618    24216383.815       -3060.508  
     -2384.957          37.000          41.000  
 24  1 10  3 14  2.9000000  0  6G24G10G18G23G32G15
 129736340.146 6 101093343.625 6  24688004.685    24688025.648         649.938  
       506.465          41.000          38.000  
 109148786.525 7  85051070.563 6  20770324.594    20770340.719         429.840  
       334.590          46.000          41.000  
 113869319.486 7  88729404.858 7  21668611.876    21668627.327       -1463.340  
     -1140.352          45.000          45.000  
 110541157.395 7  86136025.079 7  21035283.375    21035298.271       -1511.789  
     -1178.145          42.000          42.000  
 118008024.243 7  91954390.066 7  22456181.650    22456201.169        3211.703  
      2502.469          45.000          42.000  
 127258159.569 6  99162280.517 6  24216423.859    24216442.064       -3060.469  
     -2385.141          36.000          41.000  
 24  1 10  3 14  3.0000000  0  6G24G10G18G23G32G15
 129736275.206 6 101093293.006 6  24687992.374    24688013.458         649.562  
       506.188          41.000          38.000  
 109148743.588 7  85051037.105 6  20770316.525    20770332.814         429.652  
       334.789          46.000          41.000  
 113869465.840 7  88729518.909 7  21668639.515    21668655.297       -1463.535  
     -1140.594          45.000          45.000  
 110541308.615 7  86136142.911 7  21035312.159    21035327.336       -1512.184  
     -1178.258          42.000          42.000  
 118007703.109 7  91954139.815 7  22456120.431    22456140.149        3211.488  
      2502.387          45.000          42.000  
 127258465.681 6  99162519.034 6  24216482.532    24216500.710       -3060.816  
     -2385.109          36.000          41.000  
 24  1 10  3 14  3.1000000  0  6G24G10G18G23G32G15
 129736210.267 6 101093242.409 6  24687980.017    24688001.101         649.539  
       505.906          40.000          38.000  
 109148700.643 7  85051003.630 6  20770308.353    20770324.639         429.508  
       334.523          45.000          41.000  
 113869612.223 7  88729632.967 7  21668667.371    21668683.151       -1463.711  
     -1140.617          45.000          45.000  
 110541459.836 7  86136260.749 7  21035340.936    21035356.113       -1512.152  
     -1178.418          42.000          42.000  
 118007381.982 7  91953889.599 7  22456059.322    22456079.043        3211.320  
      2502.191          45.000          42.000  
 127258771.803 6  99162757.562 6  24216540.785    24216558.962       -3061.035  
     -2385.402          36.000          41.000  
 24  1 10  3 14  3.2000000  0  6G24G10G18G23G32G15
 129736145.364 6 101093191.813 6  24687967.705    24687988.862         649.336  
       506.105          40.000          38.000  
 109148657.721 7  85050970.176 6  20770300.263    20770316.172         429.434  
       334.574          46.000          41.000  
 113869758.606 7  88729747.030 7  21668695.445    21668710.983       -1463.816  
     -1140.715          45.000          45.000  
 110541611.090 7  86136378.620 7  21035369.492    21035384.969       -1512.125  
     -1178.367          43.000          42.000  
 118007060.869 7  91953639.372 7  22455998.209    22456017.896        3211.215  
      2502.184          45.000          42.000  
 127259077.913 6  99162996.100 6  24216598.833    24216617.449       -3061.016  
     -2385.320          36.000          41.000  
 24  1 10  3 14  3.3000000  0  6G24G10G18G23G32G15
 129736080.452 6 101093141.283 6  24687955.353    24687976.523         649.086  
       505.395          40.000          38.000  
 109148614.819 7  85050936.746 6  20770292.099    20770308.008         429.168  
       334.387          45.000          41.000  
 113869905.013 7  88729861.117 7  21668723.306    21668738.844       -1464.016  
     -1140.898          45.000          45.000  
 110541762.335 7  86136496.445 7  21035398.273    21035413.743       -1512.512  
     -1178.531          43.000          42.000  
 118006739.780 7  91953389.184 7  22455937.107    22455956.798        3211.020  
      2502.023          44.000          42.000  
 127259384.030 6  99163234.652 6  24216657.085    24216675.706       -3061.176  
     -2385.566          36.000          41.000  
 24  1 10  3 14  3.4000000  0  6G24G10G18G23G32G15
 129736015.596 6 101093090.714 6  24687942.941    24687964.712         648.871  
       505.582          40.000          38.000  
 109148571.940 7  85050903.327 6  20770283.901    20770300.003         428.961  
       334.262          45.000          41.000  
 113870051.465 7  88729975.240 7  21668751.487    21668766.323       -1464.195  
     -1141.203          45.000          45.000  
 110541913.614 7  86136614.316 7  21035427.130    21035442.263       -1512.738  
     -1178.805          43.000          42.000  
 118006418.718 7  91953138.994 7  22455875.894    22455895.582        3210.707  
      2501.734          44.000          42.000  
 127259690.206 6  99163473.215 6  24216715.106    24216733.856       -3061.445  
     -2385.672          36.000          41.000  
 24  1 10  3 14  3.5000000  0  6G24G10G18G23G32G15
 129735950.745 6 101093040.181 6  24687930.600    24687952.371         648.699  
       505.215          39.000          38.000  
 109148529.077 7  85050869.936 6  20770275.744    20770291.849         428.762  
       333.941          45.000          41.000  
 113870197.929 7  88730089.370 7  21668779.358    21668794.195       -1464.410  
     -1141.137          45.000          45.000  
 110542064.954 7  86136732.233 7  21035455.929    21035471.059       -1512.973  
     -1178.996          43.000          42.000  
 118006097.688 7  91952888.849 7  22455814.804    22455834.494        3210.645  
      2501.574          44.000          42.000  
 127259996.415 6  99163711.814 6  24216773.376    24216792.125       -3061.742  
     -2385.875          36.000          41.000  
 24  1 10  3 14  3.6000000  0  6G24G10G18G23G32G15
 129735885.892 6 101092989.663 6  24687918.126    24687939.995         648.598  
       505.305          39.000          38.000  
 109148486.218 7  85050836.557 6  20770267.651    20770283.643         428.691  
       333.887          45.000          41.000  
 113870344.378 7  88730203.472 7  21668807.179    21668822.630       -1464.590  
     -1141.188          45.000          45.000  
 110542216.227 7  86136850.129 7  21035485.185    21035499.671       -1512.883  
     -1179.004          43.000          42.000  
 118005776.635 7  91952638.677 7  22455753.522    22455773.680        3210.434  
      2501.676          45.000          42.000  
 127260302.616 6  99163950.391 6  24216831.480    24216850.301       -3061.867  
     -2385.938          36.000          41.000  
 24  1 10  3 14  3.7000000  0  6G24G10G18G23G32G15
 129735821.021 6 101092939.146 6  24687905.782    24687927.659         648.664  
       505.176          40.000          38.000  
 109148443.385 7  85050803.155 6  20770259.500    20770275.486         428.543  
       333.898          45.000          41.000  
 113870490.858 7  88730317.607 7  21668835.054    21668850.503       -1464.637  
     -1141.465          45.000          45.000  
 110542367.543 7  86136968.029 7  21035513.979    21035528.463       -1513.000  
     -1178.934          43.000          42.000  
 118005455.608 7  91952388.528 7  22455692.433    22455712.591        3210.398  
      2501.430          44.000          42.000  
 127260608.798 5  99164189.002 6  24216889.744    24216908.573       -3061.957  
     -2386.082          35.000          41.000  
 24  1 10  3 14  3.8000000  0  6G24G10G18G23G32G15
 129735756.251 6 101092888.622 6  24687893.214    24687915.750         648.164  
       505.152          40.000          38.000  
 109148400.578 7  85050769.818 6  20770251.401    20770266.688         428.285  
       333.555          45.000          41.000  
 113870637.391 7  88730431.821 7  21668862.821    21668878.333       -1464.863  
     -1141.660          45.000          45.000  
 110542518.877 7  86137085.960 7  21035542.793    21035556.990       -1513.340  
     -1179.430          43.000          42.000  
 118005134.611 7  91952138.405 7  22455631.279    22455651.493        3210.051  
      2501.223          44.000          42.000  
 127260915.048 5  99164427.631 6  24216948.327    24216966.731       -3062.199  
     -2386.160          35.000          41.000  
 24  1 10  3 14  3.9000000  0  6G24G10G18G23G32G15
 129735691.478 6 101092838.162 6  24687880.888    24687903.427         647.961  
       504.688          39.000          39.000  
 109148357.784 7  85050736.446 6  20770243.258    20770258.539         428.031  
       333.371          45.000          41.000  
 113870783.909 7  88730545.972 7  21668890.702    21668906.210       -1465.125  
     -1141.660          45.000          45.000  
 110542670.259 7  86137203.912 7  21035571.600    21035585.795       -1513.566  
     -1179.496          42.000          42.000  
 118004813.653 7  91951888.303 7  22455570.203    22455590.416        3209.852  
      2501.113          44.000          42.000  
 127261221.283 6  99164666.253 6  24217006.601    24217025.005       -3062.320  
     -2386.227          36.000          41.000  
 24  1 10  3 14  4.0000000  0  6G24G10G18G23G32G15
 129735626.733 6 101092787.696 6  24687868.716    24687891.486         647.738  
       504.789          39.000          39.000  
 109148315.001 7  85050703.128 6  20770234.648    20770250.207         427.871  
       333.293          45.000          41.000  
 113870930.448 7  88730660.163 7  21668918.556    21668934.096       -1465.375  
     -1141.996          45.000          45.000  
 110542821.635 7  86137321.885 7  21035600.398    21035614.886       -1513.641  
     -1179.617          43.000          42.000  
 118004492.695 7  91951638.195 7  22455509.228    22455529.563        3209.688  
      2500.895          44.000          42.000  
 127261527.525 6  99164904.915 6  24217064.776    24217083.101       -3062.332  
     -2386.516          36.000          40.000  
 24  1 10  3 14  4.1000000  0  6G24G10G18G23G32G15
 129735561.979 6 101092737.245 6  24687856.394    24687879.165         647.652  
       504.633          39.000          39.000  
 109148272.243 7  85050669.802 6  20770226.511    20770242.068         427.754  
       333.184          45.000          41.000  
 113871077.000 7  88730774.339 7  21668946.444    21668961.979       -1465.402  
     -1141.902          45.000          45.000  
 110542973.048 7  86137439.893 7  21035629.211    21035643.705       -1513.590  
     -1179.656          43.000          42.000  
 118004171.745 7  91951388.120 6  22455448.153    22455468.492        3209.621  
      2500.824          44.000          41.000  
 127261833.809 6  99165143.559 6  24217123.059    24217141.381       -3062.617  
     -2386.500          36.000          40.000  
 24  1 10  3 14  4.2000000  0  6G24G10G18G23G32G15
 129735497.242 6 101092686.779 6  24687844.239    24687866.505         647.434  
       504.637          39.000          39.000  
 109148229.501 7  85050636.498 6  20770218.354    20770234.505         427.656  
       333.211          45.000          41.000  
 113871223.566 7  88730888.540 7  21668974.507    21668990.181       -1465.586  
     -1142.066          45.000          45.000  
 110543124.423 7  86137557.829 7  21035657.907    21035672.225       -1514.000  
     -1179.848          43.000          42.000  
 118003850.807 7  91951138.019 6  22455387.034    22455407.478        3209.434  
      2500.801          44.000          41.000  
 127262140.060 6  99165382.237 6  24217181.478    24217199.746       -3062.535  
     -2386.688          36.000          41.000  
 24  1 10  3 14  4.3000000  0  6G24G10G18G23G32G15
 129735432.495 6 101092636.339 6  24687831.918    24687854.187         647.484  
       504.332          38.000          39.000  
 109148186.755 7  85050603.192 6  20770210.220    20770226.371         427.582  
       333.055          45.000          41.000  
 113871370.127 7  88731002.768 7  21669002.396    21669018.076       -1465.535  
     -1142.078          45.000          45.000  
 110543275.829 7  86137675.803 7  21035686.719    21035701.035       -1513.945  
     -1179.668          43.000          42.000  
 118003529.874 7  91950887.961 6  22455325.962    22455346.411        3209.402  
      2500.652          44.000          41.000  
 127262446.378 6  99165620.885 6  24217239.768    24217258.027       -3062.965  
     -2386.559          36.000          41.000  
 24  1 10  3 14  4.4000000  0  6G24G10G18G23G32G15
 129735367.793 6 101092585.923 6  24687819.489    24687841.726         647.312  
       504.199          39.000          39.000  
 109148144.013 7  85050569.893 6  20770202.188    20770218.091         427.441  
       333.012          45.000          41.000  
 113871516.724 7  88731116.994 7  21669030.246    21669045.729       -1465.672  
     -1142.168          45.000          45.000  
 110543427.249 7  86137793.797 7  21035715.431    21035729.773       -1514.047  
     -1179.754          43.000          42.000  
 118003208.932 7  91950637.865 6  22455265.147    22455285.741        3209.277  
      2500.660          44.000          41.000  
 127262752.714 6  99165859.559 6  24217298.054    24217316.469       -3063.191  
     -2386.625          36.000          41.000  
 24  1 10  3 14  4.5000000  0  6G24G10G18G23G32G15
 129735303.074 6 101092535.487 6  24687807.173    24687829.409         647.234  
       504.441          39.000          39.000  
 109148101.290 7  85050536.586 6  20770194.058    20770209.957         427.371  
       332.934          45.000          41.000  
 113871663.284 7  88731231.192 7  21669058.136    21669073.618       -1465.770  
     -1142.262          45.000          45.000  
 110543578.671 7  86137911.772 7  21035744.246    21035758.583       -1514.082  
     -1179.812          42.000          42.000  
 118002888.026 7  91950387.803 6  22455204.080    22455224.674        3209.281  
      2500.719          44.000          41.000  
 127263059.013 6  99166098.203 6  24217356.341    24217374.749       -3063.047  
     -2386.527          36.000          41.000  
 24  1 10  3 14  4.6000000  0  6G24G10G18G23G32G15
 129735238.352 6 101092485.071 6  24687794.638    24687817.433         647.230  
       504.211          39.000          39.000  
 109148058.583 7  85050503.297 6  20770186.298    20770202.046         427.188  
       332.887          45.000          41.000  
 113871809.900 7  88731345.436 7  21669085.989    21669101.752       -1465.898  
     -1142.371          45.000          45.000  
 110543730.090 7  86138029.776 7  21035773.107    21035787.057       -1514.156  
     -1179.969          43.000          42.000  
 118002567.125 7  91950137.758 6  22455142.898    22455163.376        3208.973  
      2500.441          44.000          41.000  
 127263365.292 6  99166336.892 6  24217414.944    24217432.883       -3062.926  
     -2386.766          36.000          41.000  
 24  1 10  3 14  4.7000000  0  6G24G10G18G23G32G15
 129735173.707 6 101092434.668 6  24687782.336    24687805.124         646.855  
       504.070          39.000          39.000  
 109148015.889 7  85050470.058 6  20770178.174    20770193.929         426.980  
       332.477          45.000          41.000  
 113871956.532 7  88731459.714 7  21669113.892    21669129.660       -1466.141  
     -1142.699          45.000          45.000  
 110543881.552 7  86138147.777 7  21035801.929    21035815.874       -1514.492  
     -1180.160          43.000          42.000  
 118002246.276 7  91949887.739 6  22455081.842    22455102.318        3208.863  
      2500.219          44.000          41.000  
 127263671.639 6  99166575.628 6  24217473.240    24217491.185       -3063.191  
     -2387.234          36.000          41.000  
 24  1 10  3 14  4.8000000  0  6G24G10G18G23G32G15
 129735109.032 6 101092384.299 6  24687770.021    24687793.183         646.781  
       503.727          39.000          39.000  
 109147973.231 7  85050436.819 6  20770170.017    20770186.179         426.777  
       332.383          45.000          41.000  
 113872103.168 7  88731573.976 7  21669142.061    21669157.579       -1466.324  
     -1142.703          45.000          45.000  
 110544033.012 7  86138265.799 7  21035830.985    21035845.119       -1514.715  
     -1180.356          43.000          42.000  
 118001925.414 7  91949637.750 6  22455020.573    22455040.823        3208.766  
      2500.195          44.000          41.000  
 127263978.037 6  99166814.328 6  24217531.897    24217549.720       -3063.633  
     -2387.156          36.000          41.000  
 24  1 10  3 14  4.9000000  0  6G24G10G18G23G32G15
 129735044.388 6 101092333.938 6  24687757.720    24687780.884         646.555  
       503.473          40.000          38.000  
 109147930.609 7  85050403.587 6  20770161.906    20770178.063         426.484  
       332.152          45.000          41.000  
 113872249.873 7  88731688.270 7  21669169.978    21669185.491       -1466.676  
     -1143.020          45.000          45.000  
 110544184.515 7  86138383.879 7  21035859.815    21035873.955       -1514.801  
     -1180.652          43.000          42.000  
 118001604.581 7  91949387.714 6  22454959.521    22454979.762        3208.285  
      2499.730          44.000          41.000  
 127264284.413 6  99167053.072 6  24217590.199    24217608.024       -3063.742  
     -2387.398          36.000          41.000  
 24  1 10  3 14  5.0000000  0  6G24G10G18G23G32G15
 129734979.763 6 101092283.587 6  24687745.454    24687768.330         646.316  
       503.469          40.000          38.000  
 109147887.959 7  85050370.402 6  20770153.361    20770169.881         426.395  
       332.148          45.000          41.000  
 113872396.547 7  88731802.572 7  21669197.929    21669213.233       -1466.727  
     -1142.922          45.000          45.000  
 110544336.040 7  86138501.929 7  21035888.845    21035902.581       -1515.133  
     -1180.703          42.000          42.000  
 118001283.780 7  91949137.768 6  22454898.553    22454918.738        3208.297  
      2499.910          44.000          41.000  
 127264590.811 6  99167291.812 6  24217648.410    24217666.561       -3063.719  
     -2387.445          36.000          41.000  
 24  1 10  3 14  5.1000000  0  6G24G10G18G23G32G15
 129734915.150 6 101092233.227 6  24687733.158    24687756.032         646.348  
       503.633          40.000          39.000  
 109147845.336 7  85050337.153 6  20770145.250    20770161.762         426.336  
       332.328          45.000          41.000  
 113872543.241 7  88731916.870 7  21669225.844    21669241.146       -1466.797  
     -1142.988          45.000          45.000  
 110544487.548 7  86138619.990 7  21035917.676    21035931.412       -1514.867  
     -1180.344          42.000          42.000  
 118000962.961 7  91948887.761 6  22454837.503    22454857.684        3208.219  
      2499.871          44.000          41.000  
 127264897.156 6  99167530.569 6  24217706.706    24217724.868       -3063.676  
     -2387.555          37.000          40.000  
 24  1 10  3 14  5.2000000  0  6G24G10G18G23G32G15
 129734850.550 6 101092182.917 6  24687721.107    24687743.863         646.082  
       503.281          40.000          39.000  
 109147802.720 7  85050303.933 6  20770137.195    20770153.789         426.234  
       332.176          45.000          41.000  
 113872689.929 7  88732031.182 7  21669253.601    21669269.015       -1466.918  
     -1143.277          45.000          45.000  
 110544639.065 7  86138738.060 7  21035946.313    21035960.246       -1515.145  
     -1180.848          42.000          42.000  
 118000642.172 7  91948637.797 6  22454776.482    22454796.773        3207.992  
      2499.664          44.000          41.000  
 127265203.551 6  99167769.321 6  24217764.972    24217783.330       -3063.836  
     -2387.473          36.000          40.000  
 24  1 10  3 14  5.3000000  0  6G24G10G18G23G32G15
 129734785.959 6 101092132.571 6  24687708.816    24687731.568         646.066  
       503.449          40.000          39.000  
 109147760.118 7  85050270.768 6  20770129.088    20770145.690         426.160  
       331.840          45.000          41.000  
 113872836.641 7  88732145.505 7  21669281.520    21669296.933       -1466.879  
     -1143.004          45.000          45.000  
 110544790.589 7  86138856.098 7  21035975.147    21035989.072       -1515.266  
     -1180.586          42.000          42.000  
 118000321.355 7  91948387.813 6  22454715.433    22454735.724        3208.039  
      2499.723          44.000          41.000  
 127265509.982 5  99168008.085 6  24217823.284    24217841.638       -3064.098  
     -2387.531          35.000          40.000  
 24  1 10  3 14  5.4000000  0  6G24G10G18G23G32G15
 129734721.367 6 101092082.250 6  24687697.001    24687719.208         645.945  
       503.168          40.000          39.000  
 109147717.514 7  85050237.547 6  20770121.145    20770137.710         426.086  
       331.984          45.000          41.000  
 113872983.331 7  88732259.808 7  21669309.309    21669324.910       -1466.984  
     -1143.219          45.000          45.000  
 110544942.146 7  86138974.203 7  21036003.761    21036018.188       -1515.234  
     -1180.727          42.000          42.000  
 118000000.560 7  91948137.846 6  22454654.341    22454674.375        3208.098  
      2499.621          44.000          41.000  
 127265816.442 5  99168246.829 6  24217881.203    24217899.614       -3064.277  
     -2387.559          35.000          40.000  
 24  1 10  3 14  5.5000000  0  6G24G10G18G23G32G15
 129734656.789 6 101092031.926 6  24687684.712    24687706.919         645.887  
       503.309          40.000          39.000  
 109147674.926 7  85050204.374 6  20770113.041    20770129.609         426.020  
       331.812          45.000          41.000  
 113873130.073 7  88732374.135 7  21669337.233    21669352.830       -1467.195  
     -1143.238          45.000          45.000  
 110545093.680 7  86139092.317 7  21036032.597    21036047.033       -1515.277  
     -1180.875          42.000          42.000  
 117999679.835 7  91947887.930 6  22454593.309    22454613.343        3207.711  
      2499.410          44.000          41.000  
 127266122.840 5  99168485.619 6  24217939.508    24217957.929       -3064.238  
     -2387.684          35.000          40.000  
 24  1 10  3 14  5.6000000  0  6G24G10G18G23G32G15
 129734592.255 6 101091981.631 6  24687672.463    24687694.714         645.590  
       503.000          40.000          39.000  
 109147632.381 7  85050171.210 6  20770104.991    20770121.237         425.688  
       331.488          45.000          41.000  
 113873276.830 7  88732488.508 7  21669365.160    21669380.745       -1467.352  
     -1143.543          45.000          45.000  
 110545245.273 7  86139210.419 7  21036061.413    21036075.953       -1515.555  
     -1180.988          42.000          42.000  
 117999359.084 7  91947638.001 6  22454532.248    22454552.175        3207.555  
      2499.207          44.000          41.000  
 127266429.278 5  99168724.399 6  24217997.751    24218016.468       -3064.391  
     -2388.027          35.000          41.000  
 24  1 10  3 14  5.7000000  0  6G24G10G18G23G32G15
 129734527.727 6 101091931.352 6  24687660.184    24687682.436         645.418  
       502.914          41.000          39.000  
 109147589.844 7  85050138.066 6  20770096.897    20770113.142         425.492  
       331.445          45.000          41.000  
 113873423.593 7  88732602.861 7  21669393.088    21669408.671       -1467.652  
     -1143.734          45.000          45.000  
 110545396.868 7  86139328.568 7  21036090.261    21036104.806       -1515.738  
     -1181.324          43.000          42.000  
 117999038.350 7  91947388.084 6  22454471.215    22454491.143        3207.371  
      2499.152          44.000          41.000  
 127266735.784 5  99168963.221 6  24218056.077    24218074.790       -3064.547  
     -2387.922          35.000          41.000  
 24  1 10  3 14  5.8000000  0  6G24G10G18G23G32G15
 129734463.239 6 101091881.109 6  24687647.897    24687670.017         645.258  
       502.508          41.000          39.000  
 109147547.320 7  85050104.935 6  20770088.703    20770104.754         425.340  
       331.242          45.000          41.000  
 113873570.411 7  88732717.270 7  21669421.065    21669436.760       -1467.789  
     -1143.891          45.000          45.000  
 110545548.450 7  86139446.636 7  21036119.074    21036133.655       -1516.039  
     -1181.410          43.000          42.000  
 117998717.647 7  91947138.180 6  22454409.976    22454429.918        3207.246  
      2498.957          44.000          41.000  
 127267042.255 5  99169202.026 6  24218114.092    24218132.781       -3064.754  
     -2388.289          35.000          41.000  
 24  1 10  3 14  5.9000000  0  6G24G10G18G23G32G15
 129734398.772 6 101091830.866 6  24687635.629    24687657.747         644.918  
       502.422          41.000          39.000  
 109147504.833 7  85050071.817 6  20770080.618    20770096.667         425.082  
       331.027          45.000          41.000  
 113873717.200 7  88732831.649 7  21669448.998    21669464.692       -1467.961  
     -1143.988          45.000          45.000  
 110545700.096 7  86139564.825 7  21036147.932    21036162.518       -1516.172  
     -1181.617          43.000          42.000  
 117998396.969 7  91946888.310 6  22454348.953    22454368.898        3206.996  
      2498.652          44.000          41.000  
 127267348.760 6  99169440.883 6  24218172.418    24218191.112       -3064.836  
     -2388.551          36.000          41.000  
 24  1 10  3 14  6.0000000  0  6G24G10G18G23G32G15
 129734334.269 6 101091780.605 6  24687623.245    24687645.528         644.922  
       502.473          40.000          39.000  
 109147462.329 7  85050038.713 6  20770072.499    20770088.528         425.020  
       331.309          45.000          41.000  
 113873864.009 7  88732946.055 7  21669477.170    21669492.788       -1468.086  
     -1143.957          45.000          45.000  
 110545851.713 7  86139682.959 7  21036176.979    21036191.461       -1516.270  
     -1181.504          43.000          42.000  
 117998076.294 7  91946638.428 6  22454287.993    22454307.608        3206.871  
      2498.891          44.000          41.000  
 127267655.257 6  99169679.729 6  24218231.039    24218249.363       -3064.867  
     -2388.371          36.000          41.000  
 24  1 10  3 14  6.1000000  0  6G24G10G18G23G32G15
 129734269.823 6 101091730.373 6  24687610.982    24687633.261         644.648  
       502.285          40.000          39.000  
 109147419.871 7  85050005.614 6  20770064.419    20770080.445         424.898  
       330.934          45.000          41.000  
 113874010.847 7  88733060.460 7  21669505.112    21669520.726       -1468.184  
     -1144.211          45.000          45.000  
 110546003.359 7  86139801.130 7  21036205.836    21036220.320       -1516.250  
     -1181.641          43.000          42.000  
 117997755.612 7  91946388.532 6  22454226.969    22454246.581        3206.840  
      2498.648          44.000          41.000  
 127267961.776 5  99169918.560 6  24218289.368    24218307.688       -3065.078  
     -2388.418          35.000          41.000  
 24  1 10  3 14  6.2000000  0  6G24G10G18G23G32G15
 129734205.439 6 101091680.176 6  24687598.691    24687620.619         644.371  
       502.027          39.000          39.000  
 109147377.404 7  85049972.523 6  20770056.440    20770072.746         424.680  
       330.883          45.000          41.000  
 113874157.702 7  88733174.894 7  21669533.268    21669548.587       -1468.457  
     -1144.363          45.000          45.000  
 110546155.038 7  86139919.331 7  21036234.731    21036249.358       -1516.465  
     -1181.727          43.000          42.000  
 117997434.956 7  91946138.687 6  22454166.075    22454185.949        3206.602  
      2498.410          44.000          41.000  
 127268268.332 5  99170157.433 6  24218348.032    24218365.757       -3065.461  
     -2388.801          35.000          41.000  
 24  1 10  3 14  6.3000000  0  6G24G10G18G23G32G15
 129734141.001 6 101091629.946 6  24687586.428    24687608.353         644.242  
       502.195          38.000          39.000  
 109147334.953 7  85049939.452 6  20770048.362    20770064.670         424.609  
       330.777          45.000          41.000  
 113874304.551 7  88733289.323 7  21669561.213    21669576.531       -1468.410  
     -1144.371          45.000          45.000  
 110546306.707 7  86140037.499 7  21036263.593    21036278.216       -1516.656  
     -1181.910          43.000          42.000  
 117997114.316 7  91945888.829 6  22454105.060    22454124.931        3206.500  
      2498.566          44.000          41.000  
 127268574.856 6  99170396.298 6  24218406.362    24218424.091       -3065.352  
     -2388.617          36.000          41.000  
 24  1 10  3 14  6.4000000  0  6G24G10G18G23G32G15
 129734076.582 6 101091579.771 6  24687574.186    24687595.787         644.156  
       501.766          38.000          39.000  
 109147292.516 7  85049906.381 6  20770040.372    20770057.125         424.469  
       330.742          45.000          41.000  
 113874451.440 7  88733403.784 7  21669589.141    21669604.390       -1468.547  
     -1144.363          45.000          45.000  
 110546458.380 7  86140155.678 7  21036292.463    21036306.943       -1516.809  
     -1181.981          43.000          42.000  
 117996793.715 7  91945639.004 6  22454044.153    22454064.211        3206.367  
      2498.426          44.000          41.000  
 127268881.432 5  99170635.158 6  24218464.693    24218482.571       -3065.492  
     -2388.637          35.000          40.000  
 24  1 10  3 14  6.5000000  0  6G24G10G18G23G32G15
 129734012.205 6 101091529.599 6  24687561.935    24687583.534         644.020  
       501.852          38.000          38.000  
 109147250.090 7  85049873.318 6  20770032.299    20770049.051         424.328  
       330.449          45.000          41.000  
 113874598.319 7  88733518.234 7  21669617.092    21669632.340       -1468.770  
     -1144.590          45.000          45.000  
 110546610.069 7  86140273.867 7  21036321.328    21036335.806       -1516.879  
     -1182.035          43.000          42.000  
 117996473.107 7  91945389.208 6  22453983.143    22454003.208        3206.195  
      2498.113          44.000          41.000  
 127269187.983 5  99170874.062 6  24218523.028    24218540.914       -3065.469  
     -2388.953          35.000          40.000  
 24  1 10  3 14  6.6000000  0  6G24G10G18G23G32G15
 129733947.778 6 101091479.443 6  24687549.573    24687571.137         644.145  
       501.617          39.000          38.000  
 109147207.681 7  85049840.281 6  20770024.369    20770040.850         424.203  
       330.523          45.000          41.000  
 113874745.202 7  88733632.690 7  21669644.550    21669660.252       -1468.926  
     -1144.750          45.000          45.000  
 110546761.795 7  86140392.121 7  21036349.834    21036364.216       -1516.875  
     -1182.090          43.000          42.000  
 117996152.489 7  91945139.349 6  22453922.421    22453942.072        3206.031  
      2498.199          44.000          41.000  
 127269494.592 5  99171112.953 6  24218581.288    24218599.371       -3065.910  
     -2388.922          35.000          40.000  
 24  1 10  3 14  6.7000000  0  6G24G10G18G23G32G15
 129733883.402 6 101091429.291 6  24687537.323    24687558.890         643.949  
       501.285          40.000          38.000  
 109147165.302 7  85049807.251 6  20770016.305    20770032.784         424.047  
       330.297          45.000          41.000  
 113874892.094 7  88733747.154 7  21669672.503    21669688.205       -1468.984  
     -1144.699          45.000          45.000  
 110546913.500 7  86140510.345 7  21036378.702    21036393.088       -1517.000  
     -1182.348          43.000          42.000  
 117995831.910 7  91944889.557 6  22453861.416    22453881.071        3205.969  
      2498.000          44.000          41.000  
 127269801.188 5  99171351.856 6  24218639.631    24218657.713       -3065.793  
     -2389.102          35.000          40.000  
 24  1 10  3 14  6.8000000  0  6G24G10G18G23G32G15
 129733819.047 6 101091379.171 6  24687525.209    24687546.814         643.824  
       501.438          40.000          38.000  
 109147122.948 7  85049774.274 6  20770008.089    20770024.863         423.797  
       329.891          45.000          41.000  
 113875039.051 7  88733861.685 7  21669700.530    21669716.120       -1469.168  
     -1145.023          45.000          45.000  
 110547065.227 7  86140628.567 7  21036407.622    21036422.787       -1517.273  
     -1182.461          43.000          42.000  
 117995511.356 7  91944639.750 6  22453800.425    22453820.300        3205.742  
      2497.828          44.000          41.000  
 127270107.756 5  99171590.769 6  24218697.703    24218715.972       -3065.852  
     -2389.195          35.000          40.000  
 24  1 10  3 14  6.9000000  0  6G24G10G18G23G32G15
 129733754.707 6 101091329.061 6  24687512.966    24687534.577         643.574  
       500.980          41.000          38.000  
 109147080.586 7  85049741.247 6  20770000.027    20770016.798         423.602  
       330.160          45.000          41.000  
 113875186.016 7  88733976.177 7  21669728.497    21669744.080       -1469.438  
     -1145.090          45.000          45.000  
 110547216.982 7  86140746.816 7  21036436.500    21036451.664       -1517.562  
     -1182.547          42.000          42.000  
 117995190.827 7  91944390.007 6  22453739.430    22453759.310        3205.508  
      2497.688          44.000          41.000  
 127270414.447 5  99171829.711 6  24218756.065    24218774.324       -3066.293  
