     2.11           OBSERVATION DATA    M (MIXED)           RINEX VERSION / TYPE
GPP.DLL V3.2.21                         18 - MAR - 24 07:43 PGM / RUN BY / DATE 
                                                            MARKER NAME         
                                                            MARKER NUMBER       
                                                            OBSERVER / AGENCY   
6028C00128          APX-15v3 AV         5.50                REC # / TYPE / VERS 
                    E                                       ANT # / TYPE        
 -4667904.5382  2554601.9719 -3504786.6785                  APPROX POSITION XYZ 
        0.0000       -0.0000       -0.0000                  ANTENNA: DELTA H/E/N
     1     1                                                WAVELENGTH FACT L1/2
     9    L1    L2    C1    P2    C2    D1    D2    S1    S2# / TYPES OF OBSERV 
     0.100                                                  INTERVAL            
  2024     1    10     3    22    0.0000000     GPS         TIME OF FIRST OBS   
  2024     1    10     3    22   59.9000000     GPS         TIME OF LAST OBS    
    18                                                      LEAP SECONDS        
     8                                                      # OF SATELLITES     
   G08   600   600   600     0   600   600   600   600   600PRN / # OF OBS      
   G10   600   600   600     0   600   600   600   600   600PRN / # OF OBS      
   G15   600   600   600     0   600   600   600   600   600PRN / # OF OBS      
   G16   210   210   210   210     0   210   210   210   210PRN / # OF OBS      
   G18   600   600   600     0   600   600   600   600   600PRN / # OF OBS      
   G23   600   600   600     0   600   600   600   600   600PRN / # OF OBS      
   G24   556   556   556     0   556   556   556   556   556PRN / # OF OBS      
   G32   600   600   600     0   600   600   600   600   600PRN / # OF OBS      
                                                            END OF HEADER       
 24  1 10  3 22  0.0000000  0  7G08G16G18G23G10G32G15
 128453363.044 6 100093613.997 6  24443874.760                    24443895.235  
      2789.930        2174.078          37.000          36.000  
 128059869.766 5  99787037.588 3  24368990.464    24369015.207                  
     -2311.277       -1800.910          34.000          21.000  
 113115435.512 7  88141961.754 7  21525153.642                    21525168.760  
     -1875.918       -1461.832          43.000          42.000  
 109796015.346 7  85555394.050 7  20893488.956                    20893503.119  
     -1847.668       -1439.559          45.000          45.000  
 107493759.436 8  83761438.859 7  20455383.973                    20455399.954  
        23.891          18.727          48.000          45.000  
 115027270.239 7  89631726.689 6  21888961.023                    21888979.276  
      2772.074        2160.152          47.000          38.000  
 127248747.135 6  99154942.676 6  24214635.514                    24214653.729  
     -3380.098       -2633.926          39.000          38.000  
 24  1 10  3 22  0.1000000  0  7G08G16G18G23G10G32G15
 128453084.063 6 100093396.562 6  24443821.672                    24443842.135  
      2789.848        2174.008          36.000          36.000  
 128060100.887 5  99787217.678 3  24369034.444    24369059.187                  
     -2311.277       -1800.969          34.000          20.000  
 113115623.123 7  88142107.936 7  21525189.344                    21525204.460  
     -1875.977       -1461.398          43.000          42.000  
 109796200.102 7  85555538.009 7  20893524.114                    20893538.275  
     -1847.523       -1439.625          44.000          45.000  
 107493757.037 8  83761436.998 7  20455383.517                    20455399.500  
        24.031          18.754          48.000          45.000  
 115026993.002 7  89631510.637 6  21888908.266                    21888926.514  
      2772.074        2160.023          47.000          38.000  
 127249085.109 6  99155206.027 6  24214699.828                    24214718.042  
     -3379.938       -2633.637          39.000          38.000  
 24  1 10  3 22  0.2000000  0  7G08G16G18G23G10G32G15
 128452805.122 6 100093179.263 6  24443768.044                    24443789.147  
      2789.594        2173.414          36.000          36.000  
 128060332.007 5  99787397.766 3  24369078.253    24369103.174                  
     -2311.148       -1800.773          35.000          20.000  
 113115810.715 7  88142254.126 7  21525224.854                    21525239.911  
     -1876.020       -1462.106          42.000          42.000  
 109796384.878 7  85555681.988 7  20893559.088                    20893573.491  
     -1847.715       -1439.762          45.000          45.000  
 107493754.664 8  83761435.153 7  20455382.854                    20455398.854  
        23.871          18.547          48.000          45.000  
 115026715.823 7  89631294.689 6  21888855.325                    21888873.746  
      2771.961        2159.703          47.000          38.000  
 127249423.095 6  99155469.393 6  24214763.926                    24214782.139  
     -3379.942       -2633.582          38.000          38.000  
 24  1 10  3 22  0.3000000  0  7G08G16G18G23G10G32G15
 128452526.201 6 100092961.911 6  24443714.968                    24443736.067  
      2789.484        2173.648          36.000          36.000  
 128060563.197 5  99787577.910 3  24369122.247    24369147.167                  
     -2311.750       -1801.641          34.000          20.000  
 113115998.403 7  88142400.354 7  21525260.570                    21525275.621  
     -1876.535       -1462.254          43.000          42.000  
 109796569.679 7  85555826.006 7  20893594.255                    20893608.661  
     -1847.859       -1440.238          45.000          45.000  
 107493752.329 8  83761433.316 7  20455382.410                    20455398.405  
        23.449          18.160          48.000          45.000  
 115026438.692 7  89631078.709 6  21888802.589                    21888821.002  
      2771.555        2159.535          47.000          38.000  
 127249761.144 6  99155732.776 6  24214828.254                    24214846.460  
     -3380.402       -2633.887          37.000          38.000  
 24  1 10  3 22  0.4000000  0  7G08G16G18G23G10G32G15
 128452247.271 6 100092744.551 6  24443661.873                    24443682.790  
      2789.211        2173.445          37.000          36.000  
 128060794.421 5  99787758.078 3  24369166.107    24369191.182                  
     -2311.812       -1801.402          34.000          20.000  
 113116186.035 7  88142546.592 7  21525296.595                    21525311.701  
     -1876.383       -1462.285          43.000          42.000  
 109796754.484 7  85555970.007 7  20893629.469                    20893642.992  
     -1848.012       -1440.031          45.000          44.000  
 107493750.028 8  83761431.516 7  20455381.793                    20455397.489  
        23.223          17.902          48.000          45.000  
 115026161.569 7  89630862.798 6  21888749.667                    21888768.782  
      2771.312        2159.402          47.000          38.000  
 127250099.086 5  99155996.185 6  24214891.992                    24214910.905  
     -3379.738       -2633.789          35.000          38.000  
 24  1 10  3 22  0.5000000  0  7G08G16G18G23G10G32G15
 128451968.374 6 100092527.218 6  24443608.801                    24443629.715  
      2789.156        2173.223          37.000          36.000  
 128061025.610 5  99787938.224 3  24369210.101    24369235.175                  
     -2311.961       -1801.672          34.000          21.000  
 113116373.711 7  88142692.824 7  21525332.309                    21525347.412  
     -1876.703       -1462.414          43.000          42.000  
 109796939.341 7  85556114.049 7  20893664.646                    20893678.169  
     -1848.316       -1440.379          44.000          45.000  
 107493747.728 8  83761429.747 7  20455381.355                    20455397.057  
        23.059          17.699          48.000          45.000  
 115025884.472 7  89630646.847 6  21888696.937                    21888716.044  
      2771.137        2159.250          47.000          38.000  
 127250437.051 5  99156259.525 6  24214956.305                    24214975.215  
     -3379.820       -2633.668          34.000          38.000  
 24  1 10  3 22  0.6000000  0  7G08G16G18G23G10G32G15
 128451689.473 6 100092309.928 6  24443555.806                    24443576.768  
      2789.211        2173.004          37.000          36.000  
 128061256.845 5  99788118.408 3  24369254.158    24369279.194                  
     -2312.141       -1801.805          35.000          21.000  
 113116561.403 7  88142839.075 7  21525368.416                    21525382.480  
     -1876.863       -1462.602          43.000          42.000  
 109797124.154 7  85556258.058 7  20893699.463                    20893713.142  
     -1848.266       -1440.375          44.000          45.000  
 107493745.467 8  83761427.969 7  20455380.878                    20455396.928  
        22.871          17.918          48.000          45.000  
 115025607.382 7  89630430.949 6  21888644.427                    21888663.429  
      2771.051        2158.996          47.000          38.000  
 127250775.159 5  99156522.912 6  24215019.817                    24215038.802  
     -3380.289       -2633.984          34.000          38.000  
 24  1 10  3 22  0.7000000  0  7G08G16G18G23G10G32G15
 128451410.564 6 100092092.574 6  24443502.732                    24443523.688  
      2789.062        2173.336          37.000          36.000  
 128061488.042 5  99788298.560 3  24369298.154    24369323.189                  
     -2312.004       -1801.477          35.000          21.000  
 113116749.088 7  88142985.335 7  21525404.131                    21525418.198  
     -1876.691       -1462.375          43.000          42.000  
 109797309.019 7  85556402.112 7  20893734.642                    20893748.321  
     -1848.379       -1440.203          45.000          45.000  
 107493743.204 8  83761426.226 7  20455380.447                    20455396.502  
        22.793          17.594          48.000          45.000  
 115025330.302 7  89630215.026 6  21888591.701                    21888610.699  
      2770.840        2159.016          47.000          38.000  
 127251113.232 5  99156786.359 6  24215084.150                    24215103.139  
     -3380.574       -2634.262          33.000          38.000  
 24  1 10  3 22  0.8000000  0  8G08G24G18G23G16G10G15G32
 128451131.673 6 100091875.243 6  24443449.762                    24443470.801  
      2789.004        2173.246          37.000          37.000  
 127983530.33035  99727520.293 6  24354456.427                    24354477.562  
       199.352         155.398          34.000          38.000  
 113116936.750 7  88143131.547 7  21525439.623                    21525454.655  
     -1876.711       -1462.238          43.000          42.000  
 109797493.815 7  85556546.086 7  20893769.948                    20893783.864  
     -1848.254       -1440.117          45.000          45.000  
 128061719.272 5  99788478.734 3  24369342.624    24369367.236                  
     -2312.168       -1801.715          35.000          21.000  
 107493740.930 8  83761424.438 7  20455379.952                    20455396.190  
        22.648          17.457          48.000          45.000  
 127251451.255 5  99157049.703 6  24215147.841                    24215167.278  
     -3380.164       -2633.695          33.000          37.000  
 115025053.217 7  89629999.140 6  21888539.348                    21888557.586  
      2770.910        2159.172          47.000          38.000  
 24  1 10  3 22  0.9000000  0  8G08G24G18G23G16G10G15G32
 128450852.757 6 100091657.941 6  24443396.686                    24443417.734  
      2789.016        2173.074          37.000          37.000  
 127983510.470 5  99727504.761 6  24354452.648                    24354473.769  
       198.918         155.375          33.000          38.000  
 113117124.408 7  88143277.778 7  21525475.333                    21525490.366  
     -1876.621       -1462.356          43.000          42.000  
 109797678.664 7  85556690.186 7  20893805.124                    20893819.055  
     -1848.188       -1440.414          45.000          44.000  
 128061950.569 5  99788658.963 3  24369386.638    24369411.250                  
     -2312.668       -1802.324          35.000          21.000  
 107493738.670 8  83761422.676 7  20455379.522                    20455395.760  
        22.688          17.703          48.000          45.000  
 127251789.209 5  99157313.073 6  24215212.151                    24215231.596  
     -3379.898       -2633.656          35.000          38.000  
 115024776.131 7  89629783.220 6  21888486.621                    21888504.857  
      2770.840        2159.016          47.000          38.000  
 24  1 10  3 22  1.0000000  0  8G08G24G18G23G16G10G15G32
 128450573.865 6 100091440.632 6  24443343.677                    24443364.665  
      2789.000        2173.176          37.000          37.000  
 127983490.561 5  99727489.277 6  24354449.547                    24354469.902  
       199.242         155.090          31.000          38.000  
 113117312.074 7  88143424.056 7  21525510.795                    21525525.948  
     -1876.637       -1462.469          42.000          42.000  
 109797863.500 7  85556834.160 7  20893840.406                    20893854.230  
     -1848.426       -1440.227          45.000          45.000  
 128062181.787 5  99788839.131 3  24369430.669    24369455.264                  
     -2312.336       -1801.719          35.000          21.000  
 107493736.394 8  83761420.908 7  20455379.370                    20455395.352  
        22.672          17.695          48.000          45.000  
 127252127.211 5  99157576.489 6  24215276.330                    24215295.894  
     -3380.024       -2634.141          35.000          38.000  
 115024499.063 7  89629567.344 6  21888433.928                    21888452.036  
      2770.895        2159.137          47.000          38.000  
 24  1 10  3 22  1.1000000  0  8G08G24G18G23G16G10G15G32
 128450295.084 6 100091223.338 6  24443290.627                    24443311.599  
      2788.422        2172.992          37.000          37.000  
 127983470.495 5  99727473.718 6  24354445.728                    24354466.102  
       199.820         155.426          31.000          38.000  
 113117499.730 7  88143570.218 7  21525546.505                    21525561.642  
     -1876.559       -1461.984          43.000          42.000  
 109798048.326 7  85556978.181 7  20893875.577                    20893889.401  
     -1848.230       -1439.930          44.000          45.000  
 128062413.026 5  99789019.315 3  24369474.672    24369499.267                  
     -2312.453       -1801.992          35.000          22.000  
 107493734.123 8  83761419.144 7  20455378.938                    20455394.921  
        22.812          17.781          48.000          45.000  
 127252465.193 6  99157839.815 6  24215340.646                    24215360.201  
     -3379.976       -2633.285          37.000          37.000  
 115024221.965 7  89629351.402 6  21888381.198                    21888399.301  
      2770.926        2159.273          47.000          38.000  
 24  1 10  3 22  1.2000000  0  8G08G24G18G23G16G10G15G32
 128450016.175 6 100091006.029 6  24443237.247                    24443258.726  
      2788.980        2173.117          37.000          37.000  
 127983450.592 5  99727458.137 6  24354442.121                    24354462.367  
       199.332         155.590          31.000          37.000  
 113117687.351 7  88143716.456 7  21525582.013                    21525597.159  
     -1876.055       -1461.777          43.000          42.000  
 109798233.044 7  85557122.137 7  20893910.291                    20893924.909  
     -1847.273       -1439.719          44.000          45.000  
 128062644.313 5  99789199.540 3  24369518.536    24369543.241                  
     -2312.770       -1802.168          35.000          21.000  
 107493731.787 8  83761417.312 7  20455378.595                    20455394.520  
        23.199          18.016          48.000          45.000  
 127252803.164 6  99158103.187 6  24215405.210                    24215424.714  
     -3379.394       -2633.547          37.000          37.000  
 115023944.833 7  89629135.474 6  21888328.477                    21888346.420  
      2771.430        2159.586          47.000          38.000  
 24  1 10  3 22  1.3000000  0  8G08G24G18G23G16G10G15G32
 128449737.273 6 100090788.726 6  24443184.174                    24443205.658  
      2789.039        2172.848          37.000          37.000  
 127983430.630 5  99727442.594 6  24354438.322                    24354458.571  
       199.418         155.496          30.000          37.000  
 113117874.914 7  88143862.559 7  21525617.705                    21525632.839  
     -1875.824       -1461.684          44.000          42.000  
 109798417.842 7  85557266.106 7  20893945.456                    20893960.067  
     -1847.738       -1439.578          45.000          44.000  
 128062875.530 5  99789379.702 3  24369562.535    24369587.238                  
     -2312.254       -1801.711          35.000          21.000  
 107493729.470 8  83761415.506 7  20455378.154                    20455394.079  
        23.301          18.195          48.000          45.000  
 127253141.057 6  99158366.540 6  24215469.509                    24215489.027  
     -3379.332       -2633.664          37.000          37.000  
 115023667.696 7  89628919.514 6  21888275.739                    21888293.681  
      2771.312        2159.395          47.000          38.000  
 24  1 10  3 22  1.4000000  0  8G08G24G18G23G16G10G15G32
 128449458.438 6 100090571.451 6  24443131.153                    24443152.878  
      2788.559        2172.695          37.000          37.000  
 127983410.546 5  99727427.006 6  24354434.039                    24354453.976  
       200.164         155.750          30.000          37.000  
 113118062.518 7  88144008.794 7  21525653.631                    21525668.512  
     -1876.070       -1462.207          43.000          42.000  
 109798602.606 7  85557410.088 7  20893981.061                    20893994.979  
     -1847.676       -1439.805          45.000          44.000  
 128063106.828 5  99789559.932 3  24369606.675    24369631.221                  
     -2312.758       -1802.262          34.000          21.000  
 107493727.164 8  83761413.712 7  20455377.598                    20455393.446  
        23.102          17.988          48.000          45.000  
 127253479.098 6  99158629.942 6  24215534.234                    24215553.978  
     -3380.012       -2633.957          37.000          38.000  
 115023390.589 7  89628703.585 6  21888222.734                    21888241.456  
      2771.102        2159.176          47.000          39.000  
 24  1 10  3 22  1.5000000  0  8G08G24G18G23G16G10G15G32
 128449179.658 6 100090354.178 6  24443078.103                    24443099.818  
      2788.230        2172.543          37.000          36.000  
 127983390.593 5  99727411.487 6  24354430.242                    24354450.186  
       199.805         155.203          31.000          37.000  
 113118250.110 7  88144154.974 7  21525689.329                    21525704.211  
     -1875.980       -1461.606          43.000          42.000  
 109798787.350 7  85557554.060 7  20894016.217                    20894030.139  
     -1847.617       -1439.844          45.000          44.000  
 128063338.112 5  99789740.150 3  24369650.687    24369675.232                  
     -2312.719       -1802.121          34.000          21.000  
 107493724.874 8  83761411.941 7  20455377.162                    20455393.014  
        23.004          17.754          48.000          45.000  
 127253817.130 6  99158893.359 6  24215598.560                    24215618.307  
     -3380.035       -2634.098          38.000          38.000  
 115023113.481 7  89628487.671 6  21888170.002                    21888188.728  
      2771.055        2159.324          47.000          39.000  
 24  1 10  3 22  1.6000000  0  8G08G24G18G23G16G10G15G32
 128448900.759 6 100090136.902 6  24443025.186                    24443046.648  
      2788.594        2172.898          37.000          36.000  
 127983370.681 5  99727395.904 6  24354426.375                    24354446.396  
       199.438         155.754          32.000          38.000  
 113118437.715 7  88144301.126 7  21525724.865                    21525739.692  
     -1875.945       -1461.684          43.000          42.000  
 109798972.087 7  85557697.986 7  20894051.496                    20894064.967  
     -1847.590       -1439.445          44.000          44.000  
 128063569.384 5  99789920.359 3  24369694.915    24369719.249                  
     -2312.715       -1802.141          34.000          21.000  
 107493722.552 8  83761410.122 7  20455376.697                    20455392.749  
        23.113          18.242          48.000          45.000  
 127254155.118 6  99159156.645 6  24215663.392                    24215682.721  
     -3380.043       -2633.109          39.000          38.000  
 115022836.358 7  89628271.722 6  21888117.299                    21888136.507  
      2771.242        2159.527          47.000          38.000  
 24  1 10  3 22  1.7000000  0  8G08G24G18G23G16G10G15G32
 128448621.936 6 100089919.602 6  24442972.128                    24442993.581  
      2788.348        2172.895          37.000          36.000  
 127983350.728 5  99727380.364 6  24354422.578                    24354442.601  
       199.535         155.562          34.000          38.000  
 113118625.267 7  88144447.269 7  21525760.555                    21525775.381  
     -1875.832       -1461.602          43.000          42.000  
 109799156.866 7  85557841.970 7  20894086.658                    20894100.129  
     -1847.488       -1439.512          44.000          44.000  
 128063800.669 5  99790100.587 3  24369738.927    24369763.262                  
     -2312.816       -1802.270          34.000          22.000  
 107493720.240 8  83761408.304 7  20455376.257                    20455392.305  
        23.133          18.133          48.000          45.000  
 127254493.047 6  99159419.998 6  24215727.698                    24215747.035  
     -3379.547       -2633.516          39.000          38.000  
 115022559.217 7  89628055.747 6  21888064.561                    21888083.763  
      2771.281        2159.484          47.000          38.000  
 24  1 10  3 22  1.8000000  0  8G08G24G18G23G16G10G15G32
 128448343.099 6 100089702.387 6  24442918.973                    24442940.613  
      2788.391        2172.348          37.000          37.000  
 127983330.836 5  99727364.792 6  24354418.668                    24354439.446  
       199.312         155.859          33.000          38.000  
 113118812.902 7  88144593.484 7  21525796.253                    21525811.026  
     -1875.918       -1462.094          43.000          42.000  
 109799341.635 7  85557985.953 7  20894121.311                    20894135.807  
     -1847.668       -1439.859          44.000          45.000  
 128064032.020 5  99790280.861 3  24369783.038    24369807.279                  
     -2313.234       -1802.746          34.000          21.000  
 107493717.984 8  83761406.571 7  20455375.648                    20455391.788  
        22.797          17.527          48.000          45.000  
 127254831.015 6  99159683.390 6  24215792.706                    24215811.467  
     -3379.715       -2633.676          39.000          38.000  
 115022282.146 7  89627839.869 6  21888011.859                    21888031.341  
      2770.961        2158.867          47.000          38.000  
 24  1 10  3 22  1.9000000  0  8G08G24G18G23G16G10G15G32
 128448064.332 6 100089485.138 6  24442865.926                    24442887.558  
      2788.023        2172.574          37.000          37.000  
 127983310.755 5  99727349.225 6  24354414.846                    24354435.645  
       199.984         155.699          33.000          38.000  
 113119000.526 7  88144739.730 7  21525831.956                    21525846.741  
     -1876.188       -1462.176          43.000          42.000  
 109799526.461 7  85558129.971 7  20894156.482                    20894170.977  
     -1848.023       -1440.176          44.000          45.000  
 128064263.340 5  99790461.111 3  24369827.056    24369851.298                  
     -2313.074       -1802.387          34.000          21.000  
 107493715.740 8  83761404.796 7  20455375.221                    20455391.354  
        22.535          17.449          48.000          45.000  
 127255169.035 6  99159946.750 6  24215857.030                    24215875.782  
     -3379.898       -2633.777          39.000          38.000  
 115022005.097 7  89627623.980 6  21887959.138                    21887978.618  
      2770.766        2158.812          47.000          38.000  
 24  1 10  3 22  2.0000000  0  8G08G24G18G23G16G10G15G32
 128447785.557 6 100089267.879 6  24442812.790                    24442834.689  
      2787.938        2172.387          37.000          37.000  
 127983290.883 5  99727333.696 6  24354410.909                    24354431.845  
       199.480         155.039          32.000          38.000  
 113119188.238 7  88144885.945 7  21525867.708                    21525882.784  
     -1877.145       -1462.438          43.000          42.000  
 109799711.307 7  85558274.013 7  20894191.087                    20894206.560  
     -1848.516       -1440.539          44.000          45.000  
 128064494.678 5  99790641.381 3  24369871.086    24369895.345                  
     -2313.492       -1802.770          35.000          21.000  
 107493713.553 8  83761403.127 7  20455375.203                    20455390.650  
        21.930          16.906          48.000          45.000  
 127255507.032 6  99160210.125 6  24215921.903                    24215939.883  
     -3379.934       -2633.949          39.000          38.000  
 115021728.075 7  89627408.134 6  21887906.829                    21887926.071  
      2770.199        2158.719          47.000          38.000  
 24  1 10  3 22  2.1000000  0  8G08G24G18G23G16G10G15G32
 128447506.788 6 100089050.665 6  24442759.743                    24442781.643  
      2787.633        2172.523          37.000          37.000  
 127983270.83435  99727318.211 6  24354407.117                    24354428.063  
       199.277         155.031          31.000          38.000  
 113119375.902 7  88145032.171 7  21525903.419                    21525918.494  
     -1876.898       -1462.383          44.000          42.000  
 109799896.155 7  85558418.029 7  20894226.262                    20894241.730  
     -1848.652       -1440.430          44.000          45.000  
 128064726.042 5  99790821.669 3  24369915.114    24369939.373                  
     -2313.641       -1802.879          34.000          21.000  
 107493711.370 8  83761401.414 7  20455374.788                    20455390.232  
        21.660          16.965          48.000          45.000  
 127255845.024 6  99160473.542 6  24215986.221                    24216004.212  
     -3379.945       -2633.828          39.000          38.000  
 115021451.052 7  89627192.243 6  21887854.113                    21887873.348  
      2770.047        2158.355          47.000          38.000  
 24  1 10  3 22  2.2000000  0  8G08G24G18G23G16G10G15G32
 128447228.001 6 100088833.417 6  24442706.629                    24442728.776  
      2787.840        2172.367          37.000          37.000  
 127983251.03525  99727302.617 6  24354402.974                    24354424.028  
       199.105         155.945          31.000          37.000  
 113119563.563 7  88145178.374 7  21525939.356                    21525954.190  
     -1876.773       -1462.281          44.000          42.000  
 109800080.986 7  85558562.077 7  20894261.762                    20894276.846  
     -1848.223       -1440.438          44.000          45.000  
 128064957.317 5  99791001.882 3  24369959.452    24369983.399                  
     -2313.164       -1802.449          34.000          21.000  
 107493709.180 8  83761399.718 7  20455374.230                    20455389.880  
        21.910          17.039          48.000          45.000  
 127256182.985 6  99160736.879 6  24216050.564                    24216068.052  
     -3379.734       -2633.680          39.000          37.000  
 115021174.029 7  89626976.404 6  21887801.327                    21887820.716  
      2770.305        2158.676          47.000          38.000  
 24  1 10  3 22  2.3000000  0  8G08G24G18G23G16G10G15G32
 128446949.194 6 100088616.202 6  24442653.573                    24442675.730  
      2787.914        2172.250          37.000          37.000  
 127983231.06625  99727287.092 6  24354399.174                    24354420.237  
       199.152         155.039          32.000          37.000  
 113119751.242 7  88145324.703 7  21525975.071                    21525989.925  
     -1876.512       -1462.668          43.000          42.000  
 109800265.868 7  85558706.135 7  20894296.944                    20894312.026  
     -1848.621       -1440.500          45.000          45.000  
 128065188.703 5  99791182.185 3  24370003.483    24370027.430                  
     -2313.465       -1802.781          35.000          21.000  
 107493707.026 8  83761398.018 7  20455373.820                    20455389.465  
        21.789          17.059          48.000          45.000  
 127256520.992 6  99161000.265 6  24216114.884                    24216132.374  
     -3379.961       -2633.988          39.000          37.000  
 115020897.016 7  89626760.551 6  21887748.614                    21887768.002  
      2770.211        2158.590          47.000          38.000  
 24  1 10  3 22  2.4000000  0  8G08G24G18G23G16G10G15G32
 128446670.403 6 100088398.975 6  24442600.896                    24442621.892  
      2787.938        2172.246          37.000          37.000  
 127983211.19625  99727271.573 6  24354395.534                    24354416.369  
       198.992         155.234          32.000          37.000  
 113119939.013 7  88145470.991 7  21526010.747                    21526025.361  
     -1877.047       -1462.727          43.000          42.000  
 109800450.734 7  85558850.202 7  20894332.740                    20894347.326  
     -1848.609       -1440.699          45.000          45.000  
 128065420.056 5  99791362.459 3  24370047.860    24370071.455                  
     -2313.551       -1802.859          34.000          21.000  
 107493704.843 8  83761396.325 7  20455372.858                    20455389.325  
        21.820          16.754          48.000          45.000  
 127256859.008 6  99161263.654 6  24216178.972                    24216196.665  
     -3380.031       -2633.938          38.000          37.000  
 115020619.992 7  89626544.666 6  21887695.734                    21887714.500  
      2770.078        2158.574          47.000          38.000  
 24  1 10  3 22  2.5000000  0  8G08G24G18G23G16G10G15G32
 128446391.640 6 100088181.706 6  24442547.849                    24442568.833  
      2787.750        2172.504          37.000          37.000  
 127983191.26625  99727256.072 6  24354391.741                    24354412.583  
       199.062         154.844          33.000          37.000  
 113120126.692 7  88145617.189 7  21526046.462                    21526061.064  
     -1877.172       -1462.617          44.000          42.000  
 109800635.603 7  85558994.252 7  20894367.920                    20894382.505  
     -1848.684       -1440.531          45.000          45.000  
 128065651.345 5  99791542.683 3  24370091.872    24370115.468                  
     -2313.121       -1802.230          35.000          21.000  
 107493702.680 8  83761394.636 7  20455372.447                    20455388.912  
        21.664          17.012          48.000          45.000  
 127257197.062 6  99161527.042 6  24216243.302                    24216260.987  
     -3380.184       -2633.844          38.000          37.000  
 115020343.006 7  89626328.848 6  21887643.025                    21887661.795  
      2770.156        2158.402          47.000          38.000  
 24  1 10  3 22  2.6000000  0  8G08G24G18G23G16G10G15G32
 128446112.848 6 100087964.479 6  24442494.297                    24442515.471  
      2787.801        2172.199          37.000          37.000  
 127983171.37625  99727240.608 6  24354388.378                    24354408.963  
       199.203         154.910          32.000          37.000  
 113120314.439 7  88145763.489 7  21526082.259                    21526097.136  
     -1877.340       -1462.863          43.000          42.000  
 109800820.492 7  85559138.340 7  20894403.166                    20894417.849  
     -1848.836       -1440.863          45.000          45.000  
 128065882.670 5  99791722.935 3  24370135.564    24370159.526                  
     -2313.238       -1802.566          35.000          21.000  
 107493700.529 8  83761392.976 7  20455372.358                    20455388.249  
        21.676          16.785          48.000          45.000  
 127257535.112 6  99161790.436 6  24216307.545                    24216325.193  
     -3380.426       -2634.160          38.000          37.000  
 115020065.989 7  89626113.009 6  21887590.256                    21887608.468  
      2770.062        2158.391          47.000          38.000  
 24  1 10  3 22  2.7000000  0  8G08G24G18G23G16G10G15G32
 128445834.088 6 100087747.271 6  24442441.251                    24442462.427  
      2787.750        2172.078          37.000          37.000  
 127983151.42125  99727225.097 6  24354384.581                    24354405.175  
       199.070         154.848          33.000          37.000  
 113120502.177 7  88145909.774 7  21526117.984                    21526132.860  
     -1877.289       -1462.863          43.000          43.000  
 109801005.421 7  85559282.414 7  20894438.356                    20894453.033  
     -1848.941       -1440.770          45.000          45.000  
 128066113.955 5  99791903.162 3  24370179.576    24370203.540                  
     -2313.148       -1802.539          34.000          21.000  
 107493698.374 8  83761391.277 7  20455371.948                    20455387.834  
        21.582          16.770          48.000          45.000  
 127257873.166 6  99162053.920 6  24216371.874                    24216389.539  
     -3380.406       -2634.711          37.000          37.000  
 115019788.993 7  89625897.138 6  21887537.545                    21887555.750  
      2770.129        2158.562          47.000          39.000  
 24  1 10  3 22  2.8000000  0  8G08G24G18G23G16G10G15G32
 128445555.366 6 100087530.079 6  24442388.290                    24442409.269  
      2787.371        2172.250          38.000          37.000  
 127983131.76425  99727209.727 6  24354381.528                    24354401.382  
       198.016         153.930          32.000          37.000  
 113120689.944 7  88146056.127 7  21526153.387                    21526169.343  
     -1877.379       -1463.473          43.000          42.000  
 109801190.352 7  85559426.526 7  20894473.665                    20894488.281  
     -1849.375       -1441.234          45.000          45.000  
 128066345.290 5  99792083.427 3  24370223.293    24370247.570                  
     -2313.062       -1802.262          34.000          21.000  
 107493696.261 8  83761389.652 7  20455371.850                    20455387.726  
        21.309          16.266          48.000          45.000  
 127258211.267 6  99162317.360 6  24216435.627                    24216453.913  
     -3380.726       -2634.328          37.000          36.000  
 115019512.009 7  89625681.320 6  21887485.196                    21887502.920  
      2769.891        2158.211          47.000          39.000  
 24  1 10  3 22  2.9000000  0  8G08G24G18G23G16G10G15G32
 128445276.579 6 100087312.852 6  24442335.239                    24442356.220  
      2787.613        2172.309          37.000          37.000  
 127983111.80225  99727194.233 6  24354377.729                    24354397.599  
       198.832         154.633          31.000          37.000  
 113120877.692 7  88146202.468 7  21526189.114                    21526205.081  
     -1877.414       -1462.988          43.000          42.000  
 109801375.258 7  85559570.607 7  20894508.851                    20894523.467  
     -1849.137       -1440.836          45.000          45.000  
 128066576.599 5  99792263.655 3  24370267.310    24370291.584                  
     -2312.973       -1802.094          34.000          21.000  
 107493694.088 8  83761387.939 7  20455371.437                    20455387.308  
        21.473          16.895          48.000          45.000  
 127258549.367 6  99162580.824 6  24216499.965                    24216518.253  
     -3380.953       -2634.766          37.000          36.000  
 115019234.977 7  89625465.462 6  21887432.479                    21887450.205  
      2770.156        2158.543          47.000          39.000  
 24  1 10  3 22  3.0000000  0  8G08G24G18G23G16G10G15G32
 128444997.818 6 100087095.608 6  24442282.317                    24442303.526  
      2787.672        2172.281          37.000          37.000  
 127983092.10324  99727178.815 6  24354374.105                    24354394.115  
       197.648         154.051          29.000          37.000  
 113121065.449 7  88146348.701 7  21526225.148                    21526240.512  
     -1877.664       -1462.957          43.000          42.000  
 109801560.207 7  85559714.703 7  20894543.601                    20894558.547  
     -1849.254       -1440.898          45.000          45.000  
 128066807.835 5  99792443.833 3  24370311.164    24370335.632                  
     -2312.746       -1801.949          34.000          21.000  
 107493691.945 8  83761386.274 7  20455370.888                    20455386.902  
        21.570          16.902          48.000          45.000  
 127258887.476 6  99162844.248 6  24216564.133                    24216582.451  
     -3381.156       -2634.250          37.000          36.000  
 115018957.948 7  89625249.573 6  21887379.567                    21887397.631  
      2770.312        2158.871          47.000          39.000  
 24  1 10  3 22  3.1000000  0  8G08G24G18G23G16G10G15G32
 128444719.058 6 100086878.414 6  24442229.271                    24442250.485  
      2787.539        2171.980          37.000          37.000  
 127983072.19534  99727163.370 6  24354370.333                    24354390.343  
       198.301         154.352          29.000          37.000  
 113121253.251 7  88146495.084 7  21526260.885                    21526276.260  
     -1877.738       -1463.398          44.000          43.000  
 109801745.115 7  85559858.806 7  20894578.787                    20894593.739  
     -1849.137       -1441.031          45.000          45.000  
 128067039.132 5  99792624.055 3  24370355.178    24370379.644                  
     -2312.836       -1802.148          34.000          21.000  
 107493689.778 8  83761384.587 7  20455370.476                    20455386.489  
        21.617          16.781          48.000          45.000  
 127259225.550 6  99163107.742 5  24216628.466                    24216646.799  
     -3380.875       -2634.773          37.000          35.000  
 115018680.925 7  89625033.718 6  21887326.851                    21887344.917  
      2770.312        2158.543          47.000          39.000  
 24  1 10  3 22  3.2000000  0  8G08G24G18G23G16G10G15G32
 128444440.321 6 100086661.193 6  24442176.393                    24442197.696  
      2787.566        2172.367          37.000          37.000  
 127983052.48524  99727147.913 6  24354366.317                    24354386.498  
       197.988         154.754          29.000          37.000  
 113121440.959 7  88146641.323 7  21526296.933                    21526312.278  
     -1877.512       -1462.777          44.000          43.000  
 109801930.033 7  85560002.911 7  20894613.828                    20894628.493  
     -1849.109       -1440.922          45.000          45.000  
 128067270.324 5  99792804.196 3  24370398.993    24370423.667                  
     -2312.414       -1801.672          34.000          21.000  
 107493687.578 8  83761382.874 7  20455370.034                    20455386.118  
        21.809          17.043          48.000          45.000  
 127259563.678 6  99163371.114 5  24216693.021                    24216710.696  
     -3381.047       -2634.195          38.000          35.000  
 115018403.858 7  89624817.859 6  21887274.049                    21887292.226  
      2770.445        2158.664          47.000          39.000  
 24  1 10  3 22  3.3000000  0  8G08G24G18G23G16G10G15G32
 128444161.532 6 100086443.952 6  24442123.341                    24442144.643  
      2787.719        2172.195          37.000          37.000  
 127983032.58925  99727132.464 6  24354362.530                    24354382.725  
       198.266         154.309          30.000          38.000  
 113121628.742 7  88146787.688 7  21526332.667                    21526348.022  
     -1877.512       -1463.215          43.000          42.000  
 109802114.944 7  85560146.974 7  20894649.015                    20894663.675  
     -1849.121       -1440.816          45.000          44.000  
 128067501.634 5  99792984.436 3  24370443.010    24370467.684                  
     -2312.695       -1802.074          34.000          20.000  
 107493685.406 8  83761381.176 7  20455369.620                    20455385.703  
        21.797          17.078          48.000          45.000  
 127259901.830 6  99163634.651 5  24216757.369                    24216775.054  
     -3381.324       -2634.793          40.000          35.000  
 115018126.786 7  89624601.908 6  21887221.324                    21887239.488  
      2770.645        2159.273          47.000          39.000  
 24  1 10  3 22  3.4000000  0  8G08G24G18G23G16G10G15G32
 128443882.748 6 100086226.776 6  24442070.283                    24442091.958  
      2787.773        2172.160          37.000          37.000  
 127983012.81424  99727117.069 6  24354358.900                    24354379.317  
       198.195         153.914          29.000          38.000  
 113121816.513 7  88146933.992 7  21526368.446                    21526383.305  
     -1877.672       -1463.156          44.000          42.000  
 109802299.864 7  85560291.079 7  20894684.610                    20894698.648  
     -1849.102       -1440.969          45.000          44.000  
 128067732.847 5  99793164.593 3  24370486.922    24370511.664                  
     -2312.711       -1802.258          34.000          20.000  
 107493683.242 8  83761379.493 7  20455369.326                    20455385.277  
        21.746          16.852          48.000          45.000  
 127260239.984 6  99163898.096 5  24216822.429                    24216839.187  
     -3381.527       -2634.914          40.000          35.000  
 115017849.739 7  89624386.043 6  21887168.502                    21887187.131  
      2770.539        2158.828          47.000          39.000  
 24  1 10  3 22  3.5000000  0  8G08G24G18G23G16G10G15G32
 128443604.034 6 100086009.565 6  24442017.245                    24442038.913  
      2787.336        2171.957          37.000          37.000  
 127982993.04725  99727101.686 6  24354355.139                    24354375.560  
       197.766         153.871          30.000          38.000  
 113122004.325 7  88147080.284 7  21526404.185                    21526419.031  
     -1877.984       -1463.231          44.000          42.000  
 109802484.816 7  85560435.211 7  20894719.805                    20894733.847  
     -1849.457       -1441.102          45.000          44.000  
 128067964.137 5  99793344.823 3  24370530.935    24370555.678                  
     -2312.707       -1802.227          34.000          20.000  
 107493681.104 8  83761377.823 7  20455368.919                    20455384.869  
        21.508          16.590          48.000          45.000  
 127260578.122 6  99164161.574 6  24216886.774                    24216903.531  
     -3381.301       -2634.703          41.000          36.000  
 115017572.706 7  89624170.178 6  21887115.784                    21887134.415  
      2770.305        2158.547          47.000          39.000  
 24  1 10  3 22  3.6000000  0  8G08G24G18G23G16G10G15G32
 128443325.253 6 100085792.357 6  24441964.210                    24441986.001  
      2787.664        2172.164          37.000          37.000  
 127982973.29825  99727086.296 6  24354351.576                    24354371.685  
       197.695         153.930          30.000          38.000  
 113122192.088 7  88147226.622 7  21526439.837                    21526454.221  
     -1877.945       -1463.559          43.000          42.000  
 109802669.788 7  85560579.337 7  20894755.239                    20894769.294  
     -1849.574       -1441.410          45.000          44.000  
 128068195.376 5  99793525.019 3  24370574.923    24370599.676                  
     -2312.453       -1801.848          34.000          20.000  
 107493678.985 8  83761376.162 7  20455368.391                    20455384.370  
        21.383          16.562          48.000          45.000  
 127260916.251 7  99164425.094 6  24216951.993                    24216968.143  
     -3381.226       -2634.871          42.000          36.000  
 115017295.710 7  89623954.333 6  21887063.308                    21887081.875  
      2770.258        2158.617          47.000          39.000  
 24  1 10  3 22  3.7000000  0  8G08G24G18G23G16G10G15G32
 128443046.608 6 100085575.213 6  24441911.186                    24441932.973  
      2787.094        2171.633          37.000          37.000  
 127982953.56025  99727070.904 6  24354347.820                    24354367.926  
       197.211         153.801          30.000          38.000  
 113122379.926 7  88147373.013 7  21526475.581                    21526489.972  
     -1877.965       -1463.652          43.000          42.000  
 109802854.785 7  85560723.478 7  20894790.443                    20894804.494  
     -1849.793       -1441.211          44.000          44.000  
 128068426.730 5  99793705.295 3  24370618.948    24370643.701                  
     -2313.199       -1802.871          34.000          21.000  
 107493676.890 8  83761374.532 7  20455367.992                    20455383.972  
        21.066          16.383          48.000          45.000  
 127261254.392 7  99164688.593 6  24217016.339                    24217032.492  
     -3381.422       -2635.297          42.000          37.000  
 115017018.719 7  89623738.501 6  21887010.598                    21887029.167  
      2769.922        2158.289          47.000          39.000  
 24  1 10  3 22  3.8000000  0  8G08G24G18G23G16G10G15G32
 128442767.916 6 100085358.025 6  24441858.465                    24441879.558  
      2786.977        2171.863          37.000          37.000  
 127982933.89724  99727055.517 6  24354343.836                    24354364.215  
       197.219         154.215          29.000          38.000  
 113122567.708 7  88147519.364 7  21526510.878                    21526525.939  
     -1877.941       -1463.270          43.000          42.000  
 109803039.737 7  85560867.569 7  20894824.896                    20894839.636  
     -1849.684       -1441.234          44.000          45.000  
 128068658.026 5  99793885.525 3  24370662.744    24370687.645                  
     -2313.020       -1802.387          34.000          20.000  
 107493674.758 8  83761372.882 7  20455367.243                    20455383.545  
        21.180          16.430          48.000          45.000  
 127261592.494 7  99164952.063 6  24217081.662                    24217097.420  
     -3381.219       -2634.949          42.000          37.000  
 115016741.725 7  89623522.683 6  21886957.622                    21886975.977  
      2770.043        2158.422          47.000          39.000  
 24  1 10  3 22  3.9000000  0  8G08G24G18G23G16G10G15G32
 128442489.221 6 100085140.888 6  24441805.431                    24441826.531  
      2786.957        2171.531          37.000          37.000  
 127982914.03924  99727040.047 6  24354340.057                    24354360.437  
       198.004         154.453          29.000          38.000  
 113122755.533 7  88147665.652 7  21526546.620                    21526561.664  
     -1878.137       -1463.203          43.000          42.000  
 109803224.692 7  85561011.734 7  20894860.091                    20894874.843  
     -1849.516       -1441.219          45.000          45.000  
 128068889.385 5  99794065.806 3  24370706.770    24370731.671                  
     -2313.230       -1802.566          34.000          20.000  
 107493672.666 8  83761371.260 7  20455366.845                    20455383.149  
        21.023          16.406          48.000          45.000  
 127261930.605 7  99165215.581 6  24217146.003                    24217161.774  
     -3381.141       -2634.918          42.000          37.000  
 115016464.751 7  89623306.851 6  21886904.916                    21886923.269  
      2769.805        2158.305          47.000          39.000  
 24  1 10  3 22  4.0000000  0  8G08G24G18G23G16G10G15G32
 128442210.567 6 100084923.713 6  24441752.538                    24441773.659  
      2786.746        2171.582          37.000          38.000  
 127982894.20624  99727024.651 6  24354335.736                    24354356.396  
       198.000         154.066          28.000          38.000  
 113122943.301 7  88147811.956 7  21526582.366                    21526597.432  
     -1878.000       -1463.117          43.000          42.000  
 109803409.612 7  85561155.822 7  20894895.741                    20894909.788  
     -1849.367       -1441.109          45.000          44.000  
 128069120.724 5  99794246.072 3  24370750.847    24370775.733                  
     -2313.215       -1802.449          34.000          20.000  
 107493670.564 8  83761369.627 7  20455366.687                    20455382.813  
        21.078          16.289          48.000          45.000  
 127262268.708 6  99165479.038 6  24217210.849                    24217226.191  
     -3380.992       -2634.570          41.000          37.000  
 115016187.757 7  89623091.011 6  21886852.323                    21886870.465  
      2769.867        2158.602          47.000          39.000  
 24  1 10  3 22  4.1000000  0  8G08G24G18G23G16G10G15G32
 128441931.855 6 100084706.568 6  24441699.501                    24441720.630  
      2786.832        2171.238          37.000          38.000  
 127982874.44924  99727009.245 6  24354331.976                    24354352.634  
       197.984         154.094          27.000          38.000  
 113123131.058 7  88147958.318 7  21526618.095                    21526633.175  
     -1877.488       -1463.246          43.000          42.000  
 109803594.549 7  85561299.927 7  20894930.934                    20894944.980  
     -1849.281       -1441.039          45.000          44.000  
 128069352.067 5  99794426.335 3  24370794.870    24370819.755                  
     -2313.352       -1802.621          34.000          20.000  
 107493668.446 8  83761367.958 7  20455366.284                    20455382.405  
        21.145          16.562          48.000          45.000  
 127262606.828 6  99165742.476 6  24217275.191                    24217290.525  
     -3380.984       -2634.285          41.000          37.000  
 115015910.742 7  89622875.154 6  21886799.609                    21886817.750  
      2769.934        2158.387          47.000          39.000  
 24  1 10  3 22  4.2000000  0  8G08G24G18G23G16G10G15G32
 128441653.210 6 100084489.433 6  24441646.500                    24441668.009  
      2786.656        2171.395          36.000          38.000  
 127982854.45434  99726993.772 6  24354327.875                    24354349.261  
       198.617         154.578          28.000          38.000  
 113123318.829 7  88148104.633 7  21526653.757                    21526669.000  
     -1877.617       -1462.938          43.000          42.000  
 109803779.480 7  85561444.029 7  20894966.250                    20894980.007  
     -1849.371       -1440.922          45.000          45.000  
 128069583.477 5  99794606.654 3  24370839.054    24370863.838                  
     -2313.805       -1803.207          34.000          20.000  
 107493666.354 8  83761366.339 7  20455365.682                    20455381.932  
        21.039          16.348          48.000          45.000  
 127262944.914 6  99166005.878 6  24217338.855                    24217354.522  
     -3381.141       -2634.609          40.000          37.000  
 115015633.790 7  89622659.328 6  21886746.758                    21886764.981  
      2769.867        2158.410          47.000          39.000  
 24  1 10  3 22  4.3000000  0  8G08G24G18G23G16G10G15G32
 128441374.592 6 100084272.337 6  24441593.481                    24441614.992  
      2786.434        2171.195          37.000          38.000  
 127982834.66234  99726978.364 6  24354324.085                    24354345.499  
       198.996         154.395          28.000          38.000  
 113123506.618 7  88148250.908 7  21526689.492                    21526704.722  
     -1877.711       -1462.930          43.000          42.000  
 109803964.439 7  85561588.145 7  20895001.447                    20895015.202  
     -1849.496       -1441.074          44.000          45.000  
 128069814.881 5  99794786.971 3  24370883.089    24370907.873                  
     -2313.996       -1803.336          34.000          20.000  
 107493664.285 8  83761364.720 7  20455365.289                    20455381.536  
        20.805          16.188          48.000          45.000  
 127263283.040 6  99166269.402 6  24217403.198                    24217418.878  
     -3381.090       -2634.930          40.000          37.000  
 115015356.852 7  89622443.529 6  21886694.059                    21886712.281  
      2769.559        2157.770          47.000          39.000  
 24  1 10  3 22  4.4000000  0  7G08G16G18G23G10G32G15
 128441095.959 6 100084055.255 6  24441540.130                    24441562.057  
      2786.461        2170.941          37.000          38.000  
 128070046.386 5  99794967.368 3  24370927.346    24370951.912                  
     -2314.402       -1803.609          33.000          20.000  
 113123694.334 7  88148397.185 7  21526725.150                    21526740.483  
     -1877.617       -1463.094          43.000          42.000  
 109804149.358 7  85561732.235 7  20895036.143                    20895050.788  
     -1849.398       -1441.051          44.000          45.000  
 107493662.225 8  83761363.111 7  20455365.225                    20455381.104  
        20.672          16.004          48.000          45.000  
 115015079.888 7  89622227.741 6  21886641.292                    21886659.646  
      2769.551        2157.934          47.000          39.000  
 127263621.149 6  99166532.832 6  24217467.507                    24217482.968  
     -3381.188       -2634.445          40.000          37.000  
 24  1 10  3 22  4.5000000  0  7G08G16G18G23G10G32G15
 128440817.310 6 100083838.100 6  24441487.105                    24441509.025  
      2786.395        2171.527          37.000          38.000  
 128070277.724 5  99795147.629 3  24370971.368    24370995.934                  
     -2313.930       -1802.961          33.000          20.000  
 113123882.100 7  88148543.487 7  21526760.881                    21526776.212  
     -1877.496       -1462.934          43.000          42.000  
 109804334.263 7  85561876.312 7  20895071.330                    20895085.974  
     -1849.066       -1440.688          45.000          45.000  
 107493660.130 8  83761361.485 7  20455364.826                    20455380.707  
        20.840          16.238          48.000          45.000  
 115014802.943 7  89622011.935 6  21886588.591                    21886606.943  
      2769.648        2158.301          47.000          39.000  
 127263959.173 6  99166796.254 6  24217531.831                    24217547.298  
     -3380.598       -2633.949          40.000          37.000  
 24  1 10  3 22  4.6000000  0  7G08G16G18G23G10G32G15
 128440538.721 6 100083621.005 6  24441433.615                    24441455.915  
      2786.227        2171.000          38.000          38.000  
 128070509.162 5  99795327.973 3  24371015.292    24371039.976                  
     -2314.137       -1803.309          34.000          20.000  
 113124069.851 7  88148689.823 7  21526796.671                    21526811.691  
     -1877.445       -1462.930          43.000          42.000  
 109804519.204 7  85562020.422 7  20895106.687                    20895121.479  
     -1849.281       -1441.023          45.000          45.000  
 107493658.089 8  83761359.896 7  20455364.430                    20455380.124  
        20.641          15.984          48.000          45.000  
 115014525.996 7  89621796.100 6  21886535.585                    21886554.023  
      2769.480        2157.988          47.000          39.000  
 127264297.230 6  99167059.684 6  24217595.997                    24217611.607  
     -3380.578       -2634.465          40.000          36.000  
 24  1 10  3 22  4.7000000  0  7G08G16G18G23G10G32G15
 128440260.067 6 100083403.916 6  24441380.589                    24441402.899  
      2786.438        2171.035          38.000          38.000  
 128070740.706 5  99795508.396 3  24371059.354    24371084.037                  
     -2314.840       -1804.094          34.000          20.000  
 113124257.546 7  88148836.055 7  21526832.389                    21526847.402  
     -1877.340       -1462.969          44.000          42.000  
 109804704.123 7  85562164.523 7  20895141.876                    20895156.670  
     -1849.289       -1441.020          45.000          44.000  
 107493656.032 8  83761358.270 7  20455364.039                    20455379.727  
        20.547          16.047          48.000          45.000  
 115014249.065 7  89621580.351 6  21886482.887                    21886501.335  
      2769.348        2157.617          47.000          39.000  
 127264635.315 6  99167323.124 6  24217660.332                    24217675.942  
     -3380.770       -2634.398          39.000          36.000  
 24  1 10  3 22  4.8000000  0  7G08G16G18G23G10G32G15
 128439981.459 6 100083186.794 6  24441327.603                    24441350.071  
      2786.234        2171.285          38.000          37.000  
 128070972.115 5  99795688.716 3  24371102.991    24371128.018                  
     -2314.348       -1803.203          34.000          20.000  
 113124445.297 7  88148982.396 7  21526868.296                    21526883.109  
     -1877.180       -1462.742          44.000          42.000  
 109804889.013 7  85562308.547 7  20895177.192                    20895191.569  
     -1849.098       -1440.512          45.000          44.000  
 107493653.965 8  83761356.687 7  20455363.645                    20455379.286  
        20.734          16.141          48.000          45.000  
 115013972.141 7  89621364.579 6  21886430.424                    21886448.853  
      2769.418        2157.859          47.000          39.000  
