     2.11           OBSERVATION DATA    M (MIXED)           RINEX VERSION / TYPE
GPP.DLL V3.2.21                         18 - MAR - 24 07:42 PGM / RUN BY / DATE 
                                                            MARKER NAME         
                                                            MARKER NUMBER       
                                                            OBSERVER / AGENCY   
6028C00128          APX-15v3 AV         5.50                REC # / TYPE / VERS 
                    E                                       ANT # / TYPE        
 -4667987.4602  2554595.1722 -3504680.0033                  APPROX POSITION XYZ 
        0.0000       -0.0000       -0.0000                  ANTENNA: DELTA H/E/N
     1     1                                                WAVELENGTH FACT L1/2
     9    L1    L2    C1    P2    C2    D1    D2    S1    S2# / TYPES OF OBSERV 
     0.100                                                  INTERVAL            
  2024     1    10     3    20    0.0000000     GPS         TIME OF FIRST OBS   
  2024     1    10     3    20   59.9000000     GPS         TIME OF LAST OBS    
    18                                                      LEAP SECONDS        
     8                                                      # OF SATELLITES     
   G08   564   564   564     0   564   564   564   564   564PRN / # OF OBS      
   G10   600   600   600     0   600   600   600   600   600PRN / # OF OBS      
   G15   600   600   600     0   600   600   600   600   600PRN / # OF OBS      
   G16   488     6   488     6     0   488     6   488     6PRN / # OF OBS      
   G18   600   600   600     0   600   600   600   600   600PRN / # OF OBS      
   G23   600   600   600     0   600   600   600   600   600PRN / # OF OBS      
   G24   600   600   600     0   600   600   600   600   600PRN / # OF OBS      
   G32   600   600   600     0   600   600   600   600   600PRN / # OF OBS      
                                                            END OF HEADER       
 24  1 10  3 20  0.0000000  0  7G08G24G18G23G10G32G15
 128788541.093 6 100354789.755 7  24507656.936                    24507678.101  
      2796.578        2179.113          39.000          42.000  
 128011379.935 6  99749219.370 6  24359754.304                    24359776.589  
       263.969         205.871          40.000          41.000  
 112893703.240 7  87969183.674 7  21482959.269                    21482974.581  
     -1816.727       -1416.242          45.000          44.000  
 109575098.361 7  85383251.251 7  20851449.274                    20851463.417  
     -1833.344       -1428.406          44.000          42.000  
 107498539.575 7  83765163.724 7  20456292.611                    20456308.823  
        57.246          44.773          44.000          43.000  
 115364667.759 6  89894633.354 6  21953165.769                    21953185.722  
      2855.402        2225.039          41.000          41.000  
 126843545.686 7  98839201.959 6  24137528.023                    24137545.332  
     -3372.320       -2627.734          43.000          40.000  
 24  1 10  3 20  0.1000000  0  7G08G24G18G23G10G32G15
 128788261.363 6 100354571.772 7  24507603.706                    24507624.867  
      2797.273        2179.723          39.000          42.000  
 128011353.493 6  99749198.783 6  24359749.272                    24359771.561  
       264.289         205.887          40.000          41.000  
 112893885.024 7  87969325.370 7  21482993.862                    21483009.184  
     -1817.703       -1416.645          45.000          44.000  
 109575281.679 7  85383394.054 7  20851484.158                    20851498.291  
     -1833.219       -1428.086          44.000          42.000  
 107498533.811 7  83765159.199 7  20456291.515                    20456307.718  
        57.477          44.766          44.000          43.000  
 115364382.353 6  89894410.968 6  21953111.458                    21953131.413  
      2854.266        2224.277          41.000          41.000  
 126843882.851 7  98839464.612 6  24137592.183                    24137609.474  
     -3371.863       -2627.207          43.000          40.000  
 24  1 10  3 20  0.2000000  0  7G08G24G18G23G10G32G15
 128787981.527 6 100354353.714 7  24507550.447                    24507571.959  
      2799.270        2180.531          39.000          42.000  
 128011327.129 6  99749178.226 6  24359744.638                    24359766.424  
       264.066         205.746          39.000          41.000  
 112894066.807 7  87969466.994 7  21483029.258                    21483043.411  
     -1818.277       -1416.543          45.000          44.000  
 109575464.909 7  85383536.850 7  20851519.057                    20851533.413  
     -1831.762       -1428.082          44.000          42.000  
 107498528.009 7  83765154.709 7  20456290.106                    20456306.567  
        58.289          45.285          44.000          43.000  
 115364096.913 6  89894188.523 6  21953056.875                    21953077.176  
      2854.137        2223.992          41.000          41.000  
 126844219.971 7  98839727.302 6  24137656.359                    24137674.188  
     -3371.008       -2626.789          43.000          40.000  
 24  1 10  3 20  0.3000000  0  7G08G24G18G23G10G32G15
 128787701.548 6 100354135.544 7  24507497.168                    24507518.680  
      2800.047        2181.656          39.000          42.000  
 128011300.663 6  99749157.638 6  24359739.602                    24359761.396  
       264.656         205.871          39.000          41.000  
 112894248.655 7  87969608.625 7  21483063.863                    21483077.999  
     -1818.645       -1416.289          44.000          44.000  
 109575648.107 7  85383679.562 7  20851553.918                    20851568.265  
     -1831.648       -1427.207          44.000          42.000  
 107498522.107 7  83765150.119 7  20456288.983                    20456305.446  
        59.234          45.949          44.000          43.000  
 115363811.547 6  89893966.184 6  21953002.571                    21953022.878  
      2853.445        2223.805          41.000          41.000  
 126844557.057 7  98839989.934 6  24137720.504                    24137738.326  
     -3370.707       -2626.109          43.000          39.000  
 24  1 10  3 20  0.4000000  0  7G08G24G18G23G10G32G15
 128787421.524 6 100353917.356 6  24507444.163                    24507465.724  
      2800.625        2181.840          39.000          41.000  
 128011274.271 6  99749137.086 6  24359734.509                    24359756.846  
       263.363         205.469          40.000          41.000  
 112894430.457 7  87969750.263 7  21483097.224                    21483112.612  
     -1817.766       -1416.707          43.000          44.000  
 109575831.247 7  85383822.280 7  20851588.917                    20851602.548  
     -1831.062       -1427.117          44.000          42.000  
 107498516.229 7  83765145.513 7  20456288.263                    20456304.407  
        58.762          45.922          43.000          43.000  
 115363526.223 6  89893743.849 6  21952948.518                    21952968.621  
      2853.031        2223.102          41.000          41.000  
 126844894.072 7  98840252.582 6  24137784.495                    24137802.444  
     -3370.141       -2626.379          43.000          39.000  
 24  1 10  3 20  0.5000000  0  7G08G24G18G23G10G32G15
 128787141.415 6 100353699.088 7  24507390.860                    24507412.421  
      2801.211        2182.645          39.000          42.000  
 128011247.954 6  99749116.529 7  24359729.501                    24359751.825  
       263.352         205.699          41.000          42.000  
 112894612.225 7  87969891.965 7  21483131.814                    21483147.217  
     -1817.535       -1416.637          45.000          44.000  
 109576014.326 7  85383964.916 7  20851623.756                    20851637.381  
     -1830.359       -1426.375          44.000          42.000  
 107498510.240 7  83765140.865 7  20456287.123                    20456303.272  
        60.180          46.516          43.000          44.000  
 115363240.953 7  89893521.592 6  21952894.233                    21952914.343  
      2852.434        2222.688          42.000          41.000  
 126845231.067 7  98840515.162 6  24137848.623                    24137866.568  
     -3369.781       -2625.840          43.000          39.000  
 24  1 10  3 20  0.6000000  0  7G08G24G18G23G10G32G15
 128786861.237 6 100353480.753 6  24507337.380                    24507359.320  
      2802.098        2183.219          39.000          41.000  
 128011221.518 6  99749095.960 7  24359724.549                    24359747.646  
       264.031         205.543          41.000          43.000  
 112894794.028 7  87970033.613 7  21483167.909                    21483182.082  
     -1818.004       -1416.488          45.000          44.000  
 109576197.359 7  85384107.540 7  20851658.297                    20851672.102  
     -1830.082       -1426.074          44.000          42.000  
 107498504.163 7  83765136.127 7  20456286.279                    20456302.201  
        60.973          47.250          43.000          43.000  
 115362955.716 7  89893299.291 6  21952839.985                    21952859.907  
      2852.254        2222.781          42.000          41.000  
 126845568.021 7  98840777.755 6  24137912.954                    24137930.829  
     -3369.824       -2625.895          43.000          39.000  
 24  1 10  3 20  0.7000000  0  7G08G24G18G23G10G32G15
 128786581.007 6 100353262.398 6  24507284.054                    24507305.995  
      2802.188        2183.605          39.000          41.000  
 128011195.182 6  99749075.468 7  24359719.537                    24359742.642  
       263.512         205.250          41.000          43.000  
 112894975.766 7  87970175.247 7  21483202.493                    21483216.670  
     -1817.090       -1416.426          45.000          44.000  
 109576380.317 7  85384250.136 7  20851693.112                    20851706.925  
     -1829.723       -1425.664          44.000          42.000  
 107498498.098 7  83765131.393 7  20456285.125                    20456301.045  
        60.949          47.422          43.000          43.000  
 115362670.495 7  89893077.061 6  21952785.710                    21952805.636  
      2852.141        2222.363          42.000          41.000  
 126845904.913 7  98841040.236 6  24137977.063                    24137994.930  
     -3368.836       -2625.367          43.000          39.000  
 24  1 10  3 20  0.8000000  0  7G08G24G18G23G10G32G15
 128786300.772 6 100353044.009 6  24507230.993                    24507252.756  
      2802.273        2183.840          39.000          41.000  
 128011168.838 6  99749054.937 7  24359714.860                    24359738.128  
       263.574         205.500          41.000          43.000  
 112895157.521 7  87970316.912 7  21483236.283                    21483250.978  
     -1817.371       -1416.531          44.000          44.000  
 109576563.268 7  85384392.642 7  20851727.911                    20851741.516  
     -1829.578       -1425.602          44.000          42.000  
 107498492.004 7  83765126.675 7  20456284.286                    20456300.260  
        60.996          47.348          43.000          43.000  
 115362385.291 7  89892854.847 6  21952731.437                    21952751.478  
      2851.621        2222.055          43.000          41.000  
 126846241.826 7  98841302.776 6  24138041.011                    24138059.076  
     -3368.902       -2625.188          43.000          39.000  
 24  1 10  3 20  0.9000000  0  7G08G24G18G23G10G32G15
 128786020.480 6 100352825.609 6  24507177.655                    24507199.421  
      2802.793        2183.992          39.000          41.000  
 128011142.406 6  99749034.313 7  24359709.830                    24359733.091  
       264.328         205.371          41.000          43.000  
 112895339.372 7  87970458.579 7  21483270.888                    21483285.574  
     -1818.734       -1416.324          44.000          44.000  
 109576746.140 7  85384535.197 7  20851762.711                    20851776.329  
     -1828.492       -1425.328          45.000          42.000  
 107498485.886 7  83765121.876 7  20456283.121                    20456299.088  
        61.160          47.766          43.000          43.000  
 115362100.121 7  89892632.618 6  21952677.171                    21952697.208  
      2851.648        2222.211          43.000          41.000  
 126846578.683 7  98841565.282 6  24138105.113                    24138123.182  
     -3368.566       -2625.016          42.000          39.000  
 24  1 10  3 20  1.0000000  0  7G08G24G18G23G10G32G15
 128785740.203 6 100352607.203 6  24507124.249                    24507145.592  
      2802.730        2183.945          39.000          41.000  
 128011116.044 6  99749013.843 7  24359705.259                    24359728.108  
       263.805         205.266          41.000          43.000  
 112895521.089 7  87970600.126 7  21483305.913                    21483319.962  
     -1817.633       -1416.312          45.000          44.000  
 109576929.053 7  85384677.726 7  20851797.979                    20851811.722  
     -1828.938       -1425.238          44.000          42.000  
 107498479.782 7  83765117.110 7  20456282.100                    20456298.236  
        61.145          47.711          43.000          43.000  
 115361814.988 7  89892410.432 6  21952623.311                    21952642.565  
      2851.371        2221.859          43.000          41.000  
 126846915.524 7  98841827.772 6  24138169.071                    24138187.582  
     -3368.410       -2624.980          42.000          39.000  
 24  1 10  3 20  1.1000000  0  7G08G24G18G23G10G32G15
 128785459.952 6 100352388.793 6  24507070.920                    24507092.254  
      2802.754        2184.160          39.000          41.000  
 128011089.641 6  99748993.220 7  24359700.235                    24359723.072  
       264.055         206.230          41.000          43.000  
 112895702.829 7  87970741.785 7  21483340.497                    21483354.556  
     -1817.348       -1416.293          45.000          45.000  
 109577111.949 7  85384820.235 7  20851832.783                    20851846.524  
     -1828.898       -1425.102          44.000          42.000  
 107498473.665 7  83765112.348 7  20456280.936                    20456297.073  
        61.117          47.727          42.000          43.000  
 115361529.871 7  89892188.277 7  21952569.055                    21952588.312  
      2851.426        2221.883          44.000          42.000  
 126847252.346 7  98842090.209 6  24138233.166                    24138251.672  
     -3368.250       -2624.531          43.000          39.000  
 24  1 10  3 20  1.2000000  0  7G08G24G18G23G10G32G15
 128785179.664 6 100352170.422 6  24507017.614                    24507039.097  
      2802.680        2183.785          39.000          41.000  
 128011063.271 6  99748972.657 7  24359695.279                    24359717.190  
       263.867         205.520          40.000          42.000  
 112895884.649 7  87970883.476 7  21483375.018                    21483389.448  
     -1817.867       -1416.348          44.000          45.000  
 109577294.878 7  85384962.746 7  20851866.726                    20851881.655  
     -1829.113       -1425.164          44.000          42.000  
 107498467.532 7  83765107.590 7  20456279.754                    20456295.865  
        61.203          47.336          42.000          43.000  
 115361244.751 7  89891966.092 7  21952514.689                    21952533.818  
      2851.238        2221.438          44.000          42.000  
 126847589.167 7  98842352.641 6  24138297.839                    24138315.534  
     -3368.254       -2624.270          43.000          39.000  
 24  1 10  3 20  1.3000000  0  7G08G24G18G23G10G32G15
 128784899.404 6 100351952.027 6  24506964.282                    24506985.763  
      2802.633        2183.859          39.000          41.000  
 128011036.911 6  99748952.142 7  24359690.263                    24359712.181  
       263.742         205.410          40.000          42.000  
 112896066.386 7  87971025.064 7  21483409.601                    21483424.025  
     -1817.625       -1416.555          43.000          45.000  
 109577477.776 7  85385105.297 7  20851901.530                    20851916.468  
     -1829.125       -1425.461          44.000          42.000  
 107498461.443 7  83765102.839 7  20456278.595                    20456294.704  
        60.938          47.461          42.000          43.000  
 115360959.687 7  89891743.964 7  21952460.443                    21952479.572  
      2850.891        2221.238          44.000          42.000  
 126847926.008 7  98842615.130 6  24138361.938                    24138379.636  
     -3368.402       -2624.719          43.000          39.000  
 24  1 10  3 20  1.4000000  0  7G08G24G18G23G10G32G15
 128784619.139 6 100351733.647 6  24506911.082                    24506932.385  
      2802.703        2183.969          39.000          41.000  
 128011010.513 6  99748931.540 7  24359685.240                    24359706.110  
       263.832         205.789          40.000          42.000  
 112896248.176 7  87971166.785 7  21483443.304                    21483459.041  
     -1817.613       -1416.578          43.000          45.000  
 109577660.643 7  85385247.796 7  20851936.368                    20851951.400  
     -1828.801       -1424.859          44.000          42.000  
 107498455.389 7  83765098.117 7  20456277.099                    20456293.567  
        60.773          47.312          42.000          43.000  
 115360674.631 7  89891521.859 7  21952406.566                    21952425.566  
      2850.793        2221.250          44.000          42.000  
 126848262.804 7  98842877.590 6  24138426.090                    24138443.466  
     -3368.192       -2624.578          43.000          39.000  
 24  1 10  3 20  1.5000000  0  7G08G24G18G23G10G32G15
 128784338.874 6 100351515.241 6  24506857.749                    24506879.048  
      2802.691        2183.969          39.000          41.000  
 128010984.155 6  99748911.013 7  24359680.224                    24359701.097  
       263.625         205.250          40.000          42.000  
 112896430.014 7  87971308.431 7  21483477.907                    21483493.632  
     -1818.195       -1416.828          43.000          45.000  
 109577843.589 7  85385390.339 7  20851971.181                    20851986.210  
     -1829.301       -1425.637          44.000          42.000  
 107498449.343 7  83765093.399 7  20456275.949                    20456292.415  
        60.578          47.023          42.000          43.000  
 115360389.592 7  89891299.743 7  21952352.325                    21952371.323  
      2850.520        2220.969          44.000          42.000  
 126848599.666 7  98843140.055 6  24138490.193                    24138507.563  
     -3368.422       -2624.602          42.000          39.000  
 24  1 10  3 20  1.6000000  0  7G08G24G18G23G10G32G15
 128784058.630 6 100351296.877 6  24506804.100                    24506825.972  
      2802.508        2183.602          39.000          41.000  
 128010957.826 6  99748890.534 7  24359675.018                    24359696.034  
       263.312         205.016          40.000          42.000  
 112896611.910 7  87971450.159 7  21483512.732                    21483528.353  
     -1818.980       -1417.387          44.000          45.000  
 109578026.570 7  85385532.922 7  20852006.275                    20852020.601  
     -1830.074       -1425.941          44.000          42.000  
 107498443.356 7  83765088.758 7  20456274.559                    20456290.695  
        60.000          46.574          42.000          43.000  
 115360104.630 7  89891077.693 7  21952297.942                    21952316.909  
      2849.605        2220.527          44.000          42.000  
 126848936.504 7  98843402.556 6  24138553.705                    24138571.825  
     -3368.398       -2625.055          42.000          39.000  
 24  1 10  3 20  1.7000000  0  7G08G24G18G23G10G32G15
 128783778.359 6 100351078.513 6  24506750.767                    24506772.645  
      2802.770        2183.742          39.000          41.000  
 128010931.518 6  99748869.999 7  24359670.012                    24359691.019  
       263.062         205.230          40.000          42.000  
 112896793.826 7  87971591.898 7  21483547.349                    21483562.967  
     -1819.141       -1417.297          45.000          45.000  
 109578209.573 7  85385675.527 7  20852041.099                    20852055.427  
     -1830.156       -1426.094          44.000          42.000  
 107498437.355 7  83765084.091 7  20456273.417                    20456289.556  
        59.879          46.598          42.000          43.000  
 115359819.698 7  89890855.657 7  21952243.721                    21952262.686  
      2849.195        2220.188          44.000          42.000  
 126849273.350 6  98843665.040 6  24138617.805                    24138635.926  
     -3368.332       -2624.855          41.000          39.000  
 24  1 10  3 20  1.8000000  0  7G08G24G18G23G10G32G15
 128783498.025 6 100350860.051 6  24506697.476                    24506719.185  
      2803.199        2184.496          39.000          41.000  
 128010905.205 6  99748849.512 7  24359664.989                    24359686.531  
       263.273         204.949          40.000          42.000  
 112896975.712 7  87971733.615 7  21483582.656                    21483596.935  
     -1818.672       -1417.477          44.000          45.000  
 109578392.541 7  85385818.088 7  20852075.877                    20852090.499  
     -1829.828       -1425.727          44.000          42.000  
 107498431.342 7  83765079.409 7  20456271.961                    20456288.420  
        60.156          46.980          42.000          43.000  
 115359534.812 7  89890633.678 7  21952189.205                    21952208.648  
      2849.176        2220.215          43.000          42.000  
 126849610.178 6  98843927.495 6  24138681.159                    24138699.903  
     -3368.250       -2624.496          41.000          38.000  
 24  1 10  3 20  1.9000000  0  7G08G24G18G23G10G32G15
 128783217.648 6 100350641.584 6  24506644.122                    24506665.833  
      2803.719        2184.699          39.000          41.000  
 128010878.956 6  99748829.038 7  24359659.994                    24359681.531  
       262.566         204.660          41.000          42.000  
 112897157.701 7  87971875.474 7  21483617.288                    21483631.579  
     -1819.695       -1418.059          44.000          44.000  
 109578575.520 7  85385960.694 7  20852110.697                    20852125.325  
     -1829.660       -1425.645          44.000          42.000  
 107498425.365 7  83765074.747 7  20456270.823                    20456287.282  
        59.754          46.641          42.000          43.000  
 115359249.933 7  89890411.689 7  21952134.994                    21952154.436  
      2848.648        2219.543          43.000          42.000  
 126849946.982 6  98844189.923 6  24138745.251                    24138763.990  
     -3368.129       -2624.547          41.000          38.000  
 24  1 10  3 20  2.0000000  0  7G08G24G18G23G10G32G15
 128782937.229 6 100350423.090 6  24506590.697                    24506612.279  
      2803.824        2184.871          40.000          41.000  
 128010852.704 6  99748808.564 7  24359655.343                    24359676.461  
       262.605         204.805          41.000          42.000  
 112897339.685 7  87972017.217 7  21483651.262                    21483665.936  
     -1819.844       -1417.867          43.000          44.000  
 109578758.443 7  85386103.203 7  20852145.413                    20852160.198  
     -1829.488       -1425.676          44.000          42.000  
 107498419.319 7  83765069.998 7  20456269.454                    20456286.208  
        60.164          47.008          43.000          43.000  
 115358965.124 7  89890189.758 7  21952080.679                    21952100.308  
      2848.445        2219.461          43.000          42.000  
 126850283.746 7  98844452.369 6  24138809.249                    24138827.692  
     -3368.000       -2624.621          42.000          38.000  
 24  1 10  3 20  2.1000000  0  7G08G24G18G23G10G32G15
 128782656.713 6 100350204.514 6  24506537.317                    24506558.901  
      2804.609        2185.727          40.000          41.000  
 128010826.473 7  99748788.096 7  24359650.351                    24359671.463  
       262.410         204.531          42.000          42.000  
 112897521.694 7  87972159.043 7  21483685.897                    21483700.571  
     -1819.832       -1418.043          43.000          44.000  
 109578941.415 7  85386245.768 7  20852180.231                    20852195.013  
     -1829.492       -1425.129          43.000          42.000  
 107498413.284 7  83765065.326 7  20456268.306                    20456285.067  
        60.473          47.383          43.000          43.000  
 115358680.348 7  89889967.847 7  21952026.488                    21952046.115  
      2848.055        2219.055          42.000          42.000  
 126850620.569 6  98844714.813 6  24138873.344                    24138891.783  
     -3368.024       -2624.258          41.000          38.000  
 24  1 10  3 20  2.2000000  0  7G08G24G18G23G10G32G15
 128782376.173 6 100349985.911 6  24506483.518                    24506505.687  
      2805.316        2185.883          39.000          41.000  
 128010800.283 6  99748767.684 7  24359645.555                    24359666.759  
       261.816         204.059          41.000          42.000  
 112897703.710 7  87972300.890 7  21483720.103                    21483735.180  
     -1820.148       -1418.637          44.000          44.000  
 109579124.325 7  85386388.287 7  20852214.842                    20852229.732  
     -1829.242       -1425.535          44.000          42.000  
 107498407.225 7  83765060.579 7  20456267.270                    20456284.032  
        60.480          47.141          43.000          43.000  
 115358395.685 7  89889746.018 6  21951972.170                    21951992.068  
      2846.746        2218.414          42.000          41.000  
 126850957.355 6  98844977.226 6  24138937.620                    24138955.422  
     -3367.844       -2624.398          41.000          38.000  
 24  1 10  3 20  2.3000000  0  7G08G24G18G23G10G32G15
 128782095.565 6 100349767.253 6  24506430.120                    24506452.289  
      2806.000        2186.570          39.000          41.000  
 128010774.093 6  99748747.325 7  24359640.571                    24359661.787  
       261.836         203.852          41.000          42.000  
 112897885.828 7  87972442.823 7  21483754.760                    21483769.842  
     -1821.070       -1419.266          44.000          44.000  
 109579307.256 7  85386530.888 7  20852249.653                    20852264.557  
     -1829.301       -1425.547          44.000          42.000  
 107498401.169 7  83765055.881 7  20456266.117                    20456282.885  
        60.645          47.176          43.000          43.000  
 115358111.058 7  89889524.237 6  21951918.007                    21951937.906  
      2846.062        2217.605          42.000          41.000  
 126851294.066 7  98845239.629 6  24139001.694                    24139019.503  
     -3367.266       -2623.941          42.000          38.000  
 24  1 10  3 20  2.4000000  0  7G08G24G18G23G10G32G15
 128781814.870 6 100349548.506 6  24506376.510                    24506398.845  
      2806.910        2187.418          39.000          41.000  
 128010747.923 6  99748726.901 7  24359635.052                    24359657.338  
       261.781         204.129          41.000          42.000  
 112898067.973 7  87972584.754 7  21483789.944                    21483804.729  
     -1821.695       -1419.387          45.000          43.000  
 109579490.150 7  85386673.390 7  20852284.519                    20852299.256  
     -1829.090       -1425.199          44.000          43.000  
 107498395.069 7  83765051.115 7  20456265.004                    20456282.088  
        60.863          47.543          44.000          43.000  
 115357826.512 7  89889302.548 6  21951863.915                    21951883.486  
      2845.438        2217.094          42.000          41.000  
 126851630.755 7  98845501.973 6  24139065.545                    24139083.656  
     -3366.777       -2623.480          42.000          38.000  
 24  1 10  3 20  2.5000000  0  7G08G24G18G23G10G32G15
 128781534.086 6 100349329.727 6  24506323.079                    24506345.417  
      2807.688        2187.535          39.000          41.000  
 128010721.784 6  99748706.524 6  24359630.078                    24359652.362  
       261.492         203.797          41.000          41.000  
 112898250.093 7  87972726.679 7  21483824.600                    21483839.389  
     -1821.305       -1419.328          44.000          43.000  
 109579672.992 7  85386815.853 7  20852319.313                    20852334.047  
     -1828.547       -1424.629          44.000          43.000  
 107498388.952 7  83765046.342 7  20456263.840                    20456280.923  
        61.125          47.578          44.000          43.000  
 115357542.027 6  89889080.841 6  21951809.779                    21951829.343  
      2844.691        2216.820          41.000          41.000  
 126851967.430 7  98845764.302 6  24139129.612                    24139147.720  
     -3366.617       -2623.320          42.000          39.000  
 24  1 10  3 20  2.6000000  0  7G08G24G18G23G10G32G15
 128781253.200 6 100349110.869 6  24506269.620                    24506292.001  
      2808.844        2188.656          39.000          41.000  
 128010695.637 6  99748686.192 6  24359624.555                    24359646.772  
       261.598         203.453          40.000          40.000  
 112898432.188 7  87972868.558 7  21483858.986                    21483873.920  
     -1820.895       -1418.871          45.000          44.000  
 109579855.758 7  85386958.229 7  20852354.295                    20852369.183  
     -1827.496       -1423.969          44.000          43.000  
 107498382.767 7  83765041.548 7  20456263.342                    20456279.979  
        61.898          48.164          44.000          44.000  
 115357257.580 6  89888859.187 7  21951755.510                    21951775.338  
      2844.520        2216.434          41.000          42.000  
 126852304.018 7  98846026.548 6  24139193.975                    24139211.888  
     -3366.004       -2622.551          42.000          39.000  
 24  1 10  3 20  2.7000000  0  7G08G24G18G23G10G32G15
 128780972.257 6 100348891.943 6  24506216.158                    24506238.537  
      2809.254        2189.121          39.000          41.000  
 128010669.418 6  99748665.777 6  24359619.566                    24359641.786  
       261.879         203.984          39.000          40.000  
 112898614.385 7  87973010.569 7  21483893.657                    21483908.601  
     -1821.121       -1419.195          45.000          45.000  
 109580038.510 7  85387100.641 7  20852389.072                    20852403.962  
     -1827.445       -1423.945          44.000          43.000  
 107498376.565 7  83765036.714 7  20456262.162                    20456278.798  
        62.070          48.328          44.000          44.000  
 115356973.189 6  89888637.601 7  21951701.392                    21951721.224  
      2844.117        2216.027          41.000          42.000  
 126852640.534 7  98846288.813 6  24139258.012                    24139275.936  
     -3365.043       -2622.309          42.000          39.000  
 24  1 10  3 20  2.8000000  0  7G08G24G18G23G10G32G15
 128780691.337 6 100348673.015 6  24506162.943                    24506185.104  
      2809.273        2189.277          39.000          41.000  
 128010643.293 6  99748645.423 6  24359613.868                    24359635.448  
       261.324         203.496          39.000          40.000  
 112898796.580 7  87973152.451 7  21483928.976                    21483944.578  
     -1822.582       -1419.930          44.000          44.000  
 109580221.270 7  85387243.085 7  20852424.154                    20852438.318  
     -1827.633       -1424.332          44.000          43.000  
 107498370.392 7  83765031.907 7  20456261.151                    20456277.609  
        61.855          48.316          43.000          44.000  
 115356688.833 7  89888416.027 7  21951647.453                    21951667.129  
      2843.195        2215.406          42.000          42.000  
 126852977.044 7  98846551.016 6  24139321.813                    24139339.820  
     -3365.074       -2622.301          42.000          39.000  
 24  1 10  3 20  2.9000000  0  7G08G24G18G23G10G32G15
 128780410.316 6 100348454.050 6  24506109.467                    24506131.630  
      2810.125        2189.691          39.000          41.000  
 128010617.156 6  99748625.042 6  24359608.894                    24359630.471  
       261.570         203.859          39.000          40.000  
 112898978.755 7  87973294.454 7  21483963.643                    21483979.257  
     -1821.609       -1419.438          43.000          44.000  
 109580403.919 7  85387385.418 7  20852458.911                    20852473.078  
     -1826.551       -1423.523          44.000          43.000  
 107498364.139 7  83765027.013 7  20456259.961                    20456276.414  
        62.352          48.691          43.000          43.000  
 115356404.501 7  89888194.466 7  21951593.346                    21951613.022  
      2843.242        2215.551          42.000          42.000  
 126853313.517 7  98846813.174 6  24139385.842                    24139403.841  
     -3364.859       -2621.750          42.000          39.000  
 24  1 10  3 20  3.0000000  0  7G08G24G18G23G10G32G15
 128780129.196 6 100348234.991 6  24506056.104                    24506077.696  
      2811.215        2190.426          39.000          41.000  
 128010591.021 6  99748604.672 6  24359603.710                    24359625.731  
       261.324         203.637          39.000          40.000  
 112899160.917 7  87973436.376 7  21483996.807                    21484013.579  
     -1821.383       -1419.422          43.000          45.000  
 109580586.537 7  85387527.730 7  20852493.444                    20852507.902  
     -1826.480       -1423.172          44.000          43.000  
 107498357.784 7  83765022.072 7  20456258.424                    20456275.035  
        63.410          49.305          42.000          43.000  
 115356120.183 7  89887972.911 7  21951539.461                    21951558.338  
      2843.297        2215.648          42.000          42.000  
 126853649.992 7  98847075.402 6  24139449.973                    24139467.646  
     -3364.578       -2621.863          42.000          39.000  
 24  1 10  3 20  3.1000000  0  7G08G24G18G23G10G32G15
 128779847.945 6 100348015.845 6  24506002.584                    24506024.179  
      2812.160        2191.203          39.000          41.000  
 128010564.938 6  99748584.382 6  24359598.747                    24359620.776  
       261.043         203.031          38.000          40.000  
 112899343.105 7  87973578.362 7  21484031.476                    21484048.254  
     -1822.000       -1419.684          43.000          45.000  
 109580769.178 7  85387670.045 7  20852528.199                    20852542.657  
     -1826.152       -1423.004          44.000          43.000  
 107498351.362 7  83765017.074 7  20456257.202                    20456273.814  
        64.422          50.004          43.000          44.000  
 115355835.824 7  89887751.369 7  21951485.350                    21951504.235  
      2843.609        2215.633          43.000          42.000  
 126853986.495 6  98847337.635 6  24139514.007                    24139531.686  
     -3365.008       -2622.336          41.000          39.000  
 24  1 10  3 20  3.2000000  0  7G08G24G18G23G10G32G15
 128779566.782 6 100347796.726 6  24505948.916                    24505970.378  
      2811.562        2190.977          39.000          40.000  
 128010538.861 6  99748564.139 6  24359593.894                    24359615.903  
       260.707         202.422          38.000          40.000  
 112899525.331 7  87973720.366 7  21484066.856                    21484083.011  
     -1822.121       -1420.125          45.000          45.000  
 109580951.837 7  85387812.371 7  20852562.716                    20852578.422  
     -1826.387       -1423.359          44.000          43.000  
 107498345.038 7  83765012.180 7  20456256.092                    20456272.830  
        63.445          49.398          43.000          44.000  
 115355551.550 7  89887529.846 7  21951431.293                    21951450.004  
      2842.988        2215.141          44.000          42.000  
 126854322.977 6  98847599.815 6  24139577.897                    24139595.955  
     -3364.930       -2621.727          41.000          39.000  
 24  1 10  3 20  3.3000000  0  7G08G24G18G23G10G32G15
 128779285.696 6 100347577.721 6  24505895.427                    24505916.895  
      2810.812        2190.184          39.000          40.000  
 128010512.870 6  99748543.883 6  24359588.948                    24359610.956  
       259.965         202.449          38.000          40.000  
 112899707.682 7  87973862.411 7  21484101.556                    21484117.699  
     -1823.637       -1420.477          45.000          45.000  
 109581134.584 7  85387954.811 7  20852597.491                    20852613.207  
     -1827.363       -1424.051          44.000          43.000  
 107498338.785 7  83765007.273 7  20456254.902                    20456271.632  
        62.238          48.637          44.000          44.000  
 115355267.330 7  89887308.387 7  21951377.208                    21951395.922  
      2842.086        2214.547          44.000          42.000  
 126854659.491 6  98847862.065 6  24139641.933                    24139659.999  
     -3365.141       -2622.703          40.000          39.000  
 24  1 10  3 20  3.4000000  0  7G08G24G18G23G10G32G15
 128779004.591 6 100347358.692 6  24505841.982                    24505863.367  
      2811.203        2190.344          38.000          40.000  
 128010486.820 6  99748523.608 6  24359583.928                    24359606.833  
       260.559         203.043          38.000          40.000  
 112899889.920 7  87974004.393 7  21484136.266                    21484151.748  
     -1822.855       -1420.316          44.000          45.000  
 109581317.292 7  85388097.127 7  20852632.517                    20852647.697  
     -1827.305       -1423.691          44.000          43.000  
 107498332.502 7  83765002.372 7  20456253.879                    20456270.419  
        62.730          48.891          44.000          44.000  
 115354983.108 7  89887086.903 7  21951323.286                    21951341.911  
      2842.293        2214.805          44.000          42.000  
 126854995.961 6  98848124.300 6  24139706.055                    24139724.227  
     -3364.910       -2622.320          39.000          39.000  
 24  1 10  3 20  3.5000000  0  7G08G24G18G23G10G32G15
 128778723.420 6 100347139.582 6  24505788.477                    24505809.858  
      2811.434        2191.043          38.000          40.000  
 128010460.758 6  99748503.277 6  24359578.969                    24359601.868  
       260.578         203.270          39.000          40.000  
 112900072.190 7  87974146.433 7  21484170.951                    21484186.436  
     -1822.484       -1419.957          44.000          44.000  
 109581499.930 7  85388239.470 7  20852667.272                    20852682.458  
     -1826.617       -1423.410          44.000          43.000  
 107498326.203 7  83764997.461 7  20456252.680                    20456269.220  
        62.840          49.129          44.000          44.000  
 115354698.853 7  89886865.387 7  21951269.194                    21951287.815  
      2842.305        2214.824          43.000          42.000  
 126855332.467 6  98848386.425 6  24139770.090                    24139788.241  
     -3364.828       -2621.504          39.000          40.000  
 24  1 10  3 20  3.6000000  0  7G08G24G18G23G10G32G15
 128778442.233 6 100346920.488 6  24505735.250                    24505756.588  
      2812.000        2190.887          38.000          39.000  
 128010434.624 6  99748482.925 6  24359574.050                    24359597.288  
       261.273         203.539          39.000          40.000  
 112900254.362 7  87974288.399 7  21484205.351                    21484220.738  
     -1821.383       -1419.633          45.000          44.000  
 109581682.519 7  85388381.749 7  20852701.854                    20852716.673  
     -1825.895       -1422.664          44.000          43.000  
 107498319.869 7  83764992.530 7  20456251.404                    20456267.914  
        63.562          49.527          44.000          44.000  
 115354414.648 7  89886643.949 7  21951215.268                    21951233.792  
      2842.688        2214.914          43.000          42.000  
 126855668.844 6  98848648.573 6  24139834.202                    24139852.682  
     -3363.902       -2621.297          40.000          40.000  
 24  1 10  3 20  3.7000000  0  7G08G24G18G23G10G32G15
 128778161.088 6 100346701.419 6  24505681.750                    24505703.089  
      2811.441        2190.742          38.000          39.000  
 128010408.458 6  99748462.517 6  24359569.071                    24359592.304  
       261.746         204.004          39.000          40.000  
 112900436.465 7  87974430.329 7  21484240.004                    21484255.399  
     -1821.090       -1419.231          45.000          45.000  
 109581865.058 7  85388523.940 7  20852736.590                    20852751.398  
     -1825.340       -1422.051          44.000          43.000  
 107498313.486 7  83764987.531 7  20456250.190                    20456266.693  
        63.793          49.809          43.000          43.000  
 115354130.355 7  89886422.456 7  21951161.169                    21951179.701  
      2842.762        2214.859          42.000          42.000  
 126856005.172 6  98848910.693 6  24139898.203                    24139916.694  
     -3363.394       -2621.254          40.000          41.000  
 24  1 10  3 20  3.8000000  0  7G08G24G18G23G10G32G15
 128777879.947 6 100346482.341 6  24505628.188                    24505649.588  
      2811.238        2190.812          37.000          39.000  
 128010382.219 6  99748442.097 6  24359564.351                    24359586.880  
       262.234         204.180          39.000          40.000  
 112900618.547 7  87974572.194 7  21484274.771                    21484290.489  
     -1820.801       -1418.543          45.000          45.000  
 109582047.546 7  85388666.142 7  20852771.480                    20852786.234  
     -1824.934       -1422.016          44.000          43.000  
 107498307.057 7  83764982.559 7  20456248.630                    20456265.151  
        64.355          49.812          43.000          43.000  
 115353846.088 7  89886200.947 7  21951106.919                    21951125.981  
      2842.824        2215.270          43.000          42.000  
 126856341.565 6  98849172.794 6  24139962.287                    24139981.100  
     -3363.883       -2620.895          41.000          41.000  
 24  1 10  3 20  3.9000000  0  7G08G24G18G23G10G32G15
 128777598.865 6 100346263.324 6  24505574.700                    24505596.102  
      2810.875        2190.145          36.000          38.000  
 128010355.900 6  99748421.622 6  24359559.343                    24359581.880  
       263.184         204.578          40.000          41.000  
 112900800.517 7  87974713.945 7  21484309.398                    21484325.106  
     -1819.801       -1417.867          45.000          45.000  
 109582229.974 7  85388808.350 7  20852806.195                    20852820.963  
     -1824.074       -1421.477          44.000          43.000  
 107498300.677 7  83764977.621 7  20456247.416                    20456263.945  
        64.027          49.844          44.000          43.000  
 115353561.748 7  89885979.388 7  21951052.810                    21951071.874  
      2843.449        2215.598          43.000          42.000  
 126856677.904 7  98849434.831 6  24140026.290                    24140045.093  
     -3363.602       -2620.523          42.000          41.000  
 24  1 10  3 20  4.0000000  0  7G08G24G18G23G10G32G15
 128777317.873 5 100346044.354 6  24505520.877                    24505543.049  
      2810.062        2189.598          35.000          38.000  
 128010329.584 6  99748401.121 6  24359554.616                    24359577.155  
       263.105         205.059          40.000          41.000  
 112900982.463 7  87974855.758 7  21484343.920                    21484359.910  
     -1819.082       -1417.734          45.000          45.000  
 109582412.478 7  85388950.532 7  20852841.151                    20852855.826  
     -1824.973       -1422.234          44.000          43.000  
 107498294.353 7  83764972.642 7  20456246.072                    20456263.003  
        63.086          49.547          45.000          43.000  
 115353277.397 7  89885757.779 7  21950998.739                    21951017.935  
      2843.391        2215.887          44.000          42.000  
 126857014.181 6  98849696.816 6  24140091.047                    24140109.525  
     -3363.098       -2620.223          41.000          41.000  
 24  1 10  3 20  4.1000000  0  7G08G24G18G23G10G32G15
 128777037.030 5 100345825.559 6  24505467.435                    24505489.617  
      2808.570        2188.074          34.000          38.000  
 128010303.283 6  99748380.625 6  24359549.611                    24359572.149  
       263.148         204.891          40.000          41.000  
 112901164.426 7  87974997.517 7  21484378.547                    21484394.529  
     -1819.934       -1417.934          44.000          45.000  
 109582595.004 7  85389092.802 7  20852875.884                    20852890.569  
     -1825.273       -1422.508          44.000          43.000  
 107498288.121 7  83764967.790 7  20456244.886                    20456261.818  
        62.262          48.379          45.000          43.000  
 115352993.097 7  89885536.272 7  21950944.639                    21950963.841  
      2843.316        2215.512          44.000          42.000  
 126857350.463 6  98849958.935 6  24140155.039                    24140173.537  
     -3363.027       -2621.027          39.000          41.000  
 24  1 10  3 20  4.2000000  0  7G08G24G18G23G10G32G15
 128776756.303 5 100345606.818 6  24505414.147                    24505435.760  
      2807.121        2187.613          33.000          37.000  
 128010276.934 6  99748360.123 6  24359544.691                    24359567.275  
       263.422         205.227          41.000          41.000  
 112901346.356 7  87975139.323 7  21484413.213                    21484428.152  
     -1819.465       -1417.902          44.000          45.000  
 109582777.623 7  85389235.057 7  20852910.651                    20852925.356  
     -1826.281       -1422.820          44.000          42.000  
 107498281.935 7  83764962.959 7  20456244.264                    20456260.372  
        61.660          48.121          46.000          43.000  
 115352708.723 7  89885314.669 7  21950890.579                    21950909.551  
      2843.574        2215.746          45.000          42.000  
 126857686.927 6  98850221.116 6  24140218.605                    24140236.932  
     -3364.547       -2621.406          38.000          40.000  
 24  1 10  3 20  4.3000000  0  7G08G24G18G23G10G32G15
 128776475.713 5 100345388.130 6  24505360.752                    24505382.354  
      2806.004        2186.898          33.000          37.000  
 128010250.505 6  99748339.504 6  24359539.662                    24359562.240  
       264.094         205.969          40.000          41.000  
 112901528.255 7  87975281.042 7  21484447.828                    21484462.761  
     -1819.043       -1417.523          43.000          46.000  
 109582960.307 7  85389377.386 7  20852945.415                    20852960.115  
     -1826.746       -1423.363          44.000          42.000  
 107498275.871 7  83764958.245 7  20456243.110                    20456259.221  
        60.852          47.355          46.000          43.000  
 115352424.281 7  89885093.008 7  21950836.451                    21950855.419  
      2844.477        2216.398          45.000          42.000  
 126858023.395 6  98850483.247 6  24140282.633                    24140300.947  
     -3364.348       -2621.598          37.000          40.000  
 24  1 10  3 20  4.4000000  0  8G08G24G18G23G16G10G15G32
 128776195.235 5 100345169.575 6  24505307.762                    24505328.731  
      2804.613        2185.617          32.000          36.000  
 128010224.084 6  99748318.934 6  24359534.533                    24359557.248  
       264.129         205.867          40.000          41.000  
 112901710.138 7  87975422.818 7  21484482.197                    21484497.790  
     -1818.375       -1417.562          43.000          46.000  
 109583143.037 7  85389519.803 7  20852980.523                    20852994.762  
     -1827.801       -1424.164          44.000          42.000  
 127794591.73125                  24318508.904                                  
     -2279.117                          34.000                  
 107498269.870 7  83764953.575 7  20456242.390                    20456258.065  
        59.406          46.590          45.000          43.000  
 126858359.717 6  98850745.395 6  24140346.407                    24140364.427  
     -3363.336       -2621.332          36.000          40.000  
 115352139.852 7  89884871.409 7  21950782.248                    21950801.013  
      2844.543        2216.293          45.000          42.000  
 24  1 10  3 20  4.5000000  0  8G08G24G18G23G16G10G15G32
 128775914.842 5 100344951.127 6  24505254.405                    24505275.384  
      2803.633        2184.621          32.000          36.000  
 128010197.693 6  99748298.350 6  24359529.511                    24359552.221  
       263.668         205.668          40.000          41.000  
 112901892.059 7  87975564.553 7  21484516.815                    21484532.404  
     -1819.602       -1417.273          43.000          46.000  
 109583325.796 7  85389662.234 7  20853015.301                    20853029.545  
     -1827.863       -1424.191          44.000          42.000  
 127794819.67125                  24318552.279                                  
     -2278.996                          34.000                  
 107498263.937 7  83764948.941 7  20456241.261                    20456256.933  
        59.102          46.211          45.000          43.000  
 126858696.245 6  98851007.598 6  24140410.446                    24140428.460  
     -3365.934       -2621.855          37.000          39.000  
 115351855.351 7  89884649.703 7  21950728.109                    21950746.870  
      2845.199        2216.957          45.000          42.000  
 24  1 10  3 20  4.6000000  0  8G08G24G18G23G16G10G15G32
 128775634.611 5 100344732.789 6  24505201.344                    24505221.853  
      2801.785        2183.605          33.000          36.000  
 128010171.253 6  99748277.725 6  24359524.667                    24359547.583  
       264.566         206.301          40.000          41.000  
 112902073.927 7  87975706.243 7  21484551.775                    21484567.576  
     -1818.258       -1416.969          43.000          46.000  
 109583508.648 7  85389804.654 7  20853049.714                    20853064.013  
     -1828.836       -1424.656          44.000          42.000  
 127795047.58725                  24318595.424                                  
     -2280.191                          34.000                  
 107498258.108 7  83764944.406 7  20456239.847                    20456255.998  
        57.828          45.469          45.000          43.000  
 126859032.846 6  98851269.814 6  24140474.428                    24140491.839  
     -3365.750       -2622.160          37.000          39.000  
 115351570.832 7  89884428.012 7  21950674.225                    21950692.723  
      2845.242        2217.062          45.000          43.000  
 24  1 10  3 20  4.7000000  0  8G08G24G18G23G16G10G15G32
 128775354.511 5 100344514.478 6  24505148.043                    24505168.539  
      2800.484        2182.941          33.000          36.000  
 128010144.706 6  99748257.041 6  24359519.615                    24359542.531  
       265.688         206.754          40.000          41.000  
 112902255.712 7  87975847.894 7  21484586.368                    21484602.168  
     -1817.742       -1416.535          43.000          46.000  
 109583691.513 7  85389947.182 7  20853084.512                    20853098.819  
     -1828.680       -1425.297          44.000          42.000  
 127795275.63825                  24318638.821                                  
     -2280.613                          34.000                  
 107498252.313 7  83764939.885 7  20456238.744                    20456254.894  
        57.898          44.949          45.000          42.000  
 126859369.408 6  98851532.083 6  24140538.474                    24140555.888  
     -3365.777       -2622.707          38.000          39.000  
 115351286.237 7  89884206.244 7  21950620.068                    21950638.565  
      2846.316        2217.535          45.000          43.000  
 24  1 10  3 20  4.8000000  0  8G08G24G18G23G16G10G15G32
 128775074.540 5 100344296.306 6  24505094.915                    24505115.345  
      2799.469        2181.762          33.000          36.000  
 128010118.159 6  99748236.352 6  24359514.868                    24359537.612  
       265.617         206.934          40.000          41.000  
 112902437.494 7  87975989.536 7  21484621.022                    21484637.314  
     -1817.508       -1416.473          43.000          46.000  
 109583874.453 7  85390089.751 7  20853119.449                    20853133.433  
     -1829.816       -1425.395          44.000          42.000  
 127795503.57025                  24318681.921                                  
     -2279.121                          33.000                  
 107498246.594 7  83764935.450 7  20456237.586                    20456253.662  
        56.926          44.676          45.000          42.000  
 126859705.976 6  98851794.368 6  24140602.872                    24140619.675  
     -3365.203       -2622.746          39.000          40.000  
 115351001.603 7  89883984.447 7  21950565.819                    21950584.814  
      2846.586        2217.961          45.000          42.000  
 24  1 10  3 20  4.9000000  0  8G08G24G18G23G16G10G15G32
 128774794.614 5 100344078.216 6  24505041.647                    24505062.085  
      2798.320        2181.332          32.000          36.000  
 128010091.593 6  99748215.623 6  24359509.813                    24359532.549  
       265.648         207.359          40.000          41.000  
 112902619.256 7  87976131.207 7  21484655.610                    21484671.911  
     -1817.504       -1416.348          43.000          46.000  
 109584057.457 7  85390232.316 7  20853154.274                    20853168.249  
     -1830.297       -1425.711          44.000          42.000  
 127795731.68025                  24318725.329                                  
     -2280.840                          33.000                  
 107498240.929 7  83764931.026 7  20456236.508                    20456252.582  
        56.293          44.246          45.000          42.000  
 126860042.561 6  98852056.649 6  24140666.922                    24140683.727  
     -3366.832       -2622.797          39.000          40.000  
 115350716.906 7  89883762.604 7  21950511.643                    21950530.638  
      2847.266        2218.477          45.000          42.000  
 24  1 10  3 20  5.0000000  0  8G08G24G18G23G16G10G15G32
 128774514.786 5 100343860.173 6  24504988.108                    24505008.243  
      2798.422        2180.434          33.000          36.000  
 128010065.007 6  99748194.886 6  24359505.003                    24359527.071  
       265.902         207.297          40.000          41.000  
 112902800.936 7  87976272.759 7  21484690.128                    21484705.808  
     -1816.742       -1415.895          43.000          46.000  
 109584240.426 7  85390374.871 7  20853189.021                    20853203.078  
     -1829.457       -1425.684          45.000          42.000  
 127795959.75725                  24318768.692                                  
     -2281.035                          34.000                  
 107498235.310 7  83764926.631 7  20456235.602                    20456251.266  
        55.945          43.887          46.000          43.000  
 126860379.160 6  98852318.930 6  24140731.889                    24140748.497  
     -3365.312       -2622.891          38.000          40.000  
 115350432.148 7  89883540.723 7  21950457.291                    21950476.187  
      2847.879        2218.844          45.000          42.000  
 24  1 10  3 20  5.1000000  0  8G08G24G18G23G16G10G15G32
 128774235.122 5 100343642.244 6  24504934.890                    24504955.023  
      2795.684        2179.230          33.000          37.000  
 128010038.285 6  99748174.157 6  24359499.918                    24359522.009  
       267.148         207.352          40.000          41.000  
 112902982.673 7  87976414.371 7  21484724.712                    21484740.391  
     -1817.359       -1415.734          44.000          46.000  
 109584423.483 7  85390517.551 7  20853223.856                    20853237.922  
     -1830.719       -1426.324          44.000          42.000  
 127796187.86025                  24318812.098                                  
     -2281.168                          34.000                  
 107498229.768 7  83764922.340 7  20456234.548                    20456250.218  
        55.430          43.176          45.000          43.000  
 126860715.764 6  98852581.284 6  24140795.943                    24140812.567  
     -3366.992       -2623.578          38.000          41.000  
 115350147.372 7  89883318.820 7  21950403.100                    21950421.996  
      2848.055        2218.992          45.000          42.000  
 24  1 10  3 20  5.2000000  0  8G08G24G18G23G16G10G15G32
 128773955.590 5 100343424.421 6  24504881.572                    24504901.890  
      2795.086        2178.508          33.000          36.000  
 128010011.639 6  99748153.372 6  24359494.699                    24359516.746  
       266.355         207.738          39.000          41.000  
 112903164.278 7  87976555.895 7  21484759.496                    21484774.632  
     -1816.133       -1415.406          43.000          46.000  
 109584606.559 7  85390660.196 7  20853259.421                    20853272.101  
     -1830.695       -1426.930          44.000          42.000  
 127796416.00025                  24318855.449                                  
     -2281.980                          34.000                  
