     2.11           OBSERVATION DATA    M (MIXED)           RINEX VERSION / TYPE
GPP.DLL V3.2.21                         18 - MAR - 24 07:42 PGM / RUN BY / DATE 
                                                            MARKER NAME         
                                                            MARKER NUMBER       
                                                            OBSERVER / AGENCY   
6028C00128          APX-15v3 AV         5.50                REC # / TYPE / VERS 
                    E                                       ANT # / TYPE        
 -4667809.4757  2554590.8630 -3504920.4774                  APPROX POSITION XYZ 
        0.0000       -0.0000       -0.0000                  ANTENNA: DELTA H/E/N
     1     1                                                WAVELENGTH FACT L1/2
     8    L1    L2    C1    C2    D1    D2    S1    S2      # / TYPES OF OBSERV 
     0.100                                                  INTERVAL            
  2024     1    10     3    19    0.0000000     GPS         TIME OF FIRST OBS   
  2024     1    10     3    19   59.9000000     GPS         TIME OF LAST OBS    
    18                                                      LEAP SECONDS        
     7                                                      # OF SATELLITES     
   G08   600   600   600   600   600   600   600   600      PRN / # OF OBS      
   G10   600   600   600   600   600   600   600   600      PRN / # OF OBS      
   G15   600   600   600   600   600   600   600   600      PRN / # OF OBS      
   G18   600   600   600   600   600   600   600   600      PRN / # OF OBS      
   G23   600   600   600   600   600   600   600   600      PRN / # OF OBS      
   G24   600   600   600   600   600   600   600   600      PRN / # OF OBS      
   G32   600   600   600   600   600   600   600   600      PRN / # OF OBS      
                                                            END OF HEADER       
 24  1 10  3 19  0.0000000  0  7G08G24G18G23G10G32G15
 130532108.108 6 101713413.106 6  24839447.301    24839468.253        2817.605  
      2195.539          39.000          40.000  
 129603789.007 6 100990057.526 7  24662780.636    24662802.721         302.738  
       235.633          39.000          42.000  
 114361107.658 7  89112615.740 7  21762196.912    21762212.526       -1784.363  
     -1390.109          44.000          46.000  
 111040986.802 7  86525501.942 7  21130398.819    21130412.593       -1812.902  
     -1412.633          44.000          42.000  
 109078160.568 7  84996037.209 7  20756885.312    20756901.637          87.160  
        67.898          42.000          44.000  
 117112765.044 7  91256786.773 7  22285818.200    22285837.484        2895.402  
      2256.180          45.000          43.000  
 128216983.032 6  99909413.061 6  24398882.976    24398901.938       -3354.637  
     -2614.133          41.000          40.000  
 24  1 10  3 19  0.1000000  0  7G08G24G18G23G10G32G15
 130531826.358 6 101713193.575 6  24839393.686    24839414.641        2817.531  
      2195.406          39.000          40.000  
 129603758.836 6 100990033.984 7  24662774.895    24662796.972         302.156  
       235.453          39.000          42.000  
 114361286.015 7  89112754.759 7  21762230.853    21762246.476       -1783.934  
     -1390.266          43.000          46.000  
 111041168.102 7  86525643.235 7  21130433.319    21130447.098       -1812.895  
     -1412.875          44.000          43.000  
 109078151.853 7  84996030.387 7  20756883.654    20756899.971          87.086  
        67.879          42.000          44.000  
 117112475.502 7  91256561.169 7  22285763.102    22285782.389        2895.262  
      2256.039          45.000          43.000  
 128217318.504 7  99909674.465 6  24398946.814    24398965.776       -3354.711  
     -2613.965          42.000          40.000  
 24  1 10  3 19  0.2000000  0  7G08G24G18G23G10G32G15
 130531544.594 6 101712974.033 6  24839339.677    24839360.948        2817.625  
      2195.387          39.000          40.000  
 129603728.647 6 100990010.463 7  24662769.212    24662790.954         302.121  
       235.238          39.000          42.000  
 114361464.462 7  89112893.803 7  21762264.841    21762279.830       -1784.043  
     -1390.012          43.000          46.000  
 111041349.362 7  86525784.494 7  21130467.867    21130481.665       -1812.738  
     -1412.719          44.000          43.000  
 109078143.148 7  84996023.614 7  20756882.099    20756897.716          87.188  
        67.930          42.000          44.000  
 117112185.948 7  91256335.544 7  22285707.822    22285727.258        2895.488  
      2256.176          45.000          43.000  
 128217653.972 7  99909935.920 6  24399010.948    24399029.681       -3354.727  
     -2614.492          42.000          40.000  
 24  1 10  3 19  0.3000000  0  7G08G24G18G23G10G32G15
 130531262.898 6 101712754.521 6  24839286.073    24839307.341        2817.121  
      2195.090          38.000          41.000  
 129603698.456 6 100989987.010 7  24662763.467    24662785.227         301.887  
       234.695          40.000          42.000  
 114361642.941 7  89113032.889 7  21762298.805    21762313.796       -1784.527  
     -1391.117          43.000          46.000  
 111041530.797 7  86525925.864 7  21130502.393    21130516.189       -1813.625  
     -1413.242          44.000          43.000  
 109078134.534 7  84996016.920 7  20756880.460    20756896.081          86.504  
        66.895          42.000          44.000  
 117111896.505 7  91256109.995 7  22285652.743    22285672.176        2894.922  
      2255.398          45.000          43.000  
 128217989.552 7  99910197.380 6  24399074.807    24399093.532       -3355.191  
     -2614.574          42.000          40.000  
 24  1 10  3 19  0.4000000  0  7G08G24G18G23G10G32G15
 130530981.191 6 101712535.020 6  24839231.794    24839253.830        2817.242  
      2195.152          38.000          41.000  
 129603668.350 6 100989963.508 6  24662757.730    24662778.995         301.648  
       235.105          40.000          41.000  
 114361821.488 7  89113172.032 7  21762333.164    21762347.675       -1785.074  
     -1391.254          44.000          46.000  
 111041712.180 7  86526067.195 7  21130536.737    21130551.274       -1813.875  
     -1413.520          44.000          43.000  
 109078125.945 7  84996010.198 7  20756878.552    20756894.853          86.125  
        66.992          42.000          44.000  
 117111607.035 7  91255884.429 7  22285597.510    22285617.169        2894.703  
      2255.492          45.000          43.000  
 128218325.086 7  99910458.828 6  24399138.852    24399156.989       -3355.391  
     -2614.320          42.000          40.000  
 24  1 10  3 19  0.5000000  0  7G08G24G18G23G10G32G15
 130530699.474 6 101712315.510 6  24839178.185    24839200.224        2817.188  
      2194.902          38.000          41.000  
 129603638.191 6 100989939.974 6  24662751.991    24662773.248         301.512  
       235.094          40.000          41.000  
 114362000.031 7  89113311.119 7  21762367.139    21762381.641       -1785.281  
     -1391.188          43.000          46.000  
 111041893.603 7  86526208.576 7  21130571.260    21130585.801       -1813.898  
     -1413.613          44.000          42.000  
 109078117.376 7  84996003.524 7  20756876.921    20756893.223          85.926  
        66.855          42.000          44.000  
 117111317.602 7  91255658.913 7  22285542.432    22285562.096        2894.625  
      2255.469          45.000          43.000  
 128218660.667 7  99910720.293 6  24399202.711    24399220.842       -3355.738  
     -2614.906          42.000          40.000  
 24  1 10  3 19  0.6000000  0  7G08G24G18G23G10G32G15
 130530417.751 6 101712096.006 6  24839124.340    24839146.713        2816.973  
      2195.105          38.000          41.000  
 129603608.050 6 100989916.527 6  24662746.662    24662767.467         301.383  
       234.598          40.000          41.000  
 114362178.651 7  89113450.317 7  21762400.645    21762415.479       -1785.934  
     -1391.492          43.000          46.000  
 111042075.071 7  86526349.977 7  21130605.699    21130620.363       -1814.902  
     -1414.219          44.000          42.000  
 109078108.828 7  84995996.861 7  20756874.998    20756891.424          85.391  
        66.559          42.000          44.000  
 117111028.174 7  91255433.381 7  22285487.528    22285507.284        2894.031  
      2254.996          45.000          43.000  
 128218996.280 7  99910981.830 6  24399266.678    24399284.696       -3355.828  
     -2615.215          42.000          40.000  
 24  1 10  3 19  0.7000000  0  7G08G24G18G23G10G32G15
 130530136.133 6 101711876.523 6  24839070.750    24839093.113        2816.570  
      2194.852          38.000          41.000  
 129603577.958 6 100989893.110 7  24662740.935    24662761.749         301.289  
       234.445          40.000          42.000  
 114362357.265 7  89113589.477 7  21762434.635    21762449.463       -1786.316  
     -1391.914          42.000          46.000  
 111042256.579 7  86526491.366 7  21130640.239    21130654.892       -1815.055  
     -1414.106          44.000          43.000  
 109078100.356 7  84995990.270 7  20756873.386    20756889.815          84.777  
        66.074          42.000          44.000  
 117110738.785 7  91255207.898 7  22285432.459    22285452.219        2893.887  
      2254.918          45.000          43.000  
 128219331.862 7  99911243.317 6  24399330.537    24399348.554       -3356.074  
     -2615.062          43.000          40.000  
 24  1 10  3 19  0.8000000  0  7G08G24G18G23G10G32G15
 130529854.420 6 101711657.021 6  24839017.321    24839039.492        2816.910  
      2195.043          39.000          40.000  
 129603547.862 6 100989869.602 7  24662735.451    24662756.484         300.965  
       234.734          40.000          42.000  
 114362535.812 7  89113728.630 7  21762468.322    21762483.656       -1785.723  
     -1391.457          43.000          46.000  
 111042438.063 7  86526632.793 7  21130674.563    21130689.422       -1814.656  
     -1413.988          43.000          42.000  
 109078091.786 7  84995983.592 7  20756872.013    20756888.262          85.453  
        66.695          42.000          44.000  
 117110449.355 7  91254982.370 7  22285377.257    22285396.877        2894.242  
      2255.121          45.000          44.000  
 128219667.432 7  99911504.850 6  24399394.714    24399412.665       -3355.535  
     -2614.891          43.000          40.000  
 24  1 10  3 19  0.9000000  0  7G08G24G18G23G10G32G15
 130529572.720 6 101711437.522 6  24838963.716    24838985.889        2816.992  
      2194.953          39.000          40.000  
 129603517.788 6 100989846.159 7  24662729.728    24662750.759         300.828  
       234.465          39.000          43.000  
 114362714.372 7  89113867.750 7  21762502.301    21762517.631       -1785.504  
     -1391.344          43.000          46.000  
 111042619.509 7  86526774.194 7  21130709.091    21130723.954       -1814.520  
     -1413.828          44.000          43.000  
 109078083.214 7  84995976.937 7  20756870.381    20756886.637          85.809  
        66.594          42.000          44.000  
 117110159.953 7  91254756.845 7  22285322.186    22285341.801        2894.199  
      2255.422          44.000          43.000  
 128220003.007 7  99911766.312 6  24399458.572    24399476.517       -3355.758  
     -2615.012          43.000          40.000  
 24  1 10  3 19  1.0000000  0  7G08G24G18G23G10G32G15
 130529291.062 6 101711218.040 6  24838910.165    24838932.093        2816.754  
      2194.832          39.000          40.000  
 129603487.691 6 100989822.734 7  24662723.266    24662745.875         300.922  
       234.363          39.000          43.000  
 114362892.940 7  89114006.926 7  21762536.140    21762551.736       -1785.668  
     -1391.441          43.000          46.000  
 111042800.927 7  86526915.568 7  21130743.653    21130757.932       -1814.324  
     -1413.793          44.000          42.000  
 109078074.693 7  84995970.285 7  20756868.838    20756885.004          85.512  
        66.754          42.000          44.000  
 117109870.525 7  91254531.302 7  22285267.250    22285286.948        2894.172  
      2255.141          44.000          44.000  
 128220338.600 7  99912027.807 6  24399522.660    24399540.041       -3355.852  
     -2614.727          43.000          39.000  
 24  1 10  3 19  1.1000000  0  7G08G24G18G23G10G32G15
 130529009.381 6 101710998.546 6  24838856.563    24838878.491        2816.758  
      2194.961          39.000          40.000  
 129603457.585 6 100989799.285 7  24662717.537    24662740.148         300.859  
       234.414          39.000          43.000  
 114363071.502 7  89114146.027 7  21762570.120    21762585.706       -1785.867  
     -1391.418          43.000          46.000  
 111042982.384 7  86527056.992 7  21130778.183    21130792.469       -1814.383  
     -1413.723          44.000          42.000  
 109078066.098 7  84995963.567 7  20756867.202    20756883.364          85.617  
        66.762          42.000          44.000  
 117109581.093 7  91254305.796 7  22285212.173    22285231.877        2894.422  
      2255.328          45.000          44.000  
 128220674.206 7  99912289.327 6  24399586.523    24399603.907       -3355.894  
     -2615.031          43.000          39.000  
 24  1 10  3 19  1.2000000  0  7G08G24G18G23G10G32G15
 130528727.675 6 101710779.029 6  24838802.917    24838825.242        2817.266  
      2195.203          39.000          40.000  
 129603427.533 6 100989775.832 7  24662711.147    24662734.647         300.840  
       234.715          39.000          43.000  
 114363250.009 7  89114285.148 7  21762604.549    21762619.658       -1784.836  
     -1391.016          44.000          46.000  
 111043163.737 7  86527198.246 7  21130813.092    21130826.316       -1813.754  
     -1413.012          44.000          42.000  
 109078057.455 7  84995956.856 7  20756865.011    20756881.600          86.523  
        67.414          42.000          44.000  
 117109291.611 7  91254080.214 7  22285157.063    22285176.647        2894.730  
      2255.664          45.000          43.000  
 128221009.759 7  99912550.795 6  24399650.424    24399667.080       -3355.719  
     -2614.625          42.000          38.000  
 24  1 10  3 19  1.3000000  0  7G08G24G18G23G10G32G15
 130528445.907 6 101710559.487 6  24838749.298    24838771.627        2817.406  
      2195.305          39.000          40.000  
 129603397.324 6 100989752.318 7  24662705.398    24662728.905         301.941  
       234.863          39.000          42.000  
 114363428.503 7  89114424.183 7  21762638.515    21762653.611       -1784.863  
     -1390.371          44.000          46.000  
 111043345.016 7  86527339.499 7  21130847.588    21130860.812       -1812.906  
     -1412.594          44.000          42.000  
 109078048.764 7  84995950.055 7  20756863.357    20756879.939          87.004  
        67.883          42.000          44.000  
 117109002.113 7  91253854.642 7  22285101.974    22285121.560        2895.254  
      2256.035          45.000          43.000  
 128221345.323 7  99912812.246 6  24399714.280    24399730.929       -3355.496  
     -2614.594          42.000          38.000  
 24  1 10  3 19  1.4000000  0  7G08G24G18G23G10G32G15
 130528164.174 6 101710339.945 6  24838695.952    24838718.294        2817.289  
      2195.270          39.000          40.000  
 129603367.179 6 100989728.836 7  24662700.099    24662722.170         301.297  
       234.750          40.000          42.000  
 114363606.907 7  89114563.234 7  21762672.058    21762687.249       -1784.301  
     -1390.453          43.000          45.000  
 111043526.321 7  86527480.808 7  21130881.925    21130895.305       -1813.172  
     -1413.066          44.000          42.000  
 109078040.048 7  84995943.276 7  20756861.894    20756878.338          86.871  
        67.863          42.000          44.000  
 117108712.570 7  91253629.007 7  22285046.743    22285066.419        2895.055  
      2256.043          44.000          43.000  
 128221680.836 7  99913073.695 6  24399778.055    24399795.004       -3355.461  
     -2614.762          42.000          39.000  
 24  1 10  3 19  1.5000000  0  7G08G24G18G23G10G32G15
 130527882.462 6 101710120.419 6  24838642.344    24838664.684        2817.191  
      2195.359          39.000          40.000  
 129603337.111 6 100989705.358 7  24662694.377    24662716.437         301.098  
       234.879          40.000          42.000  
 114363785.391 7  89114702.345 7  21762706.023    21762721.221       -1784.602  
     -1390.652          43.000          45.000  
 111043707.636 7  86527622.127 7  21130916.428    21130929.817       -1813.035  
     -1412.793          44.000          43.000  
 109078031.334 7  84995936.478 7  20756860.235    20756876.678          87.055  
        67.895          42.000          44.000  
 117108423.091 7  91253403.450 7  22284991.656    22285011.335        2895.023  
      2255.953          45.000          43.000  
 128222016.405 7  99913335.251 6  24399841.912    24399858.879       -3355.336  
     -2614.945          42.000          39.000  
 24  1 10  3 19  1.6000000  0  7G08G24G18G23G10G32G15
 130527600.744 6 101709900.869 6  24838588.891    24838610.950        2817.273  
      2195.352          39.000          40.000  
 129603306.986 6 100989681.892 7  24662688.871    24662710.143         301.160  
       234.750          41.000          42.000  
 114363963.840 7  89114841.340 7  21762740.137    21762755.431       -1784.816  
     -1390.664          44.000          46.000  
 111043888.925 7  86527763.344 7  21130950.528    21130965.335       -1813.008  
     -1412.398          44.000          43.000  
 109078022.617 7  84995929.709 7  20756859.053    20756875.119          87.117  
        67.883          42.000          44.000  
 117108133.583 7  91253177.864 7  22284936.448    22284956.237        2895.094  
      2255.918          45.000          43.000  
 128222351.933 7  99913596.632 6  24399905.800    24399923.070       -3355.531  
     -2614.332          42.000          39.000  
 24  1 10  3 19  1.7000000  0  7G08G24G18G23G10G32G15
 130527318.975 6 101709681.375 6  24838535.272    24838557.347        2817.441  
      2195.258          38.000          40.000  
 129603276.836 6 100989658.376 7  24662683.134    24662704.401         301.289  
       235.078          41.000          42.000  
 114364142.268 7  89114980.403 7  21762774.090    21762789.391       -1784.238  
     -1390.379          44.000          46.000  
 111044070.207 7  86527904.631 7  21130985.025    21130999.838       -1812.891  
     -1412.633          44.000          42.000  
 109078013.923 7  84995922.921 7  20756857.399    20756873.461          87.105  
        67.973          43.000          44.000  
 117107844.047 7  91252952.255 7  22284881.351    22284901.141        2895.184  
      2256.039          45.000          43.000  
 128222687.464 7  99913858.024 6  24399969.649    24399986.905       -3355.355  
     -2614.156          42.000          39.000  
 24  1 10  3 19  1.8000000  0  7G08G24G18G23G10G32G15
 130527037.265 6 101709461.853 6  24838481.813    24838503.480        2817.250  
      2195.055          38.000          40.000  
 129603246.673 6 100989634.910 7  24662677.699    24662699.029         301.465  
       234.555          40.000          42.000  
 114364320.676 7  89115119.429 7  21762808.915    21762823.530       -1784.301  
     -1390.453          44.000          46.000  
 111044251.502 7  86528045.901 7  21131019.961    21131034.166       -1812.926  
     -1412.652          44.000          42.000  
 109078005.212 7  84995916.113 7  20756855.436    20756871.611          86.961  
        67.801          43.000          44.000  
 117107554.548 7  91252726.675 7  22284826.480    22284846.263        2895.184  
      2255.875          45.000          43.000  
 128223022.987 7  99914119.496 6  24400033.255    24400050.298       -3355.297  
     -2614.543          42.000          39.000  
 24  1 10  3 19  1.9000000  0  7G08G24G18G23G10G32G15
 130526755.594 6 101709242.336 6  24838428.213    24838449.872        2816.863  
      2195.070          39.000          41.000  
 129603216.606 6 100989611.465 7  24662671.977    24662693.304         301.070  
       234.492          40.000          42.000  
 114364499.187 7  89115258.583 7  21762842.885    21762857.513       -1784.438  
     -1390.777          44.000          46.000  
 111044432.859 7  86528187.161 7  21131054.473    21131068.663       -1813.469  
     -1412.895          44.000          43.000  
 109077996.553 7  84995909.366 7  20756853.789    20756869.963          86.707  
        67.438          43.000          44.000  
 117107265.057 7  91252501.085 7  22284771.391    22284791.172        2894.930  
      2255.809          45.000          43.000  
 128223358.512 7  99914380.967 6  24400097.103    24400114.152       -3355.230  
     -2614.879          43.000          39.000  
 24  1 10  3 19  2.0000000  0  7G08G24G18G23G10G32G15
 130526473.919 6 101709022.859 6  24838374.237    24838396.336        2816.922  
      2194.914          39.000          41.000  
 129603186.482 6 100989588.018 7  24662665.557    24662687.757         301.152  
       234.555          40.000          42.000  
 114364677.651 7  89115397.570 7  21762876.799    21762891.729       -1784.812  
     -1390.766          43.000          46.000  
 111044614.164 7  86528328.472 7  21131089.067    21131103.149       -1813.203  
     -1412.941          44.000          43.000  
 109077987.892 7  84995902.634 7  20756852.102    20756868.194          86.730  
        67.371          43.000          43.000  
 117106975.574 7  91252275.510 7  22284716.414    22284735.810        2894.879  
      2255.680          45.000          43.000  
 128223694.082 7  99914642.474 6  24400161.062    24400178.468       -3355.324  
     -2614.867          42.000          39.000  
 24  1 10  3 19  2.1000000  0  7G08G24G18G23G10G32G15
 130526192.263 6 101708803.411 6  24838320.639    24838342.744        2816.695  
      2194.637          39.000          41.000  
 129603156.344 6 100989564.538 7  24662659.822    24662682.024         301.293  
       234.816          40.000          42.000  
 114364856.111 7  89115536.662 7  21762910.758    21762925.696       -1784.562  
     -1390.598          43.000          46.000  
 111044795.508 7  86528469.790 7  21131123.576    21131137.661       -1813.164  
     -1413.012          44.000          42.000  
 109077979.273 7  84995895.910 7  20756850.461    20756866.552          86.387  
        67.223          43.000          43.000  
 117106686.114 7  91252049.971 7  22284661.332    22284680.732        2894.789  
      2255.637          45.000          44.000  
 128224029.680 7  99914903.947 6  24400224.924    24400242.322       -3355.938  
     -2615.031          42.000          39.000  
 24  1 10  3 19  2.2000000  0  7G08G24G18G23G10G32G15
 130525910.679 6 101708583.993 6  24838266.876    24838289.238        2815.668  
      2194.109          39.000          41.000  
 129603126.284 6 100989541.063 7  24662653.782    24662676.674         300.559  
       234.645          39.000          42.000  
 114365034.710 7  89115675.779 7  21762944.549    21762959.741       -1786.047  
     -1391.379          43.000          46.000  
 111044976.953 7  86528611.147 7  21131157.643    21131171.947       -1814.438  
     -1413.699          43.000          42.000  
 109077970.734 7  84995889.279 7  20756849.071    20756865.073          85.406  
        66.555          43.000          43.000  
 117106396.682 7  91251824.444 7  22284606.106    22284625.757        2894.148  
      2255.066          45.000          43.000  
 128224365.293 7  99915165.481 6  24400288.195    24400306.801       -3355.926  
     -2615.191          42.000          39.000  
 24  1 10  3 19  2.3000000  0  7G08G24G18G23G10G32G15
 130525629.141 6 101708364.583 6  24838213.301    24838235.656        2815.602  
      2194.027          38.000          41.000  
 129603096.252 6 100989517.648 7  24662648.067    24662670.955         300.383  
       234.219          39.000          42.000  
 114365213.212 7  89115814.920 7  21762978.517    21762993.720       -1784.949  
     -1391.027          43.000          46.000  
 111045158.341 7  86528752.519 7  21131192.160    21131206.472       -1814.094  
     -1413.723          43.000          43.000  
 109077962.181 7  84995882.581 7  20756847.443    20756863.438          85.387  
        66.602          43.000          43.000  
 117106107.258 7  91251598.924 7  22284551.031    22284570.683        2894.211  
      2255.258          45.000          43.000  
 128224700.856 7  99915427.000 6  24400352.051    24400370.666       -3355.879  
     -2615.336          42.000          39.000  
 24  1 10  3 19  2.4000000  0  7G08G24G18G23G10G32G15
 130525347.547 6 101708145.186 6  24838159.731    24838182.546        2815.887  
      2194.066          38.000          41.000  
 129603066.163 6 100989494.228 7  24662642.396    24662665.212         300.828  
       234.129          39.000          42.000  
 114365391.744 7  89115954.015 7  21763011.764    21763027.095       -1785.402  
     -1391.481          42.000          46.000  
 111045339.770 7  86528893.890 7  21131226.153    21131240.957       -1814.141  
     -1413.844          43.000          43.000  
 109077953.659 7  84995875.957 7  20756846.118    20756861.898          85.453  
        66.398          43.000          43.000  
 117105817.835 7  91251373.384 7  22284495.924    22284515.362        2894.180  
      2255.242          45.000          44.000  
 128225036.531 7  99915688.546 6  24400415.615    24400434.413       -3356.219  
     -2615.016          42.000          39.000  
 24  1 10  3 19  2.5000000  0  7G08G24G18G23G10G32G15
 130525066.001 6 101707925.773 6  24838106.155    24838128.963        2815.645  
      2194.188          39.000          41.000  
 129603036.060 6 100989470.803 7  24662636.667    24662659.492         300.895  
       234.344          39.000          43.000  
 114365570.326 7  89116093.177 7  21763045.747    21763061.080       -1785.371  
     -1390.957          42.000          46.000  
 111045521.240 7  86529035.305 7  21131260.686    21131275.492       -1814.387  
     -1413.680          43.000          42.000  
 109077945.135 7  84995869.315 7  20756844.496    20756860.276          85.312  
        66.461          43.000          43.000  
 117105528.417 7  91251147.877 7  22284440.850    22284460.290        2894.316  
      2255.203          45.000          43.000  
 128225372.117 7  99915949.945 6  24400479.475    24400498.250       -3356.230  
     -2614.668          42.000          39.000  
 24  1 10  3 19  2.6000000  0  7G08G24G18G23G10G32G15
 130524784.420 6 101707706.397 6  24838052.400    24838074.928        2815.746  
      2193.824          39.000          40.000  
 129603005.990 6 100989447.354 7  24662631.242    24662654.297         300.789  
       234.473          40.000          43.000  
 114365748.896 7  89116232.306 7  21763079.665    21763095.205       -1785.648  
     -1391.504          43.000          46.000  
 111045702.692 7  86529176.707 7  21131295.520    21131309.430       -1814.480  
     -1414.367          44.000          42.000  
 109077936.642 7  84995862.709 7  20756842.747    20756858.663          85.070  
        66.074          43.000          43.000  
 117105239.012 7  91250922.377 7  22284385.715    22284406.002        2894.215  
      2255.215          45.000          43.000  
 128225707.755 7  99916211.546 6  24400543.423    24400561.979       -3355.969  
     -2615.164          43.000          39.000  
 24  1 10  3 19  2.7000000  0  7G08G24G18G23G10G32G15
 130524502.913 6 101707487.000 6  24837998.831    24838021.349        2815.379  
      2193.891          38.000          41.000  
 129602975.926 6 100989423.905 7  24662625.521    24662648.570         300.609  
       234.367          39.000          42.000  
 114365927.411 7  89116371.396 7  21763113.636    21763129.172       -1785.559  
     -1391.348          44.000          46.000  
 111045884.175 7  86529318.081 7  21131330.055    21131343.955       -1814.734  
     -1413.789          44.000          42.000  
 109077928.173 7  84995856.103 7  20756841.136    20756857.050          84.832  
        65.926          43.000          43.000  
 117104949.605 7  91250696.844 7  22284330.643    22284350.925        2894.016  
      2254.984          45.000          44.000  
 128226043.388 7  99916473.071 6  24400607.291    24400625.846       -3356.340  
     -2615.477          43.000          39.000  
 24  1 10  3 19  2.8000000  0  7G08G24G18G23G10G32G15
 130524221.387 6 101707267.647 6  24837945.461    24837967.492        2815.297  
      2193.504          38.000          40.000  
 129602945.901 6 100989400.525 7  24662619.729    24662642.775         300.520  
       233.758          40.000          43.000  
 114366106.017 7  89116510.633 7  21763148.670    21763163.378       -1785.648  
     -1391.731          44.000          46.000  
 111046065.684 7  86529459.542 7  21131364.915    21131378.939       -1814.859  
     -1414.422          44.000          43.000  
 109077919.716 7  84995849.508 7  20756839.753    20756855.322          84.762  
        65.863          43.000          43.000  
 117104660.225 7  91250471.359 7  22284275.529    22284295.836        2893.898  
      2254.918          45.000          43.000  
 128226379.026 7  99916734.617 6  24400671.630    24400689.687       -3356.320  
     -2615.438          43.000          39.000  
 24  1 10  3 19  2.9000000  0  7G08G24G18G23G10G32G15
 130523939.873 6 101707048.277 6  24837891.891    24837913.920        2815.309  
      2193.871          38.000          41.000  
 129602915.814 6 100989377.118 7  24662614.004    24662637.058         300.621  
       234.176          40.000          42.000  
 114366284.547 7  89116649.766 7  21763182.643    21763197.356       -1785.602  
     -1391.828          43.000          46.000  
 111046247.211 7  86529600.981 7  21131399.459    21131413.479       -1815.078  
     -1414.402          44.000          43.000  
 109077911.286 7  84995842.943 7  20756838.149    20756853.719          84.570  
        65.797          43.000          43.000  
 117104370.836 7  91250245.856 7  22284220.460    22284240.765        2893.871  
      2254.949          45.000          43.000  
 128226714.684 7  99916996.209 6  24400735.504    24400753.571       -3356.438  
     -2615.789          43.000          39.000  
 24  1 10  3 19  3.0000000  0  7G08G24G18G23G10G32G15
 130523658.356 6 101706828.932 6  24837838.562    24837860.111        2815.188  
      2193.348          39.000          41.000  
 129602885.840 6 100989353.710 7  24662608.620    24662631.545         300.230  
       234.168          40.000          42.000  
 114366463.212 7  89116788.992 7  21763216.666    21763231.544       -1786.051  
     -1391.531          44.000          46.000  
 111046428.700 7  86529742.397 7  21131434.058    21131448.319       -1814.945  
     -1414.293          43.000          43.000  
 109077902.836 7  84995836.366 7  20756836.768    20756852.230          84.621  
        66.031          43.000          43.000  
 117104081.479 7  91250020.374 7  22284165.897    22284185.450        2893.902  
      2255.094          45.000          43.000  
 128227050.357 7  99917257.752 6  24400799.864    24400817.637       -3356.430  
     -2615.496          43.000          39.000  
 24  1 10  3 19  3.1000000  0  7G08G24G18G23G10G32G15
 130523376.890 6 101706609.583 6  24837785.001    24837806.544        2814.934  
      2193.375          39.000          40.000  
 129602855.895 6 100989330.353 6  24662602.922    24662625.841         299.699  
       233.496          39.000          41.000  
 114366641.869 7  89116928.133 7  21763250.663    21763265.524       -1786.547  
     -1392.195          44.000          46.000  
 111046610.242 7  86529883.867 7  21131468.604    21131482.868       -1815.207  
     -1414.691          44.000          43.000  
 109077894.426 7  84995829.800 7  20756835.167    20756850.626          84.289  
        65.336          43.000          44.000  
 117103792.140 7  91249794.944 7  22284110.838    22284130.398        2893.562  
      2254.414          45.000          43.000  
 128227386.090 7  99917519.345 6  24400863.752    24400881.521       -3357.055  
     -2616.121          42.000          39.000  
 24  1 10  3 19  3.2000000  0  7G08G24G18G23G10G32G15
 130523095.376 6 101706390.253 6  24837731.868    24837753.192        2815.125  
      2193.312          39.000          40.000  
 129602825.939 6 100989307.007 6  24662597.456    24662619.397         299.684  
       233.766          39.000          41.000  
 114366820.497 7  89117067.355 7  21763283.967    21763299.226       -1786.246  
     -1391.965          43.000          46.000  
 111046791.791 7  86530025.332 7  21131503.519    21131517.790       -1815.379  
     -1414.734          44.000          43.000  
 109077886.021 7  84995823.252 7  20756833.224    20756849.246          83.941  
        65.277          42.000          44.000  
 117103502.777 7  91249569.445 7  22284055.688    22284075.407        2893.504  
      2254.754          45.000          43.000  
 128227721.735 7  99917780.918 6  24400927.303    24400944.728       -3356.832  
     -2616.043          42.000          39.000  
 24  1 10  3 19  3.3000000  0  7G08G24G18G23G10G32G15
 130522813.882 6 101706170.872 6  24837678.302    24837699.617        2815.039  
      2193.668          39.000          41.000  
 129602795.915 6 100989283.671 6  24662591.743    24662613.699         300.051  
       233.156          40.000          41.000  
 114366999.209 7  89117206.586 7  21763317.975    21763333.228       -1786.691  
     -1392.215          43.000          46.000  
 111046973.383 7  86530166.822 7  21131538.075    21131552.343       -1815.699  
     -1414.762          44.000          43.000  
 109077877.603 7  84995816.707 7  20756831.622    20756847.648          84.168  
        65.598          42.000          44.000  
 117103213.411 7  91249343.958 7  22284000.623    22284020.341        2893.504  
      2254.738          45.000          43.000  
 128228057.430 7  99918042.506 6  24400991.184    24401008.610       -3356.758  
     -2615.758          42.000          39.000  
 24  1 10  3 19  3.4000000  0  7G08G24G18G23G10G32G15
 130522532.346 6 101705951.515 6  24837624.586    24837646.134        2815.215  
      2193.621          39.000          41.000  
 129602765.938 6 100989260.315 6  24662586.015    24662607.589         299.758  
       233.531          40.000          41.000  
 114367177.816 7  89117345.736 7  21763351.533    21763367.100       -1786.492  
     -1392.195          43.000          46.000  
 111047154.927 7  86530308.299 7  21131572.644    21131586.815       -1815.477  
     -1414.820          44.000          42.000  
 109077869.202 7  84995810.168 7  20756829.703    20756846.012          84.191  
        65.742          42.000          44.000  
 117102924.054 7  91249118.507 7  22283945.615    22283964.932        2893.598  
      2254.570          45.000          43.000  
 128228393.138 7  99918304.092 6  24401055.067    24401072.367       -3356.824  
     -2615.434          42.000          39.000  
 24  1 10  3 19  3.5000000  0  7G08G24G18G23G10G32G15
 130522250.796 6 101705732.164 6  24837571.009    24837592.566        2815.227  
      2193.496          39.000          41.000  
 129602736.013 6 100989236.978 6  24662580.320    24662601.889         299.625  
       233.406          39.000          41.000  
 114367356.546 7  89117485.074 7  21763385.544    21763401.128       -1786.633  
     -1392.203          44.000          45.000  
 111047336.482 7  86530449.791 7  21131607.193    21131621.369       -1815.500  
     -1414.773          44.000          42.000  
 109077860.791 7  84995803.581 7  20756828.102    20756844.403          84.117  
        65.676          43.000          44.000  
 117102634.724 7  91248893.052 7  22283890.558    22283909.874        2893.496  
      2254.695          45.000          43.000  
 128228728.858 6  99918565.628 6  24401118.952    24401136.237       -3357.293  
     -2615.926          41.000          38.000  
 24  1 10  3 19  3.6000000  0  7G08G24G18G23G10G32G15
 130521969.348 6 101705512.807 6  24837517.459    24837538.958        2814.906  
      2193.531          39.000          41.000  
 129602706.053 6 100989213.667 6  24662574.353    24662596.400         299.523  
       233.168          39.000          41.000  
 114367535.242 7  89117624.250 7  21763420.150    21763434.733       -1787.031  
     -1392.371          43.000          45.000  
 111047518.021 7  86530591.229 7  21131641.317    21131655.394       -1815.566  
     -1414.785          44.000          43.000  
 109077852.342 7  84995797.030 7  20756826.792    20756842.561          84.227  
        65.445          43.000          44.000  
 117102345.410 7  91248667.610 7  22283835.480    22283854.834        2893.355  
      2254.344          45.000          43.000  
 128229064.597 6  99918827.286 6  24401182.599    24401200.199       -3357.234  
     -2616.367          41.000          39.000  
 24  1 10  3 19  3.7000000  0  7G08G24G18G23G10G32G15
 130521687.813 6 101705293.438 6  24837463.885    24837485.386        2815.129  
      2193.750          40.000          41.000  
 129602676.185 6 100989190.291 6  24662568.670    24662590.691         299.086  
       233.508          39.000          41.000  
 114367713.903 7  89117763.462 7  21763454.148    21763468.730       -1786.820  
     -1392.234          43.000          45.000  
 111047699.590 7  86530732.717 7  21131675.869    21131689.947       -1815.516  
     -1414.453          44.000          43.000  
 109077843.926 7  84995790.477 7  20756825.190    20756840.961          84.199  
        65.453          43.000          44.000  
 117102056.075 7  91248442.158 7  22283780.421    22283799.776        2893.352  
      2254.520          44.000          43.000  
 128229400.339 6  99919088.953 6  24401246.489    24401264.101       -3357.328  
     -2616.340          41.000          39.000  
 24  1 10  3 19  3.8000000  0  7G08G24G18G23G10G32G15
 130521406.292 6 101705074.063 6  24837410.673    24837432.000        2815.215  
      2193.828          40.000          41.000  
 129602646.215 6 100989167.035 7  24662562.740    24662585.629         299.461  
       232.746          39.000          42.000  
 114367892.543 7  89117902.706 7  21763488.244    21763502.508       -1786.344  
     -1392.191          44.000          45.000  
 111047881.120 7  86530874.137 7  21131710.710    21131724.592       -1815.398  
     -1414.402          44.000          43.000  
 109077835.482 7  84995783.873 7  20756823.802    20756839.520          84.406  
        66.137          42.000          44.000  
 117101766.714 7  91248216.672 7  22283725.099    22283744.812        2893.543  
      2254.672          44.000          43.000  
 128229736.024 6  99919350.491 6  24401310.141    24401328.502       -3357.062  
     -2615.590          41.000          39.000  
 24  1 10  3 19  3.9000000  0  7G08G24G18G23G10G32G15
 130521124.731 6 101704854.671 6  24837357.094    24837378.422        2815.480  
      2193.852          39.000          41.000  
 129602616.263 6 100989143.742 7  24662557.040    24662579.941         299.531  
       232.980          40.000          42.000  
 114368071.191 7  89118041.940 7  21763522.240    21763536.511       -1786.566  
     -1392.285          44.000          45.000  
 111048062.597 7  86531015.557 7  21131745.243    21131759.129       -1815.055  
     -1414.316          44.000          42.000  
 109077826.990 7  84995777.239 7  20756822.186    20756837.900          84.730  
        66.258          42.000          44.000  
 117101477.358 7  91247991.206 7  22283670.037    22283689.751        2893.625  
      2254.570          44.000          43.000  
 128230071.729 7  99919612.089 6  24401374.023    24401392.387       -3356.867  
     -2615.770          42.000          39.000  
 24  1 10  3 19  4.0000000  0  7G08G24G18G23G10G32G15
 130520843.188 6 101704635.268 6  24837303.658    24837325.146        2815.410  
      2193.984          39.000          41.000  
 129602586.380 6 100989120.429 7  24662551.620    24662574.833         298.996  
       233.039          40.000          42.000  
 114368249.819 7  89118181.119 7  21763556.427    21763570.906       -1786.379  
     -1392.273          43.000          45.000  
 111048244.129 7  86531157.026 7  21131779.827    21131793.403       -1815.129  
     -1414.359          44.000          42.000  
 109077818.515 7  84995770.661 7  20756820.472    20756836.387          84.688  
        65.875          42.000          44.000  
 117101187.994 7  91247765.721 7  22283615.098    22283635.052        2893.328  
      2254.742          44.000          43.000  
 128230407.454 7  99919873.651 6  24401437.629    24401456.662       -3357.383  
     -2616.031          42.000          40.000  
 24  1 10  3 19  4.1000000  0  7G08G24G18G23G10G32G15
 130520561.569 6 101704415.860 6  24837250.068    24837271.564        2815.797  
      2194.109          39.000          41.000  
 129602556.480 6 100989097.077 7  24662545.930    24662569.130         298.969  
       233.301          40.000          43.000  
 114368428.502 7  89118320.326 7  21763590.429    21763604.902       -1786.672  
     -1392.062          43.000          45.000  
 111048425.610 7  86531298.445 7  21131814.362    21131827.939       -1814.961  
     -1414.387          44.000          42.000  
 109077809.998 7  84995764.013 7  20756818.851    20756834.764          84.879  
        66.285          42.000          44.000  
 117100898.667 7  91247540.271 7  22283560.041    22283579.995        2893.578  
      2254.820          44.000          43.000  
 128230743.170 7  99920135.234 6  24401501.513    24401520.543       -3357.133  
     -2615.445          42.000          40.000  
 24  1 10  3 19  4.2000000  0  7G08G24G18G23G10G32G15
 130520279.969 6 101704196.429 6  24837196.216    24837217.305        2815.898  
      2194.383          39.000          41.000  
 129602526.545 6 100989073.759 7  24662540.116    24662563.608         299.293  
       233.305          41.000          43.000  
 114368607.079 7  89118459.502 7  21763624.317    21763638.874       -1786.191  
     -1391.719          43.000          45.000  
 111048607.062 7  86531439.825 7  21131849.008    21131862.185       -1814.707  
     -1413.672          44.000          42.000  
 109077801.448 7  84995757.353 7  20756816.872    20756832.957          85.195  
        66.582          42.000          44.000  
 117100609.266 7  91247314.791 7  22283504.970    22283524.829        2893.750  
      2254.789          44.000          43.000  
 128231078.809 7  99920396.751 6  24401565.821    24401584.275       -3356.891  
     -2615.562          42.000          40.000  
 24  1 10  3 19  4.3000000  0  7G08G24G18G23G10G32G15
 130519998.417 6 101703977.038 6  24837142.638    24837163.728        2815.676  
      2193.812          39.000          41.000  
 129602496.638 6 100989050.442 7  24662534.425    24662557.914         299.117  
       232.945          41.000          43.000  
 114368785.821 7  89118598.734 7  21763658.331    21763672.876       -1786.898  
     -1392.246          44.000          45.000  
 111048788.525 7  86531581.214 7  21131883.539    21131896.713       -1814.664  
     -1414.043          44.000          42.000  
 109077792.953 7  84995750.745 7  20756815.256    20756831.344          85.273  
        66.441          42.000          44.000  
 117100319.922 7  91247089.315 7  22283449.909    22283469.765        2893.574  
      2254.785          44.000          43.000  
 128231414.522 7  99920658.425 6  24401629.705    24401648.179       -3356.734  
     -2616.004          42.000          40.000  
 24  1 10  3 19  4.4000000  0  7G08G24G18G23G10G32G15
 130519716.842 6 101703757.618 6  24837088.790    24837110.167        2815.754  
      2194.105          39.000          41.000  
 129602466.766 6 100989027.209 7  24662528.553    24662552.357         299.078  
       232.949          40.000          43.000  
 114368964.470 7  89118737.944 7  21763692.647    21763707.091       -1786.641  
     -1392.277          44.000          46.000  
 111048970.013 7  86531722.662 7  21131917.349    21131930.928       -1814.809  
     -1414.027          44.000          42.000  
 109077784.427 7  84995744.091 7  20756813.383    20756829.914          85.020  
        66.109          43.000          44.000  
 117100030.577 7  91246863.844 7  22283394.966    22283414.726        2893.484  
      2254.426          44.000          43.000  
 128231750.205 7  99920919.981 6  24401693.864    24401712.483       -3356.965  
     -2615.953          42.000          39.000  
 24  1 10  3 19  4.5000000  0  7G08G24G18G23G10G32G15
 130519435.240 6 101703538.216 6  24837035.203    24837056.586        2815.840  
      2194.055          39.000          41.000  
 129602436.929 6 100989003.914 7  24662522.875    24662546.668         298.586  
       232.785          41.000          43.000  
 114369143.146 7  89118877.217 7  21763726.648    21763741.104       -1786.555  
     -1392.289          44.000          46.000  
 111049151.451 7  86531864.048 7  21131951.875    21131965.456       -1814.621  
     -1413.996          43.000          42.000  
 109077775.913 7  84995737.454 7  20756811.763    20756828.293          85.109  
        66.320          43.000          44.000  
 117099741.266 7  91246638.414 7  22283339.912    22283359.674        2893.340  
      2254.461          45.000          43.000  
 128232085.924 6  99921181.530 6  24401757.750    24401776.356       -3357.117  
     -2615.848          41.000          39.000  
 24  1 10  3 19  4.6000000  0  7G08G24G18G23G10G32G15
 130519153.699 6 101703318.815 6  24836981.808    24837002.756        2815.691  
      2193.926          40.000          41.000  
 129602407.057 6 100988980.632 7  24662517.410    24662540.092         298.512  
       232.402          41.000          43.000  
 114369321.821 7  89119016.415 7  21763760.930    21763774.948       -1786.844  
     -1392.356          44.000          46.000  
 111049332.943 7  86532005.469 7  21131985.904    21131999.813       -1814.863  
     -1414.430          43.000          42.000  
 109077767.443 7  84995730.859 7  20756810.370    20756826.597          85.047  
        66.355          42.000          44.000  
 117099451.957 7  91246412.989 7  22283284.819    22283304.248        2893.148  
      2254.328          45.000          43.000  
 128232421.629 7  99921443.177 6  24401821.210    24401839.675       -3357.078  
     -2616.242          42.000          39.000  
 24  1 10  3 19  4.7000000  0  7G08G24G18G23G10G32G15
 130518872.163 6 101703099.420 6  24836928.233    24836949.178        2815.449  
      2193.938          39.000          41.000  
 129602377.227 6 100988957.481 7  24662511.733    24662534.438         298.641  
       232.137          41.000          43.000  
 114369500.521 7  89119155.670 7  21763794.935    21763808.956       -1786.980  
     -1392.457          45.000          46.000  
 111049514.452 7  86532146.907 7  21132020.444    21132034.353       -1814.879  
     -1414.207          44.000          42.000  
 109077758.949 7  84995724.217 7  20756808.754    20756824.975          84.773  
        66.016          43.000          44.000  
 117099162.667 7  91246187.553 7  22283229.769    22283249.194        2892.977  
      2254.207          45.000          43.000  
 128232757.361 6  99921704.787 6  24401885.098    24401903.563       -3357.156  
     -2616.117          41.000          39.000  
 24  1 10  3 19  4.8000000  0  7G08G24G18G23G10G32G15
 130518590.584 6 101702879.997 6  24836874.682    24836895.749        2815.582  
      2194.016          39.000          41.000  
 129602347.319 6 100988934.132 7  24662506.464    24662528.759         298.668  
       232.895          41.000          43.000  
 114369679.203 7  89119294.901 7  21763829.172    21763842.958       -1786.754  
     -1392.324          44.000          46.000  
 111049695.937 7  86532288.297 7  21132055.347    21132069.195       -1814.938  
     -1414.008          44.000          42.000  
 109077750.484 7  84995717.654 7  20756806.979    20756823.262          84.805  
        65.934          43.000          44.000  
 117098873.373 7  91245962.129 7  22283174.577    22283194.253        2893.027  
      2254.320          45.000          43.000  
 128233093.070 6  99921966.378 6  24401948.903    24401967.454       -3357.051  
     -2615.730          41.000          39.000  
 24  1 10  3 19  4.9000000  0  7G08G24G18G23G10G32G15
 130518309.009 6 101702660.622 6  24836821.100    24836842.175        2815.719  
      2193.828          39.000          41.000  
 129602317.473 6 100988910.886 7  24662500.784    24662523.083         298.715  
       232.871          40.000          43.000  
 114369857.933 7  89119434.192 7  21763863.183    21763876.974       -1787.062  
     -1392.481          43.000          46.000  
 111049877.457 7  86532429.725 7  21132089.889    21132103.733       -1815.016  
     -1414.426          44.000          42.000  
 109077741.967 7  84995711.000 7  20756805.358    20756821.637          84.879  
        66.242          43.000          44.000  
 117098584.055 7  91245736.690 7  22283119.522    22283139.198        2893.035  
      2254.184          45.000          43.000  
 128233428.776 6  99922227.987 6  24402012.786    24402031.341       -3357.062  
     -2615.910          41.000          39.000  
 24  1 10  3 19  5.0000000  0  7G08G24G18G23G10G32G15
 130518027.481 6 101702441.239 6  24836767.425    24836788.850        2815.395  
      2193.594          39.000          41.000  
 129602287.606 6 100988887.611 7  24662495.202    24662516.883         298.703  
       232.684          40.000          43.000  
 114370036.637 7  89119573.388 7  21763896.431    21763910.975       -1787.207  
     -1392.555          43.000          46.000  
 111050058.976 7  86532571.197 7  21132125.251    21132138.735       -1815.102  
     -1414.535          44.000          43.000  
 109077733.555 7  84995704.445 7  20756803.507    20756820.256          84.582  
        65.699          42.000          44.000  
 117098294.802 7  91245511.295 7  22283064.503    22283083.631        2892.801  
      2254.078          45.000          43.000  
 128233764.548 6  99922489.543 6  24402076.462    24402095.052       -3357.527  
     -2615.891          41.000          39.000  
 24  1 10  3 19  5.1000000  0  7G08G24G18G23G10G32G15
 130517745.953 6 101702221.895 6  24836713.852    24836735.283        2815.402  
      2193.781          39.000          41.000  
 129602257.729 6 100988864.308 7  24662489.517    24662511.192         298.684  
       232.906          40.000          42.000  
 114370215.367 7  89119712.672 7  21763930.443    21763944.989       -1787.152  
     -1392.648          44.000          46.000  
 111050240.502 7  86532712.654 7  21132159.794    21132173.280       -1815.180  
     -1414.430          45.000          43.000  
 109077725.096 7  84995697.867 7  20756801.898    20756818.649          84.523  
        65.891          43.000          44.000  
 117098005.531 7  91245285.897 7  22283009.456    22283028.587        2892.668  
      2254.051          45.000          43.000  
 128234100.269 7  99922751.175 6  24402140.348    24402158.945       -3357.184  
     -2616.281          42.000          39.000  
 24  1 10  3 19  5.2000000  0  7G08G24G18G23G10G32G15
 130517464.427 6 101702002.474 6  24836660.178    24836681.855        2815.293  
      2193.914          39.000          41.000  
 129602227.905 6 100988841.055 7  24662483.349    24662505.146         298.520  
       232.371          39.000          42.000  
 114370393.993 7  89119851.914 7  21763964.340    21763979.189       -1786.656  
     -1392.621          43.000          46.000  
 111050422.040 7  86532854.095 7  21132194.895    21132208.454       -1815.352  
     -1414.617          45.000          43.000  
 109077716.703 7  84995691.327 7  20756800.308    20756817.044          84.387  
        65.621          43.000          44.000  
 117097716.279 7  91245060.505 7  22282954.390    22282973.966        2892.625  
      2253.973          45.000          43.000  
 128234435.994 7  99923012.799 6  24402204.648    24402222.157       -3357.164  
     -2616.254          42.000          39.000  
 24  1 10  3 19  5.3000000  0  7G08G24G18G23G10G32G15
 130517182.955 6 101701783.168 6  24836606.616    24836628.298        2814.992  
      2193.312          39.000          41.000  
 129602198.067 6 100988817.823 7  24662477.671    24662499.473         298.480  
       232.352          39.000          42.000  
 114370572.875 7  89119991.285 7  21763998.380    21764013.225       -1787.691  
     -1392.902          42.000          46.000  
 111050603.600 7  86532995.575 7  21132229.444    21132243.005       -1815.508  
     -1414.723          45.000          43.000  
 109077708.327 7  84995684.784 7  20756798.714    20756815.446          83.809  
        65.230          42.000          44.000  
 117097427.058 7  91244835.147 7  22282899.353    22282918.931        2892.355  
      2253.633          45.000          43.000  
 128234771.735 7  99923274.389 6  24402268.538    24402286.040       -3357.488  
     -2616.289          42.000          39.000  
 24  1 10  3 19  5.4000000  0  7G08G24G18G23G10G32G15
 130516901.476 6 101701563.837 6  24836552.982    24836574.524        2814.895  
      2193.164          39.000          41.000  
 129602168.217 6 100988794.600 7  24662471.546    24662494.255         298.465  
       232.355          39.000          42.000  
 114370751.579 7  89120130.468 7  21764031.707    21764047.223       -1787.688  
     -1392.871          43.000          46.000  
 111050785.168 7  86533137.041 7  21132263.972    21132277.935       -1815.703  
     -1414.832          45.000          43.000  
 109077699.930 7  84995678.269 7  20756797.179    20756813.902          83.977  
        65.254          42.000          44.000  
 117097137.827 7  91244609.754 7  22282844.494    22282864.278        2892.305  
      2253.672          45.000          43.000  
 128235107.485 7  99923536.034 6  24402332.749    24402349.850       -3357.336  
     -2616.145          43.000          39.000  
 24  1 10  3 19  5.5000000  0  7G08G24G18G23G10G32G15
 130516619.984 6 101701344.495 6  24836499.416    24836520.959        2814.945  
      2193.602          39.000          41.000  
 129602138.391 6 100988771.360 7  24662465.870    24662488.579         298.379  
       232.461          39.000          42.000  
 114370930.322 7  89120269.824 7  21764065.720    21764081.255       -1787.133  
     -1392.738          43.000          46.000  
 111050966.731 7  86533278.511 7  21132298.522    21132312.484       -1815.543  
     -1414.715          44.000          43.000  
 109077691.553 7  84995671.737 7  20756795.585    20756812.307          83.848  
        65.473          42.000          44.000  
 117096848.594 7  91244384.385 7  22282789.455    22282809.241        2892.258  
      2253.793          45.000          43.000  
 128235443.171 7  99923797.596 6  24402396.628    24402413.726       -3357.262  
     -2615.984          43.000          39.000  
 24  1 10  3 19  5.6000000  0  7G08G24G18G23G10G32G15
 130516338.564 6 101701125.196 6  24836445.832    24836467.529        2814.410  
      2192.945          39.000          41.000  
 129602108.550 6 100988748.129 6  24662459.949    24662482.179         298.285  
       232.246          39.000          41.000  
 114371109.139 7  89120409.077 7  21764100.170    21764115.394       -1788.613  
     -1393.277          44.000          46.000  
 111051148.359 7  86533420.076 7  21132332.663    21132346.680       -1816.008  
     -1415.211          44.000          43.000  
 109077683.239 7  84995665.236 7  20756794.026    20756810.821          83.109  
        64.820          43.000          44.000  
 117096559.408 7  91244159.045 7  22282734.456    22282753.585        2891.914  
      2253.496          45.000          43.000  
 128235778.989 7  99924059.283 6  24402461.040    24402477.664       -3357.836  
     -2616.141          43.000          39.000  
 24  1 10  3 19  5.7000000  0  7G08G24G18G23G10G32G15
 130516057.110 6 101700905.865 6  24836392.273    24836413.966        2814.559  
      2193.289          38.000          41.000  
 129602078.751 6 100988724.841 6  24662454.279    24662476.492         298.242  
       232.941          39.000          41.000  
 114371287.884 7  89120548.416 7  21764134.184    21764149.423       -1786.953  
     -1392.898          44.000          46.000  
 111051329.948 7  86533561.540 7  21132367.218    21132381.227       -1816.098  
     -1414.863          45.000          43.000  
 109077674.878 7  84995658.717 7  20756792.435    20756809.229          83.371  
        65.074          42.000          44.000  
 117096270.204 7  91243933.692 7  22282679.422    22282698.552        2892.000  
      2253.512          45.000          43.000  
 128236114.700 7  99924320.857 6  24402524.923    24402541.543       -3357.422  
     -2616.535          43.000          39.000  
 24  1 10  3 19  5.8000000  0  7G08G24G18G23G10G32G15
 130515775.642 6 101700686.569 6  24836338.703    24836360.169        2814.684  
      2193.094          38.000          41.000  
 129602048.894 6 100988701.550 6  24662448.769    24662469.914         298.516  
       232.805          39.000          40.000  
 114371466.583 7  89120687.644 7  21764168.580    21764183.213       -1787.238  
     -1392.586          43.000          46.000  
 111051511.492 7  86533703.030 7  21132401.335    21132415.804       -1815.547  
     -1414.703          45.000          43.000  
 109077666.569 7  84995652.242 7  20756790.815    20756807.140          83.492  
        65.121          42.000          43.000  
 117095981.002 7  91243708.357 7  22282624.209    22282643.398        2892.242  
      2253.805          45.000          43.000  
 128236450.419 7  99924582.454 6  24402589.129    24402605.818       -3357.254  
     -2615.625          43.000          39.000  
 24  1 10  3 19  5.9000000  0  7G08G24G18G23G10G32G15
 130515494.204 6 101700467.262 6  24836285.148    24836306.612        2814.449  
      2193.176          38.000          41.000  
 129602019.025 6 100988678.344 6  24662443.085    24662464.247         298.547  
       232.156          40.000          40.000  
 114371645.311 7  89120826.960 7  21764202.591    21764217.235       -1787.148  
     -1392.707          43.000          46.000  
 111051693.094 7  86533844.505 7  21132435.893    21132450.354       -1815.699  
     -1414.770          44.000          43.000  
 109077658.197 7  84995645.726 7  20756789.222    20756805.548          83.617  
        64.984          42.000          43.000  
 117095691.781 7  91243482.980 7  22282569.172    22282588.358        2892.191  
      2253.578          45.000          43.000  
 128236786.172 7  99924844.002 6  24402653.021    24402669.691       -3357.324  
     -2615.625          42.000          39.000  
 24  1 10  3 19  6.0000000  0  7G08G24G18G23G10G32G15
 130515212.807 6 101700247.980 6  24836231.365    24836252.616        2814.176  
      2192.816          38.000          41.000  
