     2.11           OBSERVATION DATA    M (MIXED)           RINEX VERSION / TYPE
GPP.DLL V3.2.21                         18 - MAR - 24 07:42 PGM / RUN BY / DATE 
                                                            MARKER NAME         
                                                            MARKER NUMBER       
                                                            OBSERVER / AGENCY   
6028C00128          APX-15v3 AV         5.50                REC # / TYPE / VERS 
                    E                                       ANT # / TYPE        
 -4667990.2617  2554611.8124 -3504664.2126                  APPROX POSITION XYZ 
        0.0000       -0.0000       -0.0000                  ANTENNA: DELTA H/E/N
     1     1                                                WAVELENGTH FACT L1/2
     9    L1    L2    C1    P2    C2    D1    D2    S1    S2# / TYPES OF OBSERV 
     0.100                                                  INTERVAL            
  2024     1    10     3    17    0.0000000     GPS         TIME OF FIRST OBS   
  2024     1    10     3    17   59.9000000     GPS         TIME OF LAST OBS    
    18                                                      LEAP SECONDS        
     8                                                      # OF SATELLITES     
   G08   532   532   532     0   532   532   532   532   532PRN / # OF OBS      
   G10   600   600   600     0   600   600   600   600   600PRN / # OF OBS      
   G15   600   600   600     0   600   600   600   600   600PRN / # OF OBS      
   G16   580   580   580   580     0   580   580   580   580PRN / # OF OBS      
   G18   600   600   600     0   600   600   600   600   600PRN / # OF OBS      
   G23   600   600   600     0   600   600   600   600   600PRN / # OF OBS      
   G24   528   528   528     0   528   528   528   528   528PRN / # OF OBS      
   G32   600   600   600     0   600   600   600   600   600PRN / # OF OBS      
                                                            END OF HEADER       
 24  1 10  3 17  0.0000000  0  7G24G16G18G23G10G32G15
 129645173.50025 101022303.951 6  24670655.429                    24670678.666  
       388.402         302.293          35.000          39.000  
 128958393.891 6 100487244.316 3  24539987.763    24540011.647                  
     -2162.445       -1685.109          37.000          19.000  
 114151003.132 6  88948898.248 6  21722214.725                    21722229.527  
     -1709.887       -1332.559          41.000          41.000  
 110829468.803 7  86360682.936 7  21090147.626                    21090162.663  
     -1720.426       -1340.742          45.000          44.000  
 109095383.700 8  85009457.879 7  20760162.765                    20760178.547  
       200.332         155.996          48.000          45.000  
 117462060.141 7  91528964.246 6  22352287.432                    22352306.088  
      2957.094        2304.219          46.000          41.000  
 127820551.896 5  99600506.430 6  24323444.357                    24323462.151  
     -3266.691       -2545.715          35.000          39.000  
 24  1 10  3 17  0.1000000  0  7G24G16G18G23G10G32G15
 129645134.75326 101022273.714 6  24670648.056                    24670671.282  
       387.930         302.270          36.000          39.000  
 128958610.009 6 100487412.712 3  24540028.889    24540052.770                  
     -2161.805       -1684.234          37.000          19.000  
 114151174.149 6  88949031.443 6  21722247.269                    21722262.054  
     -1710.090       -1332.453          41.000          41.000  
 110829640.817 7  86360816.928 7  21090180.359                    21090195.385  
     -1720.230       -1340.289          45.000          44.000  
 109095363.666 8  85009442.249 7  20760158.953                    20760174.730  
       200.348         156.348          48.000          45.000  
 117461764.410 7  91528733.801 6  22352231.157                    22352249.811  
      2957.184        2304.332          46.000          41.000  
 127820878.620 5  99600760.972 6  24323506.531                    24323524.313  
     -3267.043       -2545.594          35.000          39.000  
 24  1 10  3 17  0.2000000  0  7G24G16G18G23G10G32G15
 129645095.98126 101022243.504 6  24670640.607                    24670663.975  
       387.844         302.102          37.000          39.000  
 128958826.282 6 100487581.226 3  24540070.115    24540093.962                  
     -2162.246       -1684.918          36.000          19.000  
 114151345.163 6  88949164.736 7  21722279.538                    21722294.317  
     -1709.918       -1332.594          41.000          42.000  
 110829812.862 7  86360951.016 7  21090213.590                    21090228.576  
     -1720.391       -1340.449          45.000          44.000  
 109095343.648 8  85009426.658 7  20760154.878                    20760171.001  
       200.242         155.934          48.000          45.000  
 117461468.703 7  91528503.365 6  22352175.081                    22352194.115  
      2957.176        2304.367          46.000          41.000  
 127821205.208 5  99601015.517 6  24323568.663                    24323586.850  
     -3266.414       -2545.402          35.000          39.000  
 24  1 10  3 17  0.3000000  0  7G24G16G18G23G10G32G15
 129645057.26826 101022213.311 6  24670633.240                    24670656.601  
       387.598         302.094          38.000          39.000  
 128959042.498 6 100487749.703 3  24540111.259    24540135.106                  
     -2162.258       -1684.906          36.000          19.000  
 114151516.169 6  88949298.012 7  21722312.080                    21722326.864  
     -1710.145       -1332.805          41.000          42.000  
 110829984.928 7  86361085.061 7  21090246.334                    21090261.311  
     -1720.582       -1340.938          45.000          44.000  
 109095323.645 8  85009411.081 7  20760151.072                    20760167.197  
       200.109         155.781          48.000          45.000  
 117461173.008 7  91528272.956 6  22352118.812                    22352137.846  
      2956.973        2304.051          46.000          41.000  
 127821531.947 5  99601270.120 6  24323630.839                    24323649.027  
     -3266.988       -2545.715          35.000          39.000  
 24  1 10  3 17  0.4000000  0  7G24G16G18G23G10G32G15
 129645018.44326 101022183.083 6  24670626.157                    24670649.266  
       387.781         302.133          38.000          39.000  
 128959258.767 6 100487918.217 3  24540152.461    24540176.298                  
     -2162.410       -1685.012          36.000          19.000  
 114151687.300 6  88949431.323 7  21722344.176                    21722359.826  
     -1710.746       -1332.992          41.000          42.000  
 110830157.052 7  86361219.217 7  21090279.306                    21090293.902  
     -1720.848       -1341.117          45.000          44.000  
 109095303.686 8  85009395.528 7  20760147.047                    20760163.633  
       199.875         155.629          48.000          45.000  
 117460877.347 7  91528042.585 6  22352062.386                    22352081.447  
      2956.844        2303.578          46.000          41.000  
 127821858.667 6  99601524.715 6  24323692.981                    24323711.421  
     -3267.184       -2545.953          36.000          39.000  
 24  1 10  3 17  0.5000000  0  7G24G16G18G23G10G32G15
 129644979.73126 101022152.923 6  24670618.790                    24670641.901  
       387.555         301.797          39.000          39.000  
 128959475.021 6 100488086.727 3  24540193.613    24540217.450                  
     -2162.570       -1685.223          36.000          19.000  
 114151858.388 6  88949564.618 7  21722376.733                    21722392.378  
     -1710.973       -1333.301          41.000          42.000  
 110830329.150 7  86361353.305 7  21090312.055                    21090326.647  
     -1720.984       -1341.160          45.000          44.000  
 109095283.759 8  85009379.989 7  20760143.255                    20760159.838  
       199.453         155.316          48.000          45.000  
 117460581.712 7  91527812.206 6  22352006.128                    22352025.186  
      2956.500        2303.949          46.000          41.000  
 127822185.492 6  99601779.325 6  24323755.174                    24323773.599  
     -3267.652       -2546.094          36.000          39.000  
 24  1 10  3 17  0.6000000  0  7G24G16G18G23G10G32G15
 129644940.98026 101022122.718 6  24670611.893                    24670634.275  
       387.465         301.762          40.000          39.000  
 128959691.325 6 100488255.273 3  24540235.118    24540258.626                  
     -2162.719       -1685.246          36.000          19.000  
 114152029.457 6  88949697.958 7  21722409.912                    21722425.691  
     -1710.762       -1333.320          41.000          43.000  
 110830501.296 7  86361487.434 7  21090344.501                    21090359.067  
     -1721.262       -1341.207          45.000          44.000  
 109095263.842 8  85009364.468 7  20760139.496                    20760155.977  
       199.270         155.039          48.000          45.000  
 117460286.084 7  91527581.846 6  22351949.880                    22351969.109  
      2956.441        2303.598          46.000          41.000  
 127822512.174 6  99602033.938 6  24323817.425                    24323835.590  
     -3267.168       -2546.305          36.000          39.000  
 24  1 10  3 17  0.7000000  0  7G24G16G18G23G10G32G15
 129644902.25826 101022092.528 6  24670604.524                    24670626.902  
       387.387         301.926          40.000          39.000  
 128959907.618 6 100488423.809 3  24540276.277    24540299.784                  
     -2163.055       -1685.746          36.000          19.000  
 114152200.630 7  88949831.335 7  21722442.485                    21722458.263  
     -1711.156       -1333.598          42.000          43.000  
 110830673.458 7  86361621.616 7  21090377.263                    21090391.836  
     -1721.469       -1341.820          45.000          44.000  
 109095243.988 8  85009349.020 7  20760135.718                    20760152.205  
       198.977         154.641          48.000          45.000  
 117459990.515 7  91527351.536 6  22351893.635                    22351912.865  
      2956.027        2303.391          46.000          41.000  
 127822838.957 6  99602288.579 6  24323879.610                    24323897.776  
     -3267.648       -2546.352          36.000          39.000  
 24  1 10  3 17  0.8000000  0  7G24G16G18G23G10G32G15
 129644863.48126 101022062.415 6  24670597.606                    24670619.110  
       387.570         301.422          39.000          39.000  
 128960124.003 6 100488592.414 3  24540317.422    24540340.967                  
     -2163.309       -1685.820          37.000          19.000  
 114152371.735 6  88949964.629 7  21722475.521                    21722491.135  
     -1711.223       -1333.453          41.000          43.000  
 110830845.671 7  86361755.795 7  21090410.049                    21090424.775  
     -1721.828       -1341.805          45.000          44.000  
 109095224.136 8  85009333.543 7  20760131.808                    20760148.581  
       198.543         154.691          48.000          45.000  
 117459694.904 7  91527121.185 6  22351837.429                    22351856.463  
      2956.043        2303.270          46.000          41.000  
 127823165.770 6  99602543.219 6  24323941.636                    24323960.111  
     -3267.758       -2546.148          36.000          38.000  
 24  1 10  3 17  0.9000000  0  7G24G16G18G23G10G32G15
 129644824.401 6 101022032.247 6  24670590.170                    24670611.743  
       386.625         301.527          38.000          39.000  
 128960340.311 6 100488760.964 3  24540358.584    24540382.129                  
     -2163.285       -1685.684          36.000          19.000  
 114152542.838 6  88950098.034 7  21722508.081                    21722523.714  
     -1710.949       -1333.602          41.000          43.000  
 110831017.870 7  86361889.950 7  21090442.818                    21090457.537  
     -1721.891       -1341.496          45.000          44.000  
 109095204.263 7  85009318.061 7  20760128.026                    20760144.801  
       198.688         154.664          47.000          45.000  
 117459399.320 7  91526890.894 6  22351781.181                    22351800.223  
      2955.992        2303.367          46.000          41.000  
 127823492.552 6  99602797.860 6  24324003.821                    24324022.297  
     -3267.820       -2546.492          36.000          38.000  
 24  1 10  3 17  1.0000000  0  7G24G16G18G23G10G32G15
 129644785.595 6 101022002.089 6  24670582.137                    24670604.409  
       387.367         301.746          38.000          39.000  
 128960556.730 6 100488929.597 3  24540399.822    24540423.334                  
     -2163.699       -1686.145          36.000          18.000  
 114152713.906 6  88950231.319 7  21722540.595                    21722556.225  
     -1710.887       -1333.227          41.000          43.000  
 110831190.050 7  86362024.159 7  21090475.012                    21090490.281  
     -1721.758       -1341.981          45.000          44.000  
 109095184.446 8  85009302.638 7  20760124.458                    20760140.722  
       198.508         154.652          48.000          45.000  
 117459103.713 7  91526660.510 6  22351724.905                    22351743.813  
      2955.973        2303.578          46.000          41.000  
 127823819.325 6  99603052.479 6  24324066.097                    24324084.180  
     -3267.801       -2546.238          36.000          38.000  
 24  1 10  3 17  1.1000000  0  7G24G16G18G23G10G32G15
 129644746.883 6 101021971.861 6  24670574.770                    24670597.028  
       387.348         301.953          37.000          39.000  
 128960773.067 6 100489098.174 3  24540440.990    24540464.502                  
     -2163.660       -1686.160          36.000          18.000  
 114152885.057 6  88950364.706 7  21722573.164                    21722588.799  
     -1711.230       -1333.328          41.000          43.000  
 110831362.244 7  86362158.336 7  21090507.780                    21090523.049  
     -1721.895       -1342.086          45.000          44.000  
 109095164.668 8  85009287.159 7  20760120.694                    20760136.941  
       198.020         154.543          48.000          44.000  
 117458808.104 7  91526430.194 6  22351668.653                    22351687.567  
      2956.164        2303.391          46.000          41.000  
 127824146.142 6  99603307.110 6  24324128.288                    24324146.364  
     -3267.941       -2545.953          36.000          38.000  
 24  1 10  3 17  1.2000000  0  7G24G16G18G23G10G32G15
 129644708.000 6 101021941.634 6  24670567.215                    24670589.435  
       388.051         302.266          38.000          39.000  
 128960989.479 6 100489266.817 3  24540482.101    24540505.695                  
     -2163.840       -1686.305          36.000          18.000  
 114153056.161 6  88950497.942 7  21722605.170                    21722620.962  
     -1711.184       -1333.004          40.000          43.000  
 110831534.443 7  86362292.559 7  21090540.556                    21090554.905  
     -1721.910       -1341.895          45.000          44.000  
 109095144.856 7  85009271.733 7  20760117.432                    20760132.698  
       197.988         154.102          47.000          44.000  
 117458512.456 7  91526199.818 6  22351612.494                    22351631.409  
      2956.379        2303.641          46.000          41.000  
 127824472.862 6  99603561.751 6  24324190.836                    24324208.112  
     -3267.586       -2546.641          36.000          38.000  
 24  1 10  3 17  1.3000000  0  7G24G16G18G23G10G32G15
 129644669.169 6 101021911.382 6  24670559.825                    24670582.047  
       388.078         302.551          38.000          39.000  
 128961205.830 5 100489435.407 3  24540523.272    24540546.866                  
     -2163.898       -1686.387          35.000          18.000  
 114153227.194 6  88950631.251 7  21722637.716                    21722653.517  
     -1710.777       -1332.809          41.000          43.000  
 110831706.653 7  86362426.725 7  21090573.326                    21090587.670  
     -1721.980       -1341.902          45.000          44.000  
 109095125.082 7  85009256.376 7  20760113.669                    20760128.947  
       197.973         153.938          47.000          44.000  
 117458216.773 7  91525969.434 7  22351556.228                    22351575.147  
      2956.605        2303.918          46.000          42.000  
 127824799.663 6  99603816.371 6  24324253.024                    24324270.293  
     -3267.762       -2546.211          36.000          38.000  
 24  1 10  3 17  1.4000000  0  7G24G16G18G23G10G32G15
 129644630.412 6 101021881.120 6  24670552.598                    24670575.016  
       387.949         302.566          38.000          40.000  
 128961422.320 5 100489604.102 3  24540564.226    24540588.071                  
     -2164.254       -1686.602          35.000          18.000  
 114153398.173 6  88950764.515 7  21722670.166                    21722685.999  
     -1709.984       -1332.586          41.000          43.000  
 110831878.848 7  86362560.902 7  21090606.969                    21090620.867  
     -1722.043       -1341.887          45.000          44.000  
 109095105.291 7  85009240.952 7  20760109.411                    20760125.939  
       197.871         153.945          46.000          44.000  
 117457921.058 7  91525739.027 7  22351499.502                    22351518.973  
      2956.988        2304.348          46.000          42.000  
 127825126.445 6  99604071.034 6  24324315.397                    24324332.148  
     -3267.820       -2546.547          37.000          38.000  
 24  1 10  3 17  1.5000000  0  7G24G16G18G23G10G32G15
 129644591.594 6 101021850.860 6  24670545.212                    24670567.626  
       388.145         302.535          36.000          40.000  
 128961638.831 5 100489772.815 3  24540605.427    24540629.272                  
     -2164.770       -1687.172          35.000          18.000  
 114153569.138 6  88950897.717 7  21722702.700                    21722718.528  
     -1709.961       -1332.184          41.000          43.000  
 110832051.090 7  86362695.144 7  21090639.745                    21090653.651  
     -1722.238       -1342.363          45.000          44.000  
 109095085.642 7  85009225.626 7  20760105.672                    20760122.196  
       197.270         153.707          46.000          44.000  
 117457625.305 7  91525508.555 7  22351443.222                    22351462.689  
      2957.180        2304.371          46.000          42.000  
 127825453.336 6  99604325.715 6  24324377.602                    24324394.344  
     -3268.391       -2546.773          37.000          38.000  
 24  1 10  3 17  1.6000000  0  7G24G16G18G23G10G32G15
 129644552.726 6 101021820.591 6  24670537.386                    24670560.664  
       388.871         302.668          36.000          40.000  
 128961855.405 5 100489941.576 3  24540646.608    24540670.423                  
     -2165.645       -1687.566          35.000          18.000  
 114153740.074 7  88951030.935 7  21722735.095                    21722751.147  
     -1709.246       -1332.082          42.000          44.000  
 110832223.364 7  86362829.362 7  21090672.895                    21090686.654  
     -1722.930       -1342.176          45.000          44.000  
 109095065.919 7  85009210.234 7  20760101.919                    20760118.265  
       196.855         153.242          46.000          44.000  
 117457329.504 7  91525278.073 7  22351387.027                    22351406.778  
      2958.098        2304.832          46.000          42.000  
 127825780.187 6  99604580.447 6  24324439.823                    24324456.755  
     -3268.508       -2547.164          37.000          38.000  
 24  1 10  3 17  1.7000000  0  7G24G16G18G23G10G32G15
 129644513.842 5 101021790.286 6  24670529.986                    24670553.263  
       388.664         303.289          35.000          40.000  
 128962071.931 6 100490110.298 3  24540687.812    24540711.627                  
     -2165.258       -1687.184          36.000          18.000  
 114153910.976 7  88951164.108 7  21722767.617                    21722783.670  
     -1708.906       -1331.707          43.000          44.000  
 110832395.642 7  86362963.575 7  21090705.679                    21090719.431  
     -1722.758       -1342.508          45.000          43.000  
 109095046.298 7  85009194.962 7  20760098.185                    20760114.535  
       196.402         153.254          46.000          44.000  
 117457033.656 7  91525047.530 7  22351330.729                    22351350.477  
      2958.719        2305.527          46.000          42.000  
 127826107.025 6  99604835.140 6  24324502.018                    24324518.954  
     -3268.582       -2547.121          37.000          38.000  
 24  1 10  3 17  1.8000000  0  7G24G16G18G23G10G32G15
 129644474.924 6 101021759.942 6  24670522.291                    24670545.400  
       389.242         303.312          36.000          40.000  
 128962288.506 6 100490279.047 3  24540729.681    24540752.837                  
     -2165.715       -1687.523          36.000          18.000  
 114154081.863 7  88951297.301 7  21722800.925                    21722816.337  
     -1709.004       -1331.711          43.000          44.000  
 110832567.974 7  86363097.954 7  21090738.488                    21090751.552  
     -1723.168       -1343.152          45.000          43.000  
 109095026.696 7  85009179.690 7  20760094.463                    20760110.782  
       196.012         152.523          46.000          44.000  
 117456737.752 7  91524816.966 6  22351274.225                    22351294.100  
      2959.027        2305.801          46.000          41.000  
 127826433.934 6  99605089.884 6  24324563.969                    24324582.009  
     -3268.883       -2547.445          37.000          38.000  
 24  1 10  3 17  1.9000000  0  7G24G16G18G23G10G32G15
 129644435.961 6 101021729.573 6  24670514.877                    24670537.983  
       389.527         303.844          37.000          40.000  
 128962505.120 5 100490447.844 3  24540770.901    24540794.059                  
     -2166.195       -1687.945          35.000          18.000  
 114154252.790 7  88951430.450 7  21722833.451                    21722848.854  
     -1709.266       -1331.691          43.000          44.000  
 110832740.368 7  86363232.221 7  21090771.293                    21090784.341  
     -1724.004       -1343.113          45.000          43.000  
 109095007.220 7  85009164.494 7  20760090.756                    20760107.071  
       194.836         152.180          46.000          44.000  
 117456441.848 7  91524586.399 7  22351217.916                    22351237.794  
      2959.172        2305.832          46.000          42.000  
 127826760.891 6  99605344.636 6  24324626.187                    24324644.222  
     -3269.688       -2547.574          37.000          38.000  
 24  1 10  3 17  2.0000000  0  7G24G16G18G23G10G32G15
 129644396.996 6 101021699.229 6  24670507.993                    24670530.760  
       389.828         303.492          38.000          40.000  
 128962721.743 5 100490616.642 2  24540811.881    24540835.312                  
     -2166.406       -1688.117          35.000          17.000  
 114154423.652 7  88951563.558 7  21722866.566                    21722881.157  
     -1708.699       -1331.359          43.000          44.000  
 110832912.810 7  86363366.602 7  21090803.960                    21090817.752  
     -1724.305       -1343.531          45.000          43.000  
 109094987.732 7  85009149.314 7  20760087.345                    20760102.841  
       194.945         151.445          45.000          44.000  
 117456145.890 7  91524355.764 7  22351161.566                    22351181.220  
      2959.438        2306.133          46.000          42.000  
 127827087.871 6  99605599.438 6  24324688.636                    24324706.736  
     -3269.918       -2548.020          37.000          38.000  
 24  1 10  3 17  2.1000000  0  7G24G16G18G23G10G32G15
 129644358.023 6 101021668.838 6  24670500.577                    24670523.339  
       389.547         303.781          38.000          40.000  
 128962938.481 5 100490785.526 2  24540853.125    24540876.556                  
     -2167.051       -1688.625          35.000          17.000  
 114154594.509 7  88951696.728 7  21722899.079                    21722913.678  
     -1708.629       -1331.531          43.000          44.000  
 110833085.289 7  86363500.970 7  21090836.781                    21090850.566  
     -1724.891       -1344.008          44.000          44.000  
 109094968.375 7  85009134.246 7  20760083.661                    20760099.161  
       193.477         151.035          46.000          44.000  
 117455849.909 7  91524125.145 7  22351105.243                    22351124.901  
      2959.965        2306.180          46.000          42.000  
 127827414.940 6  99605854.270 6  24324750.875                    24324768.969  
     -3270.355       -2548.203          37.000          38.000  
 24  1 10  3 17  2.2000000  0  7G24G16G18G23G10G32G15
 129644318.996 6 101021638.446 6  24670493.463                    24670515.432  
       390.371         304.023          37.000          39.000  
 128963155.176 6 100490954.379 3  24540894.282    24540917.760                  
     -2167.336       -1688.848          36.000          18.000  
 114154765.383 7  88951829.853 7  21722931.627                    21722946.329  
     -1708.438       -1331.137          43.000          44.000  
 110833257.843 7  86363635.459 7  21090869.281                    21090883.863  
     -1725.391       -1344.426          44.000          44.000  
 109094949.051 7  85009119.164 7  20760079.648                    20760095.407  
       193.090         150.445          46.000          44.000  
 117455553.894 7  91523894.488 7  22351049.030                    22351068.595  
      2960.066        2306.672          46.000          42.000  
 127827741.979 6  99606109.107 6  24324813.382                    24324831.054  
     -3270.602       -2548.438          37.000          38.000  
 24  1 10  3 17  2.3000000  0  7G24G16G18G23G10G32G15
 129644280.061 6 101021608.032 6  24670486.054                    24670508.005  
       389.449         303.980          37.000          39.000  
 128963372.036 6 100491123.360 2  24540935.549    24540959.027                  
     -2168.234       -1689.520          36.000          17.000  
 114154936.216 7  88951962.989 7  21722964.135                    21722978.843  
     -1708.500       -1331.418          42.000          44.000  
 110833430.419 7  86363769.904 7  21090902.121                    21090916.696  
     -1725.855       -1344.816          44.000          44.000  
 109094929.799 7  85009104.204 7  20760075.985                    20760091.754  
       192.633         149.820          46.000          44.000  
 117455257.873 7  91523663.818 6  22350992.699                    22351012.263  
      2960.176        2306.633          46.000          41.000  
 127828069.112 6  99606363.970 6  24324875.633                    24324893.294  
     -3271.270       -2548.746          37.000          38.000  
 24  1 10  3 17  2.4000000  0  7G24G16G18G23G10G32G15
 129644240.991 6 101021577.624 6  24670478.189                    24670500.532  
       390.477         304.359          37.000          39.000  
 128963588.800 6 100491292.264 2  24540976.853    24541000.290                  
     -2167.562       -1688.984          36.000          17.000  
 114155107.100 6  88952096.121 7  21722995.974                    21723011.277  
     -1709.176       -1331.129          41.000          44.000  
 110833603.079 7  86363904.462 7  21090934.657                    21090949.658  
     -1726.707       -1345.324          44.000          44.000  
 109094910.648 7  85009089.258 7  20760072.145                    20760088.206  
       191.418         149.375          46.000          44.000  
 117454961.842 7  91523433.124 6  22350936.546                    22350955.715  
      2960.371        2306.883          46.000          41.000  
 127828396.229 6  99606618.928 6  24324938.069                    24324955.722  
     -3271.152       -2549.254          36.000          38.000  
 24  1 10  3 17  2.5000000  0  7G24G16G18G23G10G32G15
 129644201.941 6 101021547.181 6  24670470.759                    24670493.097  
       390.586         304.297          37.000          40.000  
 128963805.713 5 100491461.275 2  24541018.130    24541041.565                  
     -2168.930       -1689.992          35.000          17.000  
 114155277.950 6  88952229.215 7  21723028.485                    21723043.780  
     -1708.094       -1331.316          40.000          43.000  
 110833775.743 7  86364038.965 7  21090967.514                    21090982.505  
     -1726.844       -1345.305          44.000          44.000  
 109094891.509 7  85009074.341 7  20760068.503                    20760084.563  
       191.285         149.090          46.000          44.000  
 117454665.786 7  91523202.434 6  22350880.208                    22350899.378  
      2960.648        2306.965          46.000          41.000  
 127828723.418 6  99606873.834 6  24325000.331                    24325017.972  
     -3271.703       -2549.047          36.000          38.000  
 24  1 10  3 17  2.6000000  0  7G24G16G18G23G10G32G15
 129644162.827 6 101021516.729 6  24670463.784                    24670485.747  
       390.738         304.551          38.000          39.000  
 128964022.561 5 100491630.239 2  24541059.613    24541082.882                  
     -2168.449       -1689.703          35.000          17.000  
 114155448.795 6  88952362.364 7  21723059.926                    21723075.991  
     -1708.594       -1331.316          40.000          43.000  
 110833948.483 7  86364173.564 7  21090999.901                    21091015.243  
     -1726.879       -1345.859          44.000          44.000  
 109094872.416 7  85009059.502 7  20760065.151                    20760081.236  
       191.367         148.637          46.000          44.000  
 117454369.705 7  91522971.728 6  22350823.647                    22350842.912  
      2960.711        2307.227          46.000          41.000  
 127829050.586 6  99607128.773 6  24325062.276                    24325080.028  
     -3271.492       -2549.547          36.000          38.000  
 24  1 10  3 17  2.7000000  0  7G24G16G18G23G10G32G15
 129644123.715 6 101021486.296 6  24670456.341                    24670478.315  
       390.961         304.445          38.000          39.000  
 128964239.561 5 100491799.325 2  24541100.907    24541124.175                  
     -2169.273       -1690.684          35.000          17.000  
 114155619.565 6  88952495.463 7  21723092.422                    21723108.496  
     -1707.895       -1331.000          41.000          43.000  
 110834121.262 7  86364308.195 7  21091032.780                    21091048.121  
     -1727.387       -1346.348          44.000          44.000  
 109094853.414 7  85009044.690 7  20760061.535                    20760077.619  
       190.637         148.242          46.000          44.000  
 117454073.621 7  91522740.974 6  22350767.304                    22350786.560  
      2960.629        2307.055          46.000          41.000  
 127829377.780 6  99607383.748 6  24325124.539                    24325142.295  
     -3271.957       -2549.496          36.000          38.000  
 24  1 10  3 17  2.8000000  0  7G24G16G18G23G10G32G15
 129644084.539 6 101021455.806 6  24670449.097                    24670470.408  
       391.402         304.680          39.000          39.000  
 128964456.503 6 100491968.371 2  24541142.245    24541165.457                  
     -2169.301       -1690.438          36.000          17.000  
 114155790.400 7  88952628.592 7  21723125.665                    21723140.624  
     -1708.156       -1331.145          42.000          43.000  
 110834293.998 7  86364442.815 7  21091065.588                    21091081.215  
     -1727.398       -1346.340          44.000          44.000  
 109094834.425 7  85009029.880 7  20760058.054                    20760073.728  
       190.176         147.922          47.000          44.000  
 117453777.501 7  91522510.259 6  22350711.564                    22350730.607  
      2960.977        2307.293          46.000          41.000  
 127829704.952 6  99607638.692 6  24325186.431                    24325204.477  
     -3271.699       -2549.551          36.000          38.000  
 24  1 10  3 17  2.9000000  0  7G24G16G18G23G10G32G15
 129644045.397 6 101021425.307 6  24670441.649                    24670462.960  
       391.277         305.008          38.000          38.000  
 128964673.492 5 100492137.444 2  24541183.536    24541206.747                  
     -2169.613       -1690.719          35.000          16.000  
 114155961.170 7  88952761.638 7  21723158.162                    21723173.115  
     -1707.918       -1330.477          42.000          44.000  
 110834466.741 7  86364577.471 7  21091098.460                    21091114.100  
     -1727.414       -1346.312          45.000          44.000  
 109094815.446 7  85009015.055 7  20760054.443                    20760070.108  
       189.941         148.035          47.000          44.000  
 117453481.386 7  91522279.498 6  22350655.215                    22350674.253  
      2961.133        2307.512          46.000          41.000  
 127830032.196 6  99607893.634 6  24325248.703                    24325266.737  
     -3271.969       -2549.535          36.000          38.000  
 24  1 10  3 17  3.0000000  0  7G24G16G18G23G10G32G15
 129644006.238 6 101021394.831 6  24670434.213                    24670455.048  
       391.414         304.793          37.000          38.000  
 128964890.433 5 100492306.485 2  24541224.686    24541248.028                  
     -2169.488       -1690.438          35.000          17.000  
 114156131.881 6  88952894.627 7  21723191.233                    21723205.843  
     -1707.461       -1330.277          41.000          44.000  
 110834639.499 7  86364712.078 7  21091131.756                    21091145.519  
     -1727.402       -1345.820          45.000          44.000  
 109094796.421 7  85009000.259 7  20760051.377                    20760066.760  
       190.250         148.070          47.000          44.000  
 117453185.197 7  91522048.727 6  22350599.079                    22350617.889  
      2961.648        2307.992          46.000          41.000  
 127830359.313 6  99608148.589 6  24325310.913                    24325328.671  
     -3271.633       -2549.363          36.000          38.000  
 24  1 10  3 17  3.1000000  0  7G24G16G18G23G10G32G15
 129643967.055 6 101021364.239 6  24670426.756                    24670447.578  
       391.641         305.570          36.000          38.000  
 128965107.432 6 100492475.578 2  24541265.979    24541289.323                  
     -2169.762       -1690.863          36.000          16.000  
 114156302.627 6  88953027.676 7  21723223.725                    21723238.334  
     -1707.324       -1330.016          41.000          44.000  
 110834812.233 7  86364846.626 7  21091164.627                    21091178.377  
     -1727.324       -1345.773          45.000          44.000  
 109094777.429 7  85008985.474 7  20760047.763                    20760063.150  
       190.074         148.137          47.000          44.000  
 117452889.016 7  91521817.921 6  22350542.718                    22350561.523  
      2961.664        2307.809          46.000          41.000  
 127830686.488 6  99608403.509 6  24325373.172                    24325390.925  
     -3271.719       -2549.316          36.000          37.000  
 24  1 10  3 17  3.2000000  0  7G24G16G18G23G10G32G15
 129643927.915 5 101021333.724 6  24670418.972                    24670439.438  
       391.777         305.301          34.000          38.000  
 128965324.437 6 100492644.677 2  24541307.298    24541330.610                  
     -2169.934       -1690.996          36.000          16.000  
 114156473.333 6  88953160.668 7  21723255.545                    21723271.039  
     -1707.254       -1330.098          41.000          44.000  
 110834984.948 7  86364981.233 7  21091196.915                    21091211.913  
     -1727.301       -1345.832          45.000          44.000  
 109094758.460 7  85008970.670 7  20760043.599                    20760059.792  
       189.863         147.926          47.000          44.000  
 117452592.817 7  91521587.114 6  22350486.087                    22350505.275  
      2961.855        2308.188          46.000          41.000  
 127831013.651 6  99608658.451 6  24325435.304                    24325452.755  
     -3271.691       -2549.797          36.000          37.000  
 24  1 10  3 17  3.3000000  0  7G24G16G18G23G10G32G15
 129643888.627 5 101021303.183 6  24670411.496                    24670431.979  
       392.121         305.488          35.000          38.000  
 128965541.483 5 100492813.810 2  24541348.600    24541371.914                  
     -2170.203       -1691.273          35.000          17.000  
 114156643.944 6  88953293.671 7  21723288.011                    21723303.520  
     -1706.734       -1330.281          41.000          43.000  
 110835157.674 7  86365115.806 7  21091229.784                    21091244.778  
     -1727.352       -1345.977          45.000          44.000  
 109094739.454 7  85008955.864 7  20760039.982                    20760056.176  
       189.941         147.922          47.000          44.000  
 117452296.610 7  91521356.302 6  22350429.721                    22350448.909  
      2961.965        2308.328          46.000          41.000  
 127831340.855 6  99608913.448 6  24325497.569                    24325515.028  
     -3271.645       -2549.750          36.000          38.000  
 24  1 10  3 17  3.4000000  0  7G24G16G18G23G10G32G15
 129643849.453 6 101021272.613 6  24670403.846                    24670424.600  
       391.934         305.727          36.000          38.000  
 128965758.527 5 100492982.939 2  24541389.754    24541413.264                  
     -2170.352       -1691.375          35.000          17.000  
 114156814.610 6  88953426.672 7  21723320.746                    21723335.617  
     -1706.656       -1329.613          41.000          43.000  
 110835330.402 7  86365250.397 7  21091262.309                    21091278.005  
     -1727.180       -1345.840          45.000          44.000  
 109094720.468 7  85008941.085 7  20760036.572                    20760052.395  
       189.941         147.949          47.000          44.000  
 117452000.383 7  91521125.465 6  22350373.382                    22350392.278  
      2962.129        2308.266          46.000          41.000  
 127831668.045 6  99609168.376 6  24325559.573                    24325577.323  
     -3271.977       -2549.355          36.000          38.000  
 24  1 10  3 17  3.5000000  0  7G24G16G18G23G10G32G15
 129643810.279 6 101021242.061 6  24670396.392                    24670417.139  
       391.824         305.312          38.000          37.000  
 128965975.557 6 100493152.047 2  24541431.053    24541454.562                  
     -2170.242       -1691.031          36.000          17.000  
 114156985.259 6  88953559.633 7  21723353.219                    21723368.088  
     -1706.512       -1329.902          41.000          43.000  
 110835503.067 7  86365384.959 7  21091295.166                    21091310.867  
     -1727.000       -1345.750          45.000          44.000  
 109094701.466 7  85008926.277 7  20760032.956                    20760048.779  
       190.008         148.031          47.000          44.000  
 117451704.155 7  91520894.689 6  22350317.012                    22350335.920  
      2962.355        2308.047          46.000          41.000  
 127831995.193 5  99609423.306 6  24325621.827                    24325639.579  
     -3271.789       -2549.441          35.000          38.000  
 24  1 10  3 17  3.6000000  0  7G24G16G18G23G10G32G15
 129643771.108 6 101021211.502 6  24670389.930                    24670409.903  
       391.762         305.590          39.000          38.000  
 128966192.584 6 100493321.153 3  24541472.204    24541495.860                  
     -2170.355       -1691.227          36.000          18.000  
 114157155.953 6  88953692.639 7  21723386.061                    21723400.475  
     -1706.902       -1329.797          41.000          42.000  
 110835675.841 7  86365519.586 7  21091328.763                    21091343.650  
     -1727.301       -1346.148          45.000          44.000  
 109094682.500 7  85008911.490 7  20760029.105                    20760045.566  
       189.820         147.863          47.000          44.000  
 117451407.929 7  91520663.827 6  22350260.142                    22350279.487  
      2962.191        2308.391          46.000          41.000  
 127832322.460 6  99609678.312 6  24325684.260                    24325702.011  
     -3272.105       -2549.910          36.000          38.000  
 24  1 10  3 17  3.7000000  0  7G24G16G18G23G10G32G15
 129643731.929 6 101021180.962 6  24670382.474                    24670402.444  
       391.766         305.367          41.000          38.000  
 128966409.688 6 100493490.318 3  24541513.517    24541537.172                  
     -2170.781       -1691.727          37.000          18.000  
 114157326.663 7  88953825.618 7  21723418.546                    21723432.950  
     -1706.934       -1330.199          42.000          42.000  
 110835848.605 7  86365654.212 7  21091361.639                    21091376.527  
     -1727.551       -1346.266          45.000          44.000  
 109094663.579 7  85008896.757 7  20760025.504                    20760041.968  
       189.465         147.254          47.000          44.000  
 117451111.733 7  91520433.013 6  22350203.777                    22350223.119  
      2962.027        2308.016          46.000          41.000  
 127832649.647 6  99609933.252 6  24325746.522                    24325764.270  
     -3271.902       -2549.457          36.000          38.000  
 24  1 10  3 17  3.8000000  0  7G24G16G18G23G10G32G15
 129643692.736 6 101021150.472 6  24670376.001                    24670395.772  
       391.859         304.902          41.000          38.000  
 128966626.804 6 100493659.497 2  24541555.067    24541578.495                  
     -2170.812       -1691.496          37.000          17.000  
 114157497.415 7  88953958.722 7  21723451.554                    21723465.354  
     -1707.191       -1330.473          42.000          42.000  
 110836021.462 7  86365788.882 7  21091394.579                    21091409.681  
     -1728.016       -1346.625          44.000          44.000  
 109094644.700 7  85008882.039 7  20760021.974                    20760038.405  
       189.035         147.172          47.000          44.000  
 117450815.560 7  91520202.263 6  22350147.363                    22350167.112  
      2961.902        2307.754          46.000          41.000  
 127832976.954 6  99610188.231 6  24325808.744                    24325826.866  
     -3272.715       -2549.973          36.000          38.000  
 24  1 10  3 17  3.9000000  0  7G24G16G18G23G10G32G15
 129643653.560 6 101021119.974 6  24670368.546                    24670388.324  
       391.816         305.023          41.000          39.000  
 128966843.930 6 100493828.688 2  24541596.385    24541619.813                  
     -2171.094       -1691.914          36.000          17.000  
 114157668.115 7  88954091.703 7  21723484.037                    21723497.829  
     -1707.180       -1330.320          42.000          42.000  
 110836194.262 7  86365923.564 7  21091427.462                    21091442.571  
     -1728.289       -1347.148          44.000          44.000  
 109094625.861 7  85008867.343 7  20760018.389                    20760034.817  
       188.703         146.832          47.000          44.000  
 117450519.385 7  91519971.468 6  22350091.003                    22350110.749  
      2961.797        2307.855          46.000          41.000  
 127833304.154 6  99610443.279 6  24325871.008                    24325889.152  
     -3272.305       -2550.230          36.000          38.000  
 24  1 10  3 17  4.0000000  0  7G24G16G18G23G10G32G15
 129643614.394 6 101021089.498 6  24670361.452                    24670381.053  
       391.801         304.855          40.000          39.000  
 128967061.109 6 100493997.920 2  24541637.768    24541661.156                  
     -2171.520       -1692.367          36.000          17.000  
 114157838.889 7  88954224.798 7  21723516.660                    21723530.075  
     -1707.562       -1330.660          42.000          43.000  
 110836367.160 7  86366058.272 7  21091460.308                    21091475.383  
     -1728.637       -1346.852          44.000          44.000  
 109094607.072 7  85008852.720 7  20760014.939                    20760030.363  
       188.195         146.289          47.000          44.000  
 117450223.218 7  91519740.699 6  22350034.363                    22350054.159  
      2961.738        2307.824          46.000          41.000  
 127833631.495 6  99610698.314 6  24325933.197                    24325950.887  
     -3272.676       -2550.457          36.000          38.000  
 24  1 10  3 17  4.1000000  0  7G24G16G18G23G10G32G15
 129643575.313 6 101021058.978 6  24670354.015                    24670373.600  
       391.145         305.242          39.000          39.000  
 128967278.277 6 100494167.146 2  24541679.093    24541702.483                  
     -2171.711       -1692.480          36.000          17.000  
 114158009.594 6  88954357.797 7  21723549.144                    21723562.554  
     -1707.293       -1330.488          41.000          43.000  
 110836540.072 7  86366192.972 7  21091493.213                    21091508.278  
     -1728.844       -1347.270          45.000          44.000  
 109094588.323 7  85008838.094 7  20760011.371                    20760026.791  
       187.777         146.262          47.000          44.000  
 117449927.031 7  91519509.912 6  22349978.000                    22349997.798  
      2961.902        2307.652          46.000          41.000  
 127833958.797 6  99610953.373 6  24325995.481                    24326013.175  
     -3273.000       -2550.578          36.000          38.000  
 24  1 10  3 17  4.2000000  0  7G24G16G18G23G10G32G15
 129643536.152 6 101021028.441 6  24670345.891                    24670366.291  
       391.508         305.316          37.000          39.000  
 128967495.500 5 100494336.412 2  24541720.406    24541743.859                  
     -2171.891       -1692.543          35.000          17.000  
 114158180.284 6  88954490.842 7  21723581.094                    21723595.654  
     -1706.922       -1329.973          41.000          43.000  
 110836712.985 7  86366327.752 7  21091525.898                    21091540.974  
     -1728.977       -1347.570          45.000          44.000  
 109094569.597 7  85008823.509 7  20760008.292                    20760023.378  
       187.539         145.859          47.000          44.000  
 117449630.795 7  91519279.089 6  22349921.886                    22349941.304  
      2961.988        2308.230          46.000          41.000  
 127834286.082 6  99611208.411 6  24326058.011                    24326075.262  
     -3272.832       -2550.531          36.000          38.000  
 24  1 10  3 17  4.3000000  0  7G24G16G18G23G10G32G15
 129643496.924 6 101020997.869 6  24670338.426                    24670358.825  
       391.867         305.797          36.000          40.000  
 128967712.796 5 100494505.738 2  24541761.756    24541785.210                  
     -2172.449       -1693.145          35.000          17.000  
 114158350.987 7  88954623.825 7  21723613.577                    21723628.130  
     -1706.848       -1329.789          42.000          43.000  
 110836885.881 7  86366462.466 7  21091558.799                    21091573.872  
     -1728.961       -1347.270          45.000          44.000  
 109094550.897 7  85008808.929 7  20760004.733                    20760019.817  
       187.168         145.773          47.000          44.000  
 117449334.550 7  91519048.225 6  22349865.513                    22349884.925  
      2962.258        2308.391          46.000          41.000  
 127834613.398 6  99611463.493 6  24326120.297                    24326137.556  
     -3273.098       -2550.613          36.000          38.000  
 24  1 10  3 17  4.4000000  0  7G24G16G18G23G10G32G15
 129643457.648 6 101020967.270 6  24670329.796                    24670351.430  
       392.961         305.734          36.000          40.000  
 128967930.098 5 100494675.062 2  24541802.834    24541826.584                  
     -2172.949       -1693.246          35.000          17.000  
 114158521.574 7  88954756.740 7  21723645.844                    21723660.761  
     -1706.336       -1329.656          42.000          43.000  
 110837058.821 7  86366597.226 7  21091592.021                    21091606.626  
     -1729.352       -1347.668          44.000          44.000  
 109094532.218 7  85008794.353 7  20760000.999                    20760016.578  
       186.828         145.695          46.000          44.000  
 117449038.250 7  91518817.374 6  22349809.269                    22349828.478  
      2963.359        2308.879          46.000          41.000  
 127834940.752 6  99611718.538 6  24326182.364                    24326200.169  
     -3273.539       -2550.566          36.000          38.000  
 24  1 10  3 17  4.5000000  0  7G24G16G18G23G10G32G15
 129643418.187 6 101020936.642 6  24670322.287                    24670343.951  
       394.129         306.344          36.000          40.000  
 128968147.400 5 100494844.374 2  24541844.185    24541867.932                  
     -2173.273       -1693.332          34.000          17.000  
 114158692.119 7  88954889.650 7  21723678.297                    21723693.219  
     -1705.207       -1328.871          42.000          43.000  
 110837231.753 7  86366731.994 7  21091624.929                    21091639.537  
     -1729.367       -1347.598          44.000          44.000  
 109094513.556 7  85008779.831 7  20759997.448                    20760013.031  
       186.684         145.371          46.000          44.000  
 117448741.862 7  91518586.414 6  22349752.868                    22349772.075  
      2963.918        2309.680          46.000          41.000  
 127835268.095 6  99611973.606 6  24326244.655                    24326262.459  
     -3273.578       -2550.773          37.000          38.000  
 24  1 10  3 17  4.6000000  0  7G24G16G18G23G10G32G15
 129643378.809 5 101020905.965 6  24670314.231                    24670336.506  
       393.672         306.797          35.000          39.000  
 128968364.674 5 100495013.664 2  24541885.640    24541909.360                  
     -2173.164       -1693.211          34.000          17.000  
 114158862.634 7  88955022.514 7  21723710.831                    21723725.221  
     -1705.004       -1328.445          43.000          43.000  
 110837404.682 7  86366866.715 7  21091658.281                    21091672.039  
     -1729.180       -1347.320          44.000          43.000  
 109094494.921 7  85008765.303 7  20759993.644                    20760009.663  
       186.328         145.152          46.000          44.000  
 117448445.424 7  91518355.416 6  22349696.380                    22349715.327  
      2964.422        2309.805          46.000          41.000  
 127835595.464 6  99612228.725 6  24326306.967                    24326325.082  
     -3273.676       -2551.074          37.000          38.000  
 24  1 10  3 17  4.7000000  0  7G24G16G18G23G10G32G15
 129643339.474 5 101020875.241 6  24670306.746                    24670329.003  
       393.941         307.105          35.000          39.000  
 128968582.107 5 100495183.087 2  24541927.016    24541950.735                  
     -2174.035       -1694.012          34.000          17.000  
 114159033.083 7  88955155.339 7  21723743.267                    21723757.658  
     -1704.605       -1328.402          44.000          43.000  
 110837577.672 7  86367001.530 7  21091691.200                    21091704.962  
     -1729.801       -1347.719          45.000          43.000  
 109094476.313 7  85008750.844 7  20759990.103                    20760006.132  
       186.113         144.719          46.000          44.000  
 117448148.943 7  91518124.410 6  22349639.962                    22349658.913  
      2964.844        2310.309          46.000          41.000  
 127835922.829 6  99612483.824 6  24326369.263                    24326387.380  
     -3273.688       -2550.961          36.000          38.000  
 24  1 10  3 17  4.8000000  0  7G24G16G18G23G10G32G15
 129643300.019 5 101020844.477 6  24670298.660                    24670321.506  
       394.062         307.574          35.000          39.000  
 128968799.584 5 100495352.545 2  24541968.002    24541992.149                  
     -2174.484       -1694.391          34.000          16.000  
 114159203.536 7  88955288.152 7  21723776.546                    21723790.475  
     -1704.293       -1327.992          44.000          43.000  
 110837750.630 7  86367136.268 7  21091724.293                    21091736.882  
     -1729.934       -1347.969          45.000          43.000  
 109094457.785 7  85008736.376 7  20759986.320                    20760002.458  
       185.324         144.574          46.000          44.000  
 117447852.455 7  91517893.357 6  22349583.612                    22349602.886  
      2964.809        2310.402          46.000          41.000  
 127836250.271 6  99612738.925 6  24326431.229                    24326450.014  
     -3274.191       -2551.074          37.000          38.000  
 24  1 10  3 17  4.9000000  0  7G24G16G18G23G10G32G15
 129643260.651 6 101020813.743 6  24670291.168                    24670314.000  
       393.949         307.449          36.000          39.000  
 128969017.054 5 100495522.019 2  24542009.385    24542033.537                  
     -2174.949       -1694.891          35.000          16.000  
 114159373.929 7  88955420.945 7  21723808.971                    21723822.905  
     -1704.273       -1328.090          44.000          44.000  
 110837923.686 7  86367271.157 7  21091757.224                    21091769.824  
     -1730.199       -1348.383          45.000          44.000  
 109094439.280 7  85008721.965 7  20759982.798                    20759998.939  
       184.938         144.125          46.000          44.000  
 117447555.952 7  91517662.300 7  22349527.190                    22349546.459  
      2965.145        2310.582          46.000          42.000  
 127836577.683 6  99612994.020 6  24326493.534                    24326512.311  
     -3273.938       -2551.133          37.000          38.000  
 24  1 10  3 17  5.0000000  0  7G24G16G18G23G10G32G15
 129643221.231 6 101020783.028 6  24670283.909                    24670306.156  
       394.078         307.227          37.000          39.000  
 128969234.502 5 100495691.479 2  24542050.866    24542074.920                  
     -2174.441       -1694.523          35.000          17.000  
 114159544.359 7  88955553.758 7  21723841.778                    21723855.354  
     -1704.281       -1328.023          43.000          44.000  
 110838096.745 7  86367405.991 7  21091789.969                    21091803.798  
     -1730.355       -1348.512          45.000          44.000  
 109094420.827 7  85008707.591 7  20759979.474                    20759995.835  
       184.832         143.656          46.000          44.000  
 117447259.421 7  91517431.239 6  22349470.480                    22349490.220  
      2965.082        2310.562          46.000          41.000  
 127836905.086 6  99613249.204 6  24326555.696                    24326574.559  
     -3274.074       -2551.562          36.000          38.000  
 24  1 10  3 17  5.1000000  0  7G24G16G18G23G10G32G15
 129643181.757 6 101020752.297 6  24670276.397                    24670298.651  
       394.383         307.258          36.000          39.000  
 128969452.059 5 100495861.002 2  24542092.266    24542116.320                  
     -2175.039       -1695.199          35.000          17.000  
 114159714.798 7  88955686.559 7  21723874.211                    21723887.786  
     -1704.379       -1328.023          42.000          44.000  
 110838269.820 7  86367540.851 7  21091822.904                    21091836.733  
     -1730.746       -1348.652          45.000          44.000  
 109094402.421 7  85008693.244 7  20759975.972                    20759992.331  
       184.504         143.551          46.000          44.000  
 117446962.884 7  91517200.177 6  22349414.051                    22349433.792  
      2965.234        2310.777          45.000          41.000  
 127837232.540 6  99613504.377 6  24326618.008                    24326636.875  
     -3274.336       -2551.594          36.000          38.000  
 24  1 10  3 17  5.2000000  0  7G24G16G18G23G10G32G15
 129643142.327 6 101020721.488 6  24670269.019                    24670290.783  
       394.406         307.848          36.000          39.000  
 128969669.555 5 100496030.490 2  24542133.529    24542157.687                  
     -2175.012       -1694.957          35.000          17.000  
 114159885.274 6  88955819.362 7  21723905.871                    21723920.507  
     -1704.488       -1327.906          41.000          44.000  
 110838442.920 7  86367675.730 7  21091855.758                    21091870.250  
     -1730.801       -1348.848          45.000          44.000  
 109094384.007 7  85008678.895 7  20759972.311                    20759988.506  
       184.230         143.441          46.000          44.000  
 117446666.322 7  91516969.086 7  22349357.664                    22349377.404  
      2965.438        2310.781          45.000          42.000  
 127837560.020 6  99613759.497 6  24326680.427                    24326698.701  
     -3274.559       -2551.469          37.000          38.000  
 24  1 10  3 17  5.3000000  0  7G24G16G18G23G10G32G15
 129643102.771 5 101020690.770 6  24670261.492                    24670283.281  
       395.020         307.277          35.000          39.000  
 128969887.127 5 100496200.035 2  24542174.931    24542199.092                  
     -2175.316       -1695.176          35.000          17.000  
 114160055.684 6  88955952.139 7  21723938.299                    21723952.932  
     -1704.176       -1327.828          41.000          44.000  
 110838616.037 7  86367810.646 7  21091888.701                    21091903.197  
     -1730.934       -1348.981          45.000          44.000  
 109094365.615 7  85008664.569 7  20759968.811                    20759985.008  
       184.117         143.273          46.000          44.000  
 117446369.759 7  91516738.002 7  22349301.230                    22349320.971  
      2965.574        2311.012          45.000          42.000  
